name,cuisines,aggregate_rating,rating_text,votes,currency,average_cost_for_two,price_range,locality,locality_verbose,city,zipcode,country_id,latitude,longitude,has_online_delivery,has_table_booking
Sant'Eustachio il Caffè,"Cafe, Desserts",4.7,Excellent,81,€,15,1,Navona - Pantheon,"Navona - Pantheon, Roma",Roma,186,99,41.8984750000,12.4753805556,0,0
Antico Caffé Greco,"Cafe, Tavola Fredda",4.6,Excellent,48,€,40,3,Spagna,"Spagna, Roma",Roma,00187,99,41.9056113207,12.4816365167,0,0
Pompi Il Regno del Tiramisù,"Cafe, Ice Cream, Desserts, Tavola Fredda",4.4,Very Good,98,€,15,1,Re di Roma,"Re di Roma, Roma",Roma,00183,99,41.8806768635,12.5131477788,0,0
La Casa del Caffè - Tazza d'Oro,"Cafe, Tavola Fredda",4.4,Very Good,33,€,15,1,Navona - Pantheon,"Navona - Pantheon, Roma",Roma,186,99,41.8994611111,12.4775750000,0,0
Magnum Roma,"Cafe, Ice Cream",4.4,Very Good,24,€,15,1,Spagna,"Spagna, Roma",Roma,00187,99,41.9046735877,12.4778341502,0,0
Il Gianfornaio,"Cafe, Desserts, Pizza, Tavola Fredda, Tavola Calda",4.3,Very Good,43,€,20,2,Prati,"Prati, Roma",Roma,00194,99,41.9085137639,12.4649799988,0,0
Maranega,"Cafe, Pizza, Roman, Italian",4.1,Very Good,27,€,50,4,Campo de' Fiori,"Campo de' Fiori, Roma",Roma,00186,99,41.8955308429,12.4726142362,0,0
Bar Celestino,"Cafe, Tavola Fredda",4.1,Very Good,65,€,10,1,San Lorenzo,"San Lorenzo, Roma",Roma,00185,99,41.8982100000,12.5170170000,0,0
"Le Voilà - Facoltà di Giurisprudenza, Roma Tre","Cafe, Tavola Fredda, Tavola Calda",4.1,Very Good,47,€,10,1,Ostiense,"Ostiense, Roma",Roma,00154,99,41.8624271414,12.4800915644,0,0
La Portineria,"Cafe, Desserts, Tavola Fredda, Tavola Calda",4.1,Very Good,24,€,15,1,Salario,"Salario, Roma",Roma,00198,99,41.9118437259,12.5035867095,0,0
Castroni,"Cafe, Tavola Fredda",4.1,Very Good,20,€,15,1,Prati,"Prati, Roma",Roma,00192,99,41.9073465145,12.4632087350,0,0
Meccanismo,"Cafe, Panini, Italian",4.0,Very Good,37,€,50,4,Trastevere,"Trastevere, Roma",Roma,00153,99,41.8915456271,12.4701415747,0,0
Bar del Fico,"Cafe, Tavola Fredda, Tavola Calda",4.0,Very Good,43,€,40,3,Navona - Pantheon,"Navona - Pantheon, Roma",Roma,00186,99,41.8993538509,12.4705328420,0,0
Bar San Calisto,"Cafe, Tavola Fredda, Ice Cream",4.1,Very Good,28,€,10,1,Trastevere,"Trastevere, Roma",Roma,00153,99,41.8890949253,12.4706743285,0,0
Caffè Perù,"Cafe, Tavola Fredda, Tavola Calda",4.0,Very Good,19,€,10,1,Campo de' Fiori,"Campo de' Fiori, Roma",Roma,00186,99,41.8954569710,12.4701761082,0,0
La Fiorentina,"Pizza, Cafe, Grill, Steak, Tuscan, Desserts, Italian",4.0,Very Good,26,€,40,3,Prati,"Prati, Roma",Roma,00192,99,41.9100924361,12.4528252333,0,0
Canova,"Cafe, Tavola Fredda, Roman, Italian",4.0,Very Good,23,€,80,4,Spagna,"Spagna, Roma",Roma,00187,99,41.9103222348,12.4770123884,0,0
"Le Voilà - Facoltà di Lettere e Filosofia, Roma Tre","Cafe, Tavola Fredda, Tavola Calda",3.9,Good,29,€,10,1,San Paolo,"San Paolo, Roma",Roma,00146,99,41.8509420000,12.4756160000,0,0
Ciuri Ciuri,"Cafe, Desserts, Ice Cream, Tavola Calda, Sicilian",3.9,Good,22,€,20,2,Monti,"Monti, Roma",Roma,00184,99,41.8948003551,12.4919640273,0,0
Vyta,"Cafe, Desserts, Tavola Fredda",3.8,Good,15,€,10,1,"Stazione Termini, Esquilino - Termini","Stazione Termini, Esquilino - Termini, Roma",Roma,00186,99,41.9018600000,12.5027780000,0,0
Caffè Trombetta,"Cafe, Tavola Fredda",3.9,Good,25,€,10,1,Policlinico,"Policlinico, Roma",Roma,00161,99,41.9078861111,12.5186166667,0,0
Caffè Novecento,"Cafe, Tavola Fredda, Tavola Calda, Desserts",3.9,Good,17,€,40,3,Navona - Pantheon,"Navona - Pantheon, Roma",Roma,00186,99,41.8992160978,12.4691786617,0,0
Nonna Vincenza,"Cafe, Desserts, Sicilian",3.9,Good,11,€,15,1,Campo de' Fiori,"Campo de' Fiori, Roma",Roma,00186,99,41.8940503922,12.4730873108,0,0
Baylon Cafè,"Cafe, Tavola Fredda, Italian",4.0,Very Good,26,€,40,3,Trastevere,"Trastevere, Roma",Roma,00153,99,41.8877393740,12.4713934958,0,0
Rossopomodoro,"Neapolitan, Pizza, Italian",3.8,Good,24,€,40,3,Campo de' Fiori,"Campo de' Fiori, Roma",Roma,00186,99,41.8958512866,12.4762617052,0,0
Pascucci Frullati,"Cafe, Tavola Fredda, Healthy Food",3.8,Good,11,€,15,1,Navona - Pantheon,"Navona - Pantheon, Roma",Roma,186,99,41.8964015775,12.4764169380,0,0
Bar dei Brutti,"Cafe, Tavola Fredda",3.8,Good,17,€,15,1,San Lorenzo,"San Lorenzo, Roma",Roma,00185,99,41.8974722222,12.5142750000,0,0
MparE...,"Cafe, Seafood, Italian, Sicilian",3.8,Good,22,€,40,3,Bologna,"Bologna, Roma",Roma,00161,99,41.9101091533,12.5188890472,0,0
Libreria Kappa,"Cafe, Tavola Fredda",3.8,Good,14,€,15,1,Policlinico,"Policlinico, Roma",Roma,00161,99,41.9064611111,12.5168111111,0,0
Trevi Caffè,"Cafe, Pizza, Ice Cream, Tavola Fredda",3.8,Good,8,€,25,2,Fontana di Trevi,"Fontana di Trevi, Roma",Roma,00187,99,41.9008057303,12.4837809429,0,0
Don Nino,"Desserts, Ice Cream, Cafe, Tavola Fredda",3.8,Good,13,€,15,1,Quartiere Africano,"Quartiere Africano, Roma",Roma,00199,99,41.9281247530,12.5156315044,0,0
Rosati Piazza del Popolo,"Cafe, Italian",3.8,Good,20,€,80,4,Spagna,"Spagna, Roma",Roma,00187,99,41.9100837032,12.4761054665,0,0
PuroSud,"Cafe, Ice Cream, Desserts, Tavola Fredda, Tavola Calda",3.8,Good,13,€,15,1,Tiburtina,"Tiburtina, Roma",Roma,157,99,41.9093089685,12.5373852253,0,0
Vitti,"Cafe, Roman, Italian",3.8,Good,19,€,60,4,Spagna,"Spagna, Roma",Roma,00186,99,41.9037063958,12.4782042950,0,0
Barrique,"Pizza, Cafe, Grill, Italian",3.8,Good,11,€,50,4,Colosseo,"Colosseo, Roma",Roma,184,99,41.8936944444,12.4892250000,0,0
Recafé,"Cafe, Pizza, Neapolitan, Italian",3.8,Good,19,€,50,4,Spagna,"Spagna, Roma",Roma,00186,99,41.9056457555,12.4772236124,0,0
Canova Tadolini - Museo Atelier,"Cafe, Italian",3.8,Good,13,€,70,4,Spagna,"Spagna, Roma",Roma,00187,99,41.9077819275,12.4796134606,0,0
Mario Tornatora,"Cafe, Tavola Fredda",3.8,Good,11,€,10,1,Marconi,"Marconi, Roma",Roma,00146,99,41.8678890000,12.4664730000,0,0
Sciascia Caffè,"Cafe, Tavola Fredda",3.7,Good,9,€,15,1,Prati,"Prati, Roma",Roma,00192,99,41.9097333895,12.4618545547,0,0
Il Cornettone,"Cafe, Desserts",3.7,Good,20,€,10,1,Marconi,"Marconi, Roma",Roma,00146,99,41.8634944444,12.4642833333,0,0
Fermento,"Cafe, Italian",3.7,Good,14,€,50,4,Prati,"Prati, Roma",Roma,00193,99,41.9081337490,12.4681966379,0,0
Il Gianfornaio,"Cafeteria, Bakery, Pizza, Tavola Fredda",3.7,Good,14,€,10,1,Eur,"Eur, Roma",Roma,00144,99,41.8325111111,12.4628611111,0,0
Il Catanese,"Cafe, Desserts, Ice Cream, Sicilian, Tavola Calda",3.7,Good,8,€,15,1,Prati,"Prati, Roma",Roma,00193,99,41.9066960095,12.4701318517,0,0
Suggestum Caffé,"Pizza, Roman, Italian",3.7,Good,12,€,60,4,Veneto,"Veneto, Roma",Roma,187,99,41.9046833333,12.4883305556,0,0
AntiCafé,"Cafe, Desserts",3.7,Good,11,€,15,1,Re di Roma,"Re di Roma, Roma",Roma,00183,99,41.8844802924,12.5101695210,0,0
Mi Vida,"Cafe, Frozen Yogurt, Tavola Fredda, Tavola Calda",3.7,Good,10,€,15,1,San Paolo,"San Paolo, Roma",Roma,00145,99,41.8516722222,12.4784944444,0,0
Il Giglio,"Cafe, Tavola Fredda, Desserts",3.7,Good,11,€,10,1,Policlinico,"Policlinico, Roma",Roma,00161,99,41.9067388889,12.5171361111,0,0
Caffetteria Bistrot Chiostro del Bramante,"Cafe, Coffee and Tea, Italian",3.7,Good,7,€,20,2,Navona - Pantheon,"Navona - Pantheon, Roma",Roma,00186,99,41.9000253929,12.4716654047,0,0
La Fenice,"Healthy Food, Italian",3.7,Good,8,€,60,4,Spagna,"Spagna, Roma",Roma,00187,99,41.9048829444,12.4859702960,0,0
Meeting Place,"Cafe, Tavola Calda, Tavola Fredda",3.6,Good,109,€,10,1,Bologna,"Bologna, Roma",Roma,00162,99,41.9137568908,12.5212104991,0,0
Caffè - La Feltrinelli,"Cafe, Tavola Fredda",3.6,Good,5,€,15,1,Navona - Pantheon,"Navona - Pantheon, Roma",Roma,186,99,41.8961585018,12.4765899405,0,0
Grif Cafè,"Cafe, Tavola Fredda, Tavola Calda",3.6,Good,10,€,15,1,Prati,"Prati, Roma",Roma,00192,99,41.9088810513,12.4664733186,0,0
Giselda,"Cafe, Pizza, Desserts, Bakery, Tavola Calda",3.6,Good,11,€,15,1,Trastevere,"Trastevere, Roma",Roma,00153,99,41.8867419734,12.4719634652,0,0
Industrial Eat,"Cafe, Burger, Seafood, Pizza, Italian",3.6,Good,14,€,50,4,Salario,"Salario, Roma",Roma,198,99,41.9110542916,12.5019344687,0,0
Baccanale,"Cafe, Roman, Healthy Food, Italian",3.6,Good,11,€,50,4,Campo de' Fiori,"Campo de' Fiori, Roma",Roma,00186,99,41.8958395570,12.4721364677,0,0
Coffee Bean,"Cafe, Tavola Fredda",3.6,Good,9,€,15,1,San Paolo,"San Paolo, Roma",Roma,00146,99,41.8541520000,12.4770750000,0,0
Sapori e Parole,"Cafe, Pizza, Italian, Desserts",3.6,Good,9,€,30,3,Re di Roma,"Re di Roma, Roma",Roma,00181,99,41.8812727165,12.5151352957,0,0
L'Angolo Russo,"Cafe, Tavola Fredda",3.6,Good,10,€,10,1,Monte Sacro,"Monte Sacro, Roma",Roma,00141,99,41.9355444444,12.5344444444,0,0
Pizza Zizza,"Pizza, Cafe, Tavola Fredda, Tavola Calda",3.6,Good,8,€,15,1,Trastevere,"Trastevere, Roma",Roma,00165,99,41.8997777778,12.4563500000,0,0
Gruè MF,"Cafe, Desserts, Tavola Fredda, Tavola Calda",3.6,Good,8,€,15,1,Quartiere Trieste,"Quartiere Trieste, Roma",Roma,00198,99,41.9174363536,12.5012407824,0,0
Danieli,"Cafe, Desserts",3.6,Good,6,€,10,1,Quartiere Trieste,"Quartiere Trieste, Roma",Roma,00198,99,41.9135899777,12.5060771406,0,0
Stendal,"Cafe, Tavola Calda, Tavola Fredda",3.6,Good,7,€,15,1,Bologna,"Bologna, Roma",Roma,00162,99,41.9093138889,12.5215777778,0,0
Caffè Trombetta,"Cafe, Tavola Fredda",3.6,Good,8,€,10,1,Castro Pretorio,"Castro Pretorio, Roma",Roma,00185,99,41.9019641158,12.5031676143,0,0
Luma Bistrot,"Roman, Italian",3.6,Good,11,€,50,4,Prati,"Prati, Roma",Roma,00192,99,41.9099315016,12.4569886923,0,0
Enzo Bar,"Cafe, Tavola Fredda",3.6,Good,7,€,10,1,Ghetto,"Ghetto, Roma",Roma,00186,99,41.8937978237,12.4780721962,0,0
I Dolci di Checco er Carettiere,"Cafe, Desserts, Ice Cream, Tavola Fredda",3.6,Good,6,€,10,1,Trastevere,"Trastevere, Roma",Roma,00153,99,41.8915548616,12.4695819989,0,0
Ciampini,"Cafe, Tavola Fredda, Tavola Calda, Italian",3.5,Good,10,€,50,4,Prati,"Prati, Roma",Roma,00192,99,41.9085851257,12.4667764083,0,0
Il Piccolo Diavolo,"Cafe, Tavola Fredda",3.5,Good,9,€,20,2,Prati,"Prati, Roma",Roma,00192,99,41.9088496124,12.4678345397,0,0
DeRiva Aniene,"Cafe, Finger Food",3.5,Good,12,€,30,3,Monte Sacro,"Monte Sacro, Roma",Roma,00141,99,41.9351890000,12.5322380000,0,0
Pepy's Bar,"Cafe, Tavola Fredda, Tavola Calda, Italian",3.5,Good,8,€,30,3,Veneto,"Veneto, Roma",Roma,187,99,41.9034361111,12.4881444444,0,0
Creo,"Cafe, Italian",3.5,Good,10,€,20,2,Salario,"Salario, Roma",Roma,00198,99,41.9117305556,12.4980444444,0,0
Merulana Cafè,"Cafe, Grill, Italian",3.5,Good,9,€,40,3,San Giovanni,"San Giovanni, Roma",Roma,00185,99,41.8875636569,12.5045150891,0,0
Desideri...e Caffè,"Cafe, Desserts, Tavola Fredda, Tavola Calda",3.5,Good,6,€,15,1,San Paolo,"San Paolo, Roma",Roma,00145,99,41.8561970000,12.4786080000,0,0
Il Barocco,"Cafe, Pizza, Italian",3.5,Good,12,€,50,4,Monti,"Monti, Roma",Roma,184,99,41.9013721989,12.4935552478,0,0
La Ciambella,"Cafe, Pizza, Italian",3.5,Good,9,€,25,2,Navona - Pantheon,"Navona - Pantheon, Roma",Roma,186,99,41.8970027778,12.4769722222,0,0
Ris Café,"Burger, Italian",3.5,Good,11,€,30,3,Prati,"Prati, Roma",Roma,00192,99,41.9066453562,12.4572770298,0,0
Magnolia,"Cafe, Pizza, Tavola Fredda, Italian",3.5,Good,5,€,60,4,Campo de' Fiori,"Campo de' Fiori, Roma",Roma,00186,99,41.8952106472,12.4724080414,0,0
Giolitti - Casina dei Tre Laghi,"Cafe, Ice Cream, Italian, Desserts",3.5,Good,6,€,40,3,Eur,"Eur, Roma",Roma,00144,99,41.8285690000,12.4629490000,0,0
Tribeca Cafè,"Cafe, Tavola Calda, Italian",3.5,Good,8,€,15,1,Salario,"Salario, Roma",Roma,198,99,41.9111271475,12.5023917854,0,0
Napoleoni,"Cafe, Home-made, Desserts",3.5,Good,6,€,15,1,Appio Latino,"Appio Latino, Roma",Roma,00179,99,41.8701555556,12.5288000000,0,0
La Casa del Cremolato,"Cafe, Ice Cream",3.5,Good,7,€,8,1,Quartiere Africano,"Quartiere Africano, Roma",Roma,00199,99,41.9282439852,12.5092421472,0,0
Al Biscione,"Cafe, Tavola Fredda, Italian",3.5,Good,7,€,20,2,Campo de' Fiori,"Campo de' Fiori, Roma",Roma,00186,99,41.8956004722,12.4730360135,0,0
Caffè Delle Arti - Galleria Nazionale d'Arte Moderna,"Cafe, Italian",3.5,Good,7,€,50,4,Parioli,"Parioli, Roma",Roma,00197,99,41.9175944444,12.4815055556,0,0
The Yellow,"Cafe, Burger, Tavola Fredda",3.5,Good,4,€,50,4,Castro Pretorio,"Castro Pretorio, Roma",Roma,00185,99,41.9049236179,12.5044198707,0,0
Circus Art Music Drink & Food,"Cafe, Tavola Fredda",3.5,Good,5,€,20,2,Navona - Pantheon,"Navona - Pantheon, Roma",Roma,00186,99,41.8998750000,12.4700416667,0,0
Bar Romoli,"Cafe, Tavola Fredda, Desserts, Ice Cream",3.4,Average,23,€,10,1,Quartiere Africano,"Quartiere Africano, Roma",Roma,00199,99,41.9284612467,12.5160586461,0,0
Bar Monti,"Cafe, Tavola Fredda",3.4,Average,7,€,10,1,Monti,"Monti, Roma",Roma,00184,99,41.8957971308,12.4935924634,0,0
Tazza D'oro,"Cafe, Tavola Fredda",3.4,Average,6,€,10,1,Monti,"Monti, Roma",Roma,00184,99,41.8998222222,12.4955888889,0,0
Le Voilà - La Sapienza,"Cafe, Pizza, Tavola Fredda, Tavola Calda",3.4,Average,6,€,10,1,Policlinico,"Policlinico, Roma",Roma,00185,99,41.9013441000,12.5169426000,0,0
Saporiti,"Cafe, Desserts",3.4,Average,6,€,15,1,Pietralata,"Pietralata, Roma",Roma,00141,99,41.9328388889,12.5360361111,0,0
Shout Sisters,"Cafe, Panini",3.4,Average,10,€,20,2,San Paolo,"San Paolo, Roma",Roma,00146,99,41.8539870000,12.4754610000,0,0
D'Antoni & D'Antoni,"Cafe, Desserts, Tavola Fredda, Tavola Calda, Italian",3.4,Average,9,€,15,1,Centocelle,"Centocelle, Roma",Roma,177,99,41.8977170156,12.5648124889,0,0
Cafè Cafè,"Home-made, Healthy Food, Cafe, Pizza, Italian",3.4,Average,10,€,30,3,Colosseo,"Colosseo, Roma",Roma,00184,99,41.8895250000,12.4943361111,0,0
Roxy Bar,"Cafe, Tavola Fredda",3.4,Average,6,€,10,1,Parioli,"Parioli, Roma",Roma,00197,99,41.9223419740,12.4807078019,0,0
Obladì Obladà,"Cafe, Italian",3.4,Average,4,€,40,3,Prati,"Prati, Roma",Roma,00193,99,41.9073597392,12.4692095071,0,0
C'era una volta... Il Caffè,"Cafe, Tavola Fredda",3.4,Average,7,€,10,1,Tiburtina,"Tiburtina, Roma",Roma,159,99,41.9085529380,12.5375407934,0,0
Bar Amore,"Cafe, Tavola Fredda",3.4,Average,4,€,10,1,Ghetto,"Ghetto, Roma",Roma,00186,99,41.8947861111,12.4771694444,0,0
Caffè Sicilia,"Cafe, Sicilian, Tavola Fredda, Tavola Calda",3.4,Average,10,€,60,4,Trastevere,"Trastevere, Roma",Roma,00153,99,41.8911702532,12.4667656794,0,0
Bar Gelateria Duse,"Cafe, Ice Cream",3.4,Average,6,€,10,1,Pinciano,"Pinciano, Roma",Roma,00198,99,41.9276722222,12.4920000000,0,0
Bar Marani,"Cafe, Tavola Fredda",3.4,Average,5,€,10,1,San Lorenzo,"San Lorenzo, Roma",Roma,00185,99,41.8969777778,12.5133694444,0,0
Grazia & Graziella,"Pizza, Roman, Italian",4.8,Excellent,156,€,40,3,Trastevere,"Trastevere, Roma",Roma,00153,99,41.8896565059,12.4692195654,0,0
Spaghetteria Pizzeria L'Archetto,"Pizza, Italian",4.6,Excellent,110,€,50,4,Fontana di Trevi,"Fontana di Trevi, Roma",Roma,00187,99,41.8993458652,12.4829316884,0,0
Ginger,"Healthy Food, Cafe, Italian",4.6,Excellent,74,€,60,4,Spagna,"Spagna, Roma",Roma,187,99,41.9044638889,12.4794750000,0,0
Roscioli,"Roman, Italian",4.5,Excellent,63,€,70,4,Campo de' Fiori,"Campo de' Fiori, Roma",Roma,00186,99,41.8942637769,12.4742413312,0,0
Da Enzo al 29,"Roman, Italian",4.5,Excellent,51,€,50,4,Trastevere,"Trastevere, Roma",Roma,00153,99,41.8881457179,12.4777526781,0,0
Hard Rock Cafe,"Burger, American",4.4,Very Good,68,€,60,4,Veneto,"Veneto, Roma",Roma,00187,99,41.9061777778,12.4898333333,0,0
Dolce,"Cafe, Burger, Desserts, Italian",4.4,Very Good,76,€,50,4,Quartiere Africano,"Quartiere Africano, Roma",Roma,00199,99,41.9304410000,12.5196370000,0,0
Kilo - Funny Burger,"Burger, Grill, Italian",4.4,Very Good,82,€,50,4,Salario,"Salario, Roma",Roma,00198,99,41.9183230000,12.4985730000,0,0
Vecchia Roma,"Roman, Italian",4.4,Very Good,54,€,50,4,Esquilino - Termini,"Esquilino - Termini, Roma",Roma,00185,99,41.8936472222,12.5023611111,0,0
Bir & Fud,"Pizza, Burger, Italian",4.4,Very Good,74,€,50,4,Trastevere,"Trastevere, Roma",Roma,00153,99,41.8917510335,12.4689208344,0,0
Tre Scalini,"Roman, Ice Cream, Cafe, Italian",4.4,Very Good,25,€,70,4,Navona - Pantheon,"Navona - Pantheon, Roma",Roma,00186,99,41.8993608383,12.4728965387,0,0
Sushisen,"Sushi, Japanese, Asian",4.4,Very Good,36,€,50,4,Testaccio,"Testaccio, Roma",Roma,00154,99,41.8750527778,12.4792972222,0,0
Ivo a Trastevere,"Pizza, Roman, Italian",4.4,Very Good,52,€,50,4,Trastevere,"Trastevere, Roma",Roma,00153,99,41.8881235039,12.4711081758,0,0
Temakinho,"Fusion, Sushi, Japanese, Brazilian",4.4,Very Good,24,€,70,4,Borgo,"Borgo, Roma",Roma,00193,99,41.9050700000,12.4597590000,0,0
Porto Fluviale,"Pizza, Roman, Grill, Mediterranean",4.3,Very Good,117,€,50,4,Ostiense,"Ostiense, Roma",Roma,00154,99,41.8727140000,12.4779380000,0,0
Momart,"Pizza, Burger, Italian",4.3,Very Good,178,€,50,4,Bologna,"Bologna, Roma",Roma,00162,99,41.9197277778,12.5197888889,0,0
Fatto in Casa,"Roman, Grill, Italian",4.3,Very Good,59,€,60,4,Navona - Pantheon,"Navona - Pantheon, Roma",Roma,00186,99,41.8986356350,12.4699052051,0,0
Mò Mò Republic,"Pizza, Italian",4.3,Very Good,103,€,60,4,Gianicolense,"Gianicolense, Roma",Roma,00151,99,41.8672833333,12.4500888889,0,0
Porto,"Seafood, Fish and Chips, Modern European",4.3,Very Good,75,€,50,4,Prati,"Prati, Roma",Roma,00193,99,41.9057527778,12.4633527778,0,0
Temakinho,"Fusion, Sushi, Japanese, Brazilian",4.3,Very Good,46,€,70,4,Monti,"Monti, Roma",Roma,00184,99,41.8955243542,12.4905313924,0,0
Maharajah,Indian,4.3,Very Good,57,€,60,4,Monti,"Monti, Roma",Roma,00184,99,41.8960931157,12.4903000519,0,0
We Food - Eat Love Drink,"Steak, BBQ, Burger",4.3,Very Good,22,€,40,3,Policlinico,"Policlinico, Roma",Roma,00162,99,41.9089100000,12.5225120000,0,0
Cul de Sac,Italian,4.3,Very Good,45,€,40,3,Navona - Pantheon,"Navona - Pantheon, Roma",Roma,00186,99,41.8978056089,12.4721585959,0,0
Nonna Betta,"Jewish, Roman, Italian, Middle Eastern",4.3,Very Good,38,€,60,4,Ghetto,"Ghetto, Roma",Roma,00186,99,41.8927835464,12.4780322984,0,0
That's Amore,"Pizza, Roman, Seafood, Italian",4.4,Very Good,37,€,70,4,Fontana di Trevi,"Fontana di Trevi, Roma",Roma,187,99,41.9020833333,12.4857805556,0,0
La Prosciutteria,Tavola Fredda,4.3,Very Good,38,€,40,3,Fontana di Trevi,"Fontana di Trevi, Roma",Roma,00187,99,41.9018852604,12.4844820052,0,0
Il Guru,Indian,4.3,Very Good,48,€,50,4,Monti,"Monti, Roma",Roma,00184,99,41.8961008522,12.4905193225,0,0
Roma Sparita,"Roman, Pizza, Italian",4.3,Very Good,38,€,60,4,Trastevere,"Trastevere, Roma",Roma,00153,99,41.8873529954,12.4769771844,0,0
100 Montaditos,"Burger, Tapas, Spanish",4.2,Very Good,143,€,25,2,Policlinico,"Policlinico, Roma",Roma,00185,99,41.8990750000,12.5154444444,0,0
Stazione 38,"Cafe, Roman, Italian",4.2,Very Good,38,€,50,4,Marconi,"Marconi, Roma",Roma,00146,99,41.8698360000,12.4668170000,0,0
T Bar,"Roman, Pizza, Burger, Italian",4.2,Very Good,79,€,30,3,Ostiense,"Ostiense, Roma",Roma,00154,99,41.8628970000,12.4784160000,0,0
Necci,"Cafe, Italian, Desserts",4.2,Very Good,56,€,50,4,Pigneto,"Pigneto, Roma",Roma,00176,99,41.8892694444,12.5303694444,0,0
L'Antica Birreria Peroni,"Burger, German, Roman, Italian",4.2,Very Good,46,€,60,4,Fontana di Trevi,"Fontana di Trevi, Roma",Roma,00187,99,41.8987461878,12.4825078994,0,0
Meat & Lobster,"Seafood, Burger, Steak",4.2,Very Good,28,€,60,4,San Lorenzo,"San Lorenzo, Roma",Roma,00185,99,41.8985060000,12.5182170000,0,0
La Montecarlo,"Pizza, Roman, Italian",4.2,Very Good,49,€,50,4,Navona - Pantheon,"Navona - Pantheon, Roma",Roma,00186,99,41.8976384045,12.4706850573,0,0
Oishi,"Sushi, Chinese, Japanese, Asian",4.2,Very Good,37,€,50,4,Ostiense,"Ostiense, Roma",Roma,00154,99,41.8715544014,12.4791735783,0,0
Velavevodetto ai Quiriti,"Grill, Roman, Italian",4.2,Very Good,26,€,50,4,Prati,"Prati, Roma",Roma,00192,99,41.9090222222,12.4641277778,0,0
Cajo & Gajo,"Roman, Italian",4.2,Very Good,28,€,50,4,Trastevere,"Trastevere, Roma",Roma,00153,99,41.8888278607,12.4707829580,0,0
Ippokrates,Greek,4.2,Very Good,27,€,40,3,Veneto,"Veneto, Roma",Roma,00187,99,41.9089361111,12.4985333333,0,0
Sakana Sushi,"Sushi, Japanese, Asian",4.2,Very Good,26,€,60,4,Ostiense,"Ostiense, Roma",Roma,00154,99,41.8718754646,12.4790552258,0,0
La Taverna dei Fori Imperiali,"Roman, Italian",4.2,Very Good,18,€,50,4,Monti,"Monti, Roma",Roma,00184,99,41.8939999784,12.4885442108,0,0
Carlo Menta,"Roman, Pizza, Seafood, Italian",4.1,Very Good,94,€,50,4,Trastevere,"Trastevere, Roma",Roma,00153,99,41.8896694846,12.4729545414,0,0
Maranega,"Cafe, Pizza, Roman, Italian",4.1,Very Good,27,€,50,4,Campo de' Fiori,"Campo de' Fiori, Roma",Roma,00186,99,41.8955308429,12.4726142362,0,0
Hamburgheria di Eataly,"Burger, Italian",4.1,Very Good,34,€,40,3,Veneto,"Veneto, Roma",Roma,00187,99,41.9046055556,12.4884750000,0,0
J. Percorsi Burger & Cocktails,Burger,4.1,Very Good,18,€,60,4,Trastevere,"Trastevere, Roma",Roma,00153,99,41.8890916806,12.4757939950,0,0
Prati Urbani,"Home-made, Italian",4.1,Very Good,27,€,40,3,Prati,"Prati, Roma",Roma,00193,99,41.9062611111,12.4715972222,0,0
Taverna Trilussa,"Roman, Italian",4.1,Very Good,42,€,80,4,Trastevere,"Trastevere, Roma",Roma,00153,99,41.8907050000,12.4711780000,0,0
Caffè Propaganda,"Cafe, Seafood, Roman, Italian",4.1,Very Good,39,€,50,4,Colosseo,"Colosseo, Roma",Roma,00184,99,41.8884555556,12.4940694444,0,0
Il Margutta Vegetarian Food & Art,"Healthy Food, Modern European, Italian",4.1,Very Good,34,€,60,4,Spagna,"Spagna, Roma",Roma,00187,99,41.9095030897,12.4782079831,0,0
Docks & Co,"Burger, Grill, Tex-Mex, American",4.1,Very Good,31,€,50,4,Quartiere Trieste,"Quartiere Trieste, Roma",Roma,00199,99,41.9238220000,12.5109680000,0,0
Alla Rampa,"Seafood, Roman, Italian",4.1,Very Good,22,€,60,4,Spagna,"Spagna, Roma",Roma,00187,99,41.9054007187,12.4835029989,0,0
Coffee Pot,"Sushi, Tapas, Japanese, Mexican",4.1,Very Good,21,€,60,4,Bologna,"Bologna, Roma",Roma,00162,99,41.9138944444,12.5222666667,0,0
Ali Baba,"Arabian, Middle Eastern",4.1,Very Good,32,€,40,3,Tuscolano,"Tuscolano, Roma",Roma,00178,99,41.8677080079,12.5368779525,0,0
Armando al Pantheon,"Roman, Italian",4.1,Very Good,28,€,60,4,Navona - Pantheon,"Navona - Pantheon, Roma",Roma,00186,99,41.8989972222,12.4762055556,0,0
Est Artigiani del Gusto,"Seafood, Roman, Modern European",4.1,Very Good,18,€,60,4,Navona - Pantheon,"Navona - Pantheon, Roma",Roma,00186,99,41.8975570482,12.4713747203,0,0
Eataly,"Pizza, Burger, Steak, Desserts, Finger Food, Ice Cream, Cafe, Italian",4.1,Very Good,20,€,70,4,Esquilino - Termini,"Esquilino - Termini, Roma",Roma,00185,99,41.9024590000,12.4963940000,0,0
Quarto,Burger,4.1,Very Good,27,€,40,3,Prati,"Prati, Roma",Roma,00163,99,41.9057000000,12.4637916667,0,0
Zen Sushi,"Sushi, Japanese, Asian",4.1,Very Good,22,€,80,4,Prati,"Prati, Roma",Roma,00192,99,41.9105675022,12.4659677222,0,0
Mazzo - The Fooders,Italian,4.0,Very Good,15,€,70,4,Centocelle,"Centocelle, Roma",Roma,00171,99,41.8898936163,12.5633148104,0,0
I Fratelli,"Roman, Italian",4.1,Very Good,24,€,45,3,San Lorenzo,"San Lorenzo, Roma",Roma,00185,99,41.8976750000,12.5140527778,0,0
Ristorante Alessio,"Pizza, Grill, Roman, Italian",4.1,Very Good,20,€,60,4,Esquilino - Termini,"Esquilino - Termini, Roma",Roma,00184,99,41.9009055556,12.4971416667,0,0
Mama Eat,"Pizza, Neapolitan, Italian, Street Food",4.1,Very Good,19,€,50,4,Trastevere,"Trastevere, Roma",Roma,00153,99,41.8883972222,12.4701250000,0,0
Itoya,"Sushi, Japanese, Chinese, Asian",4.0,Very Good,32,€,40,3,Salario,"Salario, Roma",Roma,00198,99,41.9151390000,12.5036400000,0,0
TED (Lobster & Burger),"Burger, Seafood",4.0,Very Good,28,€,65,4,Prati,"Prati, Roma",Roma,00193,99,41.9062660000,12.4630930000,0,0
Krishna 13,Indian,4.1,Very Good,40,€,40,3,Esquilino - Termini,"Esquilino - Termini, Roma",Roma,00185,99,41.8928638889,12.5048083333,0,0
Gusto,"Pizza, Burger, Italian",4.0,Very Good,53,€,70,4,Spagna,"Spagna, Roma",Roma,00186,99,41.9067264514,12.4762090668,0,0
La Fraschetta di Castel Sant'Angelo,"Roman, Italian",4.0,Very Good,20,€,60,4,Navona - Pantheon,"Navona - Pantheon, Roma",Roma,00186,99,41.9000992596,12.4665554613,0,0
Hamburgeseria,Burger,4.0,Very Good,48,€,30,3,San Lorenzo,"San Lorenzo, Roma",Roma,00185,99,41.8982550000,12.5186640000,0,0
100 Montaditos,"Panini, Spanish",4.0,Very Good,42,€,20,2,Farnesina,"Farnesina, Roma",Roma,00135,99,41.9370166667,12.4657055556,0,0
La Crostaceria,"Seafood, Italian",4.0,Very Good,29,€,70,4,Monti,"Monti, Roma",Roma,00184,99,41.8963943402,12.4937309325,0,0
La. Vi. Latteria Vineria,"Modern European, Italian",4.0,Very Good,46,€,60,4,Spagna,"Spagna, Roma",Roma,00187,99,41.9047040305,12.4773728102,0,0
T-Bone Station,"Burger, American, Tex-Mex",4.0,Very Good,33,€,40,3,Prati,"Prati, Roma",Roma,00193,99,41.9052083333,12.4719500000,0,0
Obicà,"Roman, Pizza, Italian",4.0,Very Good,14,€,50,4,Navona - Pantheon,"Navona - Pantheon, Roma",Roma,00186,99,41.9024305556,12.4759472222,0,0
Enopolium,"Burger, Grill",4.0,Very Good,17,€,30,3,Prati,"Prati, Roma",Roma,00195,99,41.9132923274,12.4508642033,0,0
Hang Zhou,"Chinese, Asian",4.0,Very Good,25,€,50,4,Esquilino - Termini,"Esquilino - Termini, Roma",Roma,00185,99,41.8937580000,12.5086200000,0,0
Sciapò Street & Restaurant,"Seafood, Grill, Mediterranean, Italian",4.0,Very Good,21,€,60,4,Trastevere,"Trastevere, Roma",Roma,00153,99,41.8875636569,12.4772423878,0,0
Kalapà,"Street Food, Greek",4.0,Very Good,36,€,20,2,Pigneto,"Pigneto, Roma",Roma,00176,99,41.8895333333,12.5258194444,0,0
Voy,"Italian, Modern European",4.0,Very Good,27,€,60,4,Farnesina,"Farnesina, Roma",Roma,00191,99,41.9386888889,12.4687805556,0,0
Zuma,"Japanese, Asian",4.0,Very Good,14,€,80,4,Spagna,"Spagna, Roma",Roma,00186,99,41.9045450000,12.4785120000,0,0
La Fiorentina,"Pizza, Cafe, Grill, Steak, Tuscan, Desserts, Italian",4.0,Very Good,26,€,40,3,Prati,"Prati, Roma",Roma,00192,99,41.9100924361,12.4528252333,0,0
Soul Kitchen,"Apulian, Italian",4.0,Very Good,25,€,35,3,San Lorenzo,"San Lorenzo, Roma",Roma,00185,99,41.8990210000,12.5192450000,0,0
Dondolo,Continental,4.0,Very Good,16,€,40,3,Pietralata,"Pietralata, Roma",Roma,00141,99,41.9312160000,12.5376750000,0,0
Sugo d'Oro,"Pizza, Italian",4.0,Very Good,27,€,50,4,Spagna,"Spagna, Roma",Roma,00186,99,41.9042146974,12.4831295013,0,0
La Bottega del Caffè,"Cafe, Italian",4.0,Very Good,17,€,40,3,Monti,"Monti, Roma",Roma,184,99,41.8949216461,12.4910738692,0,0
Ditirambo,Italian,4.0,Very Good,23,€,50,4,Campo de' Fiori,"Campo de' Fiori, Roma",Roma,00186,99,41.8962888889,12.4722638889,0,0
Babington's Tea Room,"Cafe, Desserts, British, Coffee and Tea",4.0,Very Good,21,€,50,4,Spagna,"Spagna, Roma",Roma,00187,99,41.9060472222,12.4823027778,0,0
Trattoria Elettra,"Seafood, Italian",4.0,Very Good,24,€,50,4,Esquilino - Termini,"Esquilino - Termini, Roma",Roma,00185,99,41.8989444444,12.5000416667,0,0
T-Bone Station,"Burger, American, Tex-Mex",4.0,Very Good,21,€,40,3,Trastevere,"Trastevere, Roma",Roma,00153,99,41.8920277778,12.4682694444,0,0
Ham Holy Burger,Burger,3.9,Good,26,€,40,3,Salario,"Salario, Roma",Roma,00198,99,41.9119380000,12.5001270000,0,0
Il Brillo Parlante,"Pizza, Grill, Roman, Italian",4.0,Very Good,19,€,60,4,Spagna,"Spagna, Roma",Roma,00187,99,41.9093555556,12.4774027778,0,0
SambaMaki,"Sushi, Japanese, Brazilian, Asian",4.0,Very Good,17,€,40,3,Salario,"Salario, Roma",Roma,00198,99,41.9200000000,12.5000000000,0,0
T-Bone Station,"Burger, American, Tex-Mex",4.0,Very Good,28,€,40,3,Fontana di Trevi,"Fontana di Trevi, Roma",Roma,187,99,41.9034967857,12.4855458364,0,0
Lo Zozzone,"Pizza, Italian",4.0,Very Good,24,€,40,3,Navona - Pantheon,"Navona - Pantheon, Roma",Roma,00186,99,41.8988194444,12.4715583333,0,0
Pizza in Trevi,"Pizza, Italian",4.0,Very Good,16,€,40,3,Fontana di Trevi,"Fontana di Trevi, Roma",Roma,00187,99,41.9005135104,12.4836739898,0,0
Da Francesco,"Roman, Pizza, Italian",4.0,Very Good,25,€,50,4,Navona - Pantheon,"Navona - Pantheon, Roma",Roma,00186,99,41.8993935297,12.4704973027,0,0
Treebar,"Pizza, Modern European, Italian",4.0,Very Good,19,€,60,4,Flaminio,"Flaminio, Roma",Roma,00196,99,41.9230472222,12.4717472222,0,0
Canova,"Cafe, Tavola Fredda, Roman, Italian",4.0,Very Good,23,€,80,4,Spagna,"Spagna, Roma",Roma,00187,99,41.9103222348,12.4770123884,0,0
Sushi Yoshi,"Sushi, Japanese, Asian",4.0,Very Good,17,€,50,4,Ostiense,"Ostiense, Roma",Roma,00154,99,41.8708620876,12.4797549471,0,0
Da Zi Umberto,"Roman, Italian",4.0,Very Good,28,€,40,3,Trastevere,"Trastevere, Roma",Roma,00153,99,41.8920550238,12.4689124525,0,0
Maccheroni,"Roman, Italian",4.0,Very Good,22,€,50,4,Navona - Pantheon,"Navona - Pantheon, Roma",Roma,00186,99,41.9009060000,12.4759760000,0,0
Giolitti,"Cafe, Ice Cream, Italian, Desserts",4.8,Excellent,192,€,40,3,Navona - Pantheon,"Navona - Pantheon, Roma",Roma,00186,99,41.9011333333,12.4771861111,0,0
Said,"Desserts, Italian",4.3,Very Good,38,€,60,4,San Lorenzo,"San Lorenzo, Roma",Roma,00185,99,41.8990720000,12.5152950000,0,0
T Bar,"Roman, Pizza, Burger, Italian",4.2,Very Good,79,€,30,3,Ostiense,"Ostiense, Roma",Roma,00154,99,41.8628970000,12.4784160000,0,0
Doppiozeroo,"Cafe, Pizza, Tavola Calda, Italian",4.2,Very Good,64,€,65,4,Ostiense,"Ostiense, Roma",Roma,00154,99,41.8708890000,12.4796660000,0,0
C1b0,"Burger, American",4.2,Very Good,49,€,40,3,Monte Sacro,"Monte Sacro, Roma",Roma,00141,99,41.9355361111,12.5334444444,0,0
Bakery House,"Cafe, Desserts, American",4.2,Very Good,42,€,20,2,Farnesina,"Farnesina, Roma",Roma,00191,99,41.9385750000,12.4690750000,0,0
Coromandel,"Cafe, Desserts, Italian",4.2,Very Good,25,€,50,4,Navona - Pantheon,"Navona - Pantheon, Roma",Roma,00186,99,41.8995800000,12.4698710000,0,0
Black Market,"Panini, Piadineria, Italian",4.2,Very Good,30,€,40,3,Monti,"Monti, Roma",Roma,00184,99,41.8971734742,12.4945671111,0,0
La Casetta,"Cafe, Italian",4.1,Very Good,23,€,30,3,Monti,"Monti, Roma",Roma,00184,99,41.8943408947,12.4901545420,0,0
Vivi Bistrot,"Burger, Healthy Food, Italian",4.2,Very Good,21,€,50,4,Navona - Pantheon,"Navona - Pantheon, Roma",Roma,186,99,41.8976341620,12.4729535356,0,0
Ristorante Baccano,"Cafe, Burger, Continental",4.1,Very Good,39,€,60,4,Fontana di Trevi,"Fontana di Trevi, Roma",Roma,187,99,41.9004694444,12.4822888889,0,0
Romeow Cat Bistro,"Healthy Food, Italian",4.1,Very Good,26,€,40,3,Ostiense,"Ostiense, Roma",Roma,00154,99,41.8695400000,12.4866760000,0,0
Ombre Rosse Caffè,"Cafe, Italian",4.1,Very Good,14,€,50,4,Trastevere,"Trastevere, Roma",Roma,00153,99,41.8899592583,12.4691686034,0,0
Grandma Bistrot,Italian,4.1,Very Good,22,€,40,3,Tuscolano,"Tuscolano, Roma",Roma,00175,99,41.8660096889,12.5453808904,0,0
Mercat Bistrot & Old Bar,"Italian, Modern European",4.0,Very Good,18,€,30,3,Ostiense,"Ostiense, Roma",Roma,00154,99,41.8716962087,12.4791142344,0,0
Tiepolo,"Healthy Food, European",4.0,Very Good,24,€,30,3,Flaminio,"Flaminio, Roma",Roma,00196,99,41.9242694444,12.4691638889,0,0
Aromaticus,"Healthy Food, Italian",4.0,Very Good,23,€,25,2,Monti,"Monti, Roma",Roma,00184,99,41.8968305556,12.4946222222,0,0
Splendor Parthenopes Roma,"Cafe, Pizza, Italian",4.0,Very Good,22,€,30,3,Prati,"Prati, Roma",Roma,00193,99,41.9053350926,12.4717643112,0,0
Piccadilly Roma,"Cafe, Italian, Pizza",3.9,Good,22,€,30,3,Re di Roma,"Re di Roma, Roma",Roma,00182,99,41.8826064386,12.5134850666,0,0
Caffè Novecento,"Cafe, Tavola Fredda, Tavola Calda, Desserts",3.9,Good,17,€,40,3,Navona - Pantheon,"Navona - Pantheon, Roma",Roma,00186,99,41.8992160978,12.4691786617,0,0
Camillo B.,"Roman, Pizza, Italian",3.8,Good,13,€,40,3,Prati,"Prati, Roma",Roma,00193,99,41.9057350000,12.4692810000,0,0
Ciao Checca,"Roman, Italian",3.9,Good,19,€,20,2,Spagna,"Spagna, Roma",Roma,00186,99,41.9022416667,12.4758083333,0,0
Salotto Caronte,"Modern European, Italian",3.8,Good,13,€,50,4,Esquilino - Termini,"Esquilino - Termini, Roma",Roma,00185,99,41.8925138889,12.5032805556,0,0
Libreria Kappa,"Cafe, Tavola Fredda",3.8,Good,14,€,15,1,Policlinico,"Policlinico, Roma",Roma,00161,99,41.9064611111,12.5168111111,0,0
Hopificio,Tapas,3.8,Good,19,€,30,3,Appio Latino,"Appio Latino, Roma",Roma,00179,99,41.8732510000,12.5197100000,0,0
Premiata Bottiglieria del Pigneto,"Burger, Roman, Italian",3.8,Good,23,€,40,3,Pigneto,"Pigneto, Roma",Roma,00176,99,41.8879120954,12.5299598649,0,0
Pasta e Vino,"Roman, Italian",3.9,Good,8,€,40,3,Trastevere,"Trastevere, Roma",Roma,00153,99,41.8909950447,12.4696822464,0,0
Verde Pistacchio,"Cafe, Healthy Food, Italian",3.8,Good,11,€,24,2,San Paolo,"San Paolo, Roma",Roma,00154,99,41.8606030000,12.4787210000,0,0
Materiaprima,"Panini, Healthy Food, Italian",3.8,Good,11,€,20,2,Salario,"Salario, Roma",Roma,198,99,41.9111618289,12.5023998320,0,0
The Bramble Bar & Kitchen,"Burger, Pizza, American, Roman, Italian",3.8,Good,15,€,50,4,Castro Pretorio,"Castro Pretorio, Roma",Roma,00185,99,41.9042210000,12.5044130000,0,0
La Santeria,Italian,3.8,Good,11,€,30,3,Pigneto,"Pigneto, Roma",Roma,00176,99,41.8880166667,12.5300861111,0,0
Comò Bistrot,Tavola Calda,3.8,Good,14,€,30,3,Pietralata,"Pietralata, Roma",Roma,00141,99,41.9321260000,12.5357240000,0,0
CamBio Vita,"Healthy Food, Ice Cream, Italian",3.8,Good,11,€,10,1,Navona - Pantheon,"Navona - Pantheon, Roma",Roma,00186,99,41.8981352748,12.4707098678,0,0
Caffetteria dei Gracchi,"Cafe, Pizza, Tavola Fredda, Tavola Calda, Italian",3.8,Good,10,€,40,3,Prati,"Prati, Roma",Roma,00192,99,41.9080391816,12.4623162299,0,0
Le Carré Français,"Cafe, Bakery, Tavola Fredda, French",3.7,Good,14,€,70,4,Prati,"Prati, Roma",Roma,00193,99,41.9051062741,12.4719601125,0,0
Le Foodie,"Cafe, Italian",3.7,Good,18,€,30,3,San Giovanni,"San Giovanni, Roma",Roma,00185,99,41.8853450000,12.5096990000,0,0
Gastrò,"Cafe, Burger, Italian",3.7,Good,9,€,40,3,Pigneto,"Pigneto, Roma",Roma,00176,99,41.8919684191,12.5323389843,0,0
Haus Garten - Bagel Bar,Burger,3.7,Good,16,€,40,3,Prati,"Prati, Roma",Roma,00195,99,41.9180833333,12.4693638889,0,0
Pianostrada Laboratorio di Cucina,"Healthy Food, Tavola Calda, Italian",3.7,Good,9,€,30,3,Trastevere,"Trastevere, Roma",Roma,00153,99,41.8902098453,12.4682958797,0,0
Buddy,"Cafe, Healthy Food, Mediterranean, Italian",3.7,Good,10,€,30,3,Navona - Pantheon,"Navona - Pantheon, Roma",Roma,186,99,41.8965720000,12.4747650000,0,0
Suggestum Caffé,"Pizza, Roman, Italian",3.7,Good,12,€,60,4,Veneto,"Veneto, Roma",Roma,187,99,41.9046833333,12.4883305556,0,0
Acqua Salata Fish & Lounge,"Cafe, Seafood, Roman, Italian",3.7,Good,13,€,60,4,Spagna,"Spagna, Roma",Roma,00187,99,41.9060277778,12.4789555556,0,0
Farmers - Sosteria Agricola,"Healthy Food, Italian",3.7,Good,9,€,30,3,Tiburtina,"Tiburtina, Roma",Roma,00162,99,41.9101929887,12.5303326920,0,0
Caffetteria Bistrot Chiostro del Bramante,"Cafe, Coffee and Tea, Italian",3.7,Good,7,€,20,2,Navona - Pantheon,"Navona - Pantheon, Roma",Roma,00186,99,41.9000253929,12.4716654047,0,0
La Fenice,"Healthy Food, Italian",3.7,Good,8,€,60,4,Spagna,"Spagna, Roma",Roma,00187,99,41.9048829444,12.4859702960,0,0
Gourmet,"Cafe, Burger, Healthy Food, Tavola Calda, Italian",3.6,Good,13,€,40,3,Prati,"Prati, Roma",Roma,00192,99,41.9092580677,12.4672069028,0,0
Lumière,"Cafe, Desserts, Italian",3.6,Good,8,€,20,2,Prati,"Prati, Roma",Roma,00193,99,41.9065140000,12.4691720000,0,0
Hop Corner,"Cafe, Roman, Venetian",3.6,Good,7,€,20,2,Pigneto,"Pigneto, Roma",Roma,00176,99,41.8833243356,12.5390113145,0,0
Tiberino,"Roman, Modern European",3.6,Good,5,€,50,4,Campo de' Fiori,"Campo de' Fiori, Roma",Roma,00186,99,41.8905300000,12.4775570000,0,0
Retrobottega,"Steak, Seafood, Italian",3.6,Good,4,€,50,4,Navona - Pantheon,"Navona - Pantheon, Roma",Roma,00186,99,0.0000000000,0.0000000000,0,0
Max Roma,"Cafe, Burger, Italian",3.6,Good,17,€,40,3,Aventino - Circo Massimo,"Aventino - Circo Massimo, Roma",Roma,00153,99,41.8827027778,12.4877416667,0,0
GiàRoma 1886,Italian,3.6,Good,4,€,50,4,Fontana di Trevi,"Fontana di Trevi, Roma",Roma,00187,99,41.9018725337,12.4818805978,0,0
Caffè Bohemien,Finger Food,3.6,Good,13,€,40,3,Monti,"Monti, Roma",Roma,00184,99,41.8953331853,12.4927308038,0,0
Luma Bistrot,"Roman, Italian",3.6,Good,11,€,50,4,Prati,"Prati, Roma",Roma,00192,99,41.9099315016,12.4569886923,0,0
Giakis,"Cafe, Ice Cream, Italian",3.6,Good,6,€,10,1,Salario,"Salario, Roma",Roma,00198,99,41.9162310000,12.4971340000,0,0
Mr. Clood,"Roman, Italian",3.6,Good,10,€,40,3,Trastevere,"Trastevere, Roma",Roma,00153,99,41.8878750000,12.4707444444,0,0
I Monticiani,"Cafe, Argentine, Italian",3.6,Good,8,€,50,4,Monti,"Monti, Roma",Roma,00184,99,41.8966294290,12.4918835610,0,0
Il KiNO,"Cafe, Italian",3.6,Good,6,€,30,3,Pigneto,"Pigneto, Roma",Roma,00176,99,41.8898040136,12.5263254717,0,0
Na Cosetta,"Burger, Italian",3.5,Good,13,€,35,3,Pigneto,"Pigneto, Roma",Roma,00176,99,41.8896108309,12.5316328928,0,0
Ciampini,"Cafe, Tavola Fredda, Tavola Calda, Italian",3.5,Good,10,€,50,4,Prati,"Prati, Roma",Roma,00192,99,41.9085851257,12.4667764083,0,0
Fauno 3.0,"Cafe, Healthy Food",3.5,Good,12,€,20,2,Policlinico,"Policlinico, Roma",Roma,00161,99,41.9091194444,12.5116805556,0,0
Bistrot 2014,Italian,3.5,Good,11,€,30,3,Colosseo,"Colosseo, Roma",Roma,00184,99,41.8936722222,12.4894888889,0,0
Terra Satis,"Cafe, Pizza, Italian",3.5,Good,10,€,30,3,Trastevere,"Trastevere, Roma",Roma,00153,99,41.8884487270,12.4780299515,0,0
The Corner Bistreet,"Cafe, Modern European, American",3.5,Good,14,€,30,3,Aventino - Circo Massimo,"Aventino - Circo Massimo, Roma",Roma,00153,99,41.8805888889,12.4846444444,0,0
Contesto Urbano,"Roman, Italian",3.5,Good,8,€,50,4,San Giovanni,"San Giovanni, Roma",Roma,00183,99,41.8810081155,12.5038948283,0,0
Creo,"Cafe, Italian",3.5,Good,10,€,20,2,Salario,"Salario, Roma",Roma,00198,99,41.9117305556,12.4980444444,0,0
Mithos,"Roman, Italian",3.4,Average,7,€,40,3,Appio Latino,"Appio Latino, Roma",Roma,00179,99,41.8743166667,12.5186305556,0,0
Exquisitaly,"Cafe, Desserts, Italian",3.5,Good,9,€,50,4,Esquilino - Termini,"Esquilino - Termini, Roma",Roma,00185,99,41.9042666667,12.4942388889,0,0
Caffè Delle Arti - Galleria Nazionale d'Arte Moderna,"Cafe, Italian",3.5,Good,7,€,50,4,Parioli,"Parioli, Roma",Roma,00197,99,41.9175944444,12.4815055556,0,0
Tastevere Km 0,Healthy Food,3.5,Good,5,€,20,2,Trastevere,"Trastevere, Roma",Roma,00153,99,41.8912606027,12.4699444324,0,0
Boulangerie MP,"Cafe, Healthy Food, Desserts, Tavola Calda, Italian",3.5,Good,4,€,15,1,Navona - Pantheon,"Navona - Pantheon, Roma",Roma,00186,99,41.8998060000,12.4681320000,0,0
Barzilai,Italian,3.5,Good,11,€,40,3,Monti,"Monti, Roma",Roma,00184,99,41.8964000000,12.4903611111,0,0
Bistrot 64,"Roman, Modern European, Italian",3.3,Average,7,€,70,4,Flaminio,"Flaminio, Roma",Roma,00196,99,41.9304805556,12.4662250000,0,0
20MQ - Design & Derivati,"Cafe, Italian",3.3,Average,7,€,30,3,Flaminio,"Flaminio, Roma",Roma,00196,99,41.9251222222,12.4704472222,0,0
Cafè Cafè,"Home-made, Healthy Food, Cafe, Pizza, Italian",3.4,Average,10,€,30,3,Colosseo,"Colosseo, Roma",Roma,00184,99,41.8895250000,12.4943361111,0,0
Paní Genuine Food,"Cafe, Healthy Food, Italian",3.4,Average,7,€,20,2,Eur,"Eur, Roma",Roma,00144,99,41.8316916667,12.4619416667,0,0
Black Market,"Panini, Piadineria, Italian",3.4,Average,8,€,40,3,San Lorenzo,"San Lorenzo, Roma",Roma,00185,99,41.8975550000,12.5158870000,0,0
Officine Dad,"Cafe, Tavola Fredda, Tavola Calda",3.4,Average,4,€,50,4,Re di Roma,"Re di Roma, Roma",Roma,00182,99,41.8806339279,12.5227192417,0,0
Bibenda,Mediterranean,3.4,Average,4,€,70,4,Colosseo,"Colosseo, Roma",Roma,00184,99,41.8888861111,12.4950416667,0,0
L'Altro Euclide,"Cafe, Pizza, Healthy Food",3.4,Average,8,€,50,4,Parioli,"Parioli, Roma",Roma,00197,99,41.9267305556,12.4817333333,0,0
Josephine,"Pizza, Italian",3.4,Average,13,€,70,4,Veneto,"Veneto, Roma",Roma,00187,99,41.9057611111,12.4915416667,0,0
Obladì Obladà,"Cafe, Italian",3.4,Average,4,€,40,3,Prati,"Prati, Roma",Roma,00193,99,41.9073597392,12.4692095071,0,0
Le Storie,Italian,3.4,Average,4,€,10,1,San Paolo,"San Paolo, Roma",Roma,00154,99,41.8627305556,12.4794333333,0,0
Il Fiore all'Occhiello Bistrot,Italian,3.4,Average,8,€,50,4,Garbatella,"Garbatella, Roma",Roma,00145,99,41.8557361111,12.4891666667,0,0
Mezé Bistrot,"Middle Eastern, Mediterranean",3.4,Average,5,€,40,3,Gianicolense,"Gianicolense, Roma",Roma,00152,99,41.8720888889,12.4559611111,0,0
Il Locale,Finger Food,3.3,Average,7,€,40,3,Monte Sacro,"Monte Sacro, Roma",Roma,00141,99,41.9383120000,12.5346030000,0,0
Move Natural Food,"Healthy Food, Panini",3.3,Average,9,€,30,3,Eur,"Eur, Roma",Roma,00144,99,41.8332472222,12.4621861111,0,0
Mò Mò Mozzarella and Co.,Italian,3.3,Average,4,€,40,3,Bologna,"Bologna, Roma",Roma,,99,41.9108120000,12.5208290000,0,0
Mamà Ristobistro,"Roman, Italian, Mediterranean",3.3,Average,8,€,60,4,Borgo,"Borgo, Roma",Roma,00193,99,41.9054666667,12.4634333333,0,0
Rainbow Cafè,"Mediterranean, Healthy Food",3.3,Average,7,€,40,3,Appio Claudio,"Appio Claudio, Roma",Roma,00179,99,41.8705300000,12.5258460000,0,0
Caffetteria Piazza Sant'Eustachio,"Cafe, Desserts, Ice Cream, Italian",3.3,Average,7,€,35,3,Navona - Pantheon,"Navona - Pantheon, Roma",Roma,186,99,41.8983805556,12.4754888889,0,0
Da Brando Bistrot,Italian,3.3,Average,6,€,40,3,Farnesina,"Farnesina, Roma",Roma,00135,99,41.9394694444,12.4693333333,0,0
Synbiofood,Healthy Food,3.3,Average,6,€,30,3,Castro Pretorio,"Castro Pretorio, Roma",Roma,00185,99,41.9042191890,12.5030375272,0,0
Casina dei Pini,Italian,3.3,Average,6,€,60,4,Bologna,"Bologna, Roma",Roma,00161,99,41.9126296574,12.5152741000,0,0
At Home,"Cafe, Desserts, Bakery, Tavola Calda, Tavola Fredda",3.3,Average,7,€,15,1,Flaminio,"Flaminio, Roma",Roma,00196,99,41.9281055556,12.4616222222,0,0
RisToro,"Healthy Food, Burger, Cafe, Italian",3.3,Average,5,€,50,4,Prati,"Prati, Roma",Roma,00192,99,41.9065515351,12.4586496502,0,0
Latteria Garbatella,Italian,3.3,Average,6,€,50,4,Garbatella,"Garbatella, Roma",Roma,00154,99,45.4406950000,9.2133020000,0,0
Makasar Bistrot,"Tavola Fredda, Italian",3.3,Average,5,€,30,3,Borgo,"Borgo, Roma",Roma,00193,99,41.9044444444,12.4602916667,0,0
Casa & Bottega,"Cafe, Italian",3.3,Average,4,€,30,3,Navona - Pantheon,"Navona - Pantheon, Roma",Roma,00186,99,41.9004898034,12.4696467072,0,0
I Vicini Bistrot,Finger Food,3.3,Average,5,€,30,3,Navona - Pantheon,"Navona - Pantheon, Roma",Roma,00186,99,41.8966305556,12.4765250000,0,0
La Pergola - Rome Cavalieri,"Haute Cuisine, Italian",4.3,Very Good,27,€,300,4,"Rome Cavalieri, Trionfale","Rome Cavalieri, Trionfale, Roma",Roma,00136,99,41.9189250000,12.4461222222,0,0
Alfredo alla Scrofa,"Roman, Italian",4.3,Very Good,37,€,80,4,Spagna,"Spagna, Roma",Roma,00186,99,41.9020818996,12.4749185890,0,0
Glass Hostaria,"Haute Cuisine, Seafood, Italian",4.2,Very Good,32,€,140,4,Trastevere,"Trastevere, Roma",Roma,00153,99,41.8903480000,12.4689940000,0,0
Camponeschi,"Italian, Mediterranean",4.2,Very Good,23,€,150,4,Campo de' Fiori,"Campo de' Fiori, Roma",Roma,00186,99,41.8948355445,12.4714320526,0,0
Marzapane,"Seafood, Mediterranean, Modern European",4.1,Very Good,23,€,100,4,Salario,"Salario, Roma",Roma,00198,99,41.9125820000,12.4985110000,0,0
Hamasei,"Sushi, Japanese, Asian",4.1,Very Good,28,€,60,4,Fontana di Trevi,"Fontana di Trevi, Roma",Roma,187,99,41.9034944444,12.4824972222,0,0
Metamorfosi,"Haute Cuisine, Italian",4.1,Very Good,16,€,200,4,Parioli,"Parioli, Roma",Roma,00197,99,41.9241305556,12.4848416667,0,0
Open Colonna,"Roman, Modern European, Italian",4.1,Very Good,20,€,160,4,Monti,"Monti, Roma",Roma,184,99,41.8997893183,12.4896797910,0,0
Le Jardin De Russie - Hotel De Russie,"Seafood, Grill, Roman, Italian",4.1,Very Good,18,€,160,4,"Hotel De Russie, Spagna ","Hotel De Russie, Spagna , Roma",Roma,00187,99,41.9099520000,12.4774790000,0,0
Assunta Madre,"Seafood, Italian, Mediterranean",4.1,Very Good,34,€,120,4,Campo de' Fiori,"Campo de' Fiori, Roma",Roma,00186,99,41.8953963260,12.4688541144,0,0
Mirabelle - Hotel Splendide Royal,"Haute Cuisine, Mediterranean",4.0,Very Good,25,€,180,4,"Hotel Splendide Royal, Veneto","Hotel Splendide Royal, Veneto, Roma",Roma,00187,99,41.9079190000,12.4867510000,0,0
Ad Hoc,"Seafood, Italian",4.0,Very Good,13,€,120,4,Spagna,"Spagna, Roma",Roma,00186,99,41.9081583333,12.4760444444,0,0
Clemente alla Maddalena,"Modern European, Italian",4.0,Very Good,15,€,80,4,Navona - Pantheon,"Navona - Pantheon, Roma",Roma,186,99,41.9001388889,12.4764805556,0,0
Aroma - Palazzo Manfredi,"Seafood, Haute Cuisine, Italian",3.9,Good,13,€,200,4,"Palazzo Manfredi, Colosseo ","Palazzo Manfredi, Colosseo , Roma",Roma,00184,99,41.8903300000,12.4962290000,0,0
Stazione di Posta,"Haute Cuisine, Italian, Modern European",3.9,Good,14,€,100,4,Testaccio,"Testaccio, Roma",Roma,00153,99,41.8745280000,12.4747680000,0,0
Giuda Ballerino Roof Restaurant - Hotel Bernini Bristol,"Roman, Seafood, Haute Cuisine, Italian",3.9,Good,11,€,100,4,"Hotel Bernini Bristol, Veneto","Hotel Bernini Bristol, Veneto, Roma",Roma,00187,99,41.9038740000,12.4892880000,0,0
La Terrasse Cuisine & Lounge- Sofitel Hotel Roma Villa Borghese,"Seafood, French, Modern European, Italian",3.9,Good,16,€,140,4,Veneto,"Veneto, Roma",Roma,00187,99,41.9075370000,12.4866890000,0,0
Nino,"Seafood, Italian",3.8,Good,13,€,80,4,Spagna,"Spagna, Roma",Roma,00187,99,41.9051142590,12.4820968509,0,0
Romeo Chef & Baker,"Haute Cuisine, Italian",3.8,Good,13,€,60,4,Prati,"Prati, Roma",Roma,00192,99,41.9085510000,12.4595430000,0,0
La Terrazza dei Papi - Hotel Mecenate Palace,"Seafood, Italian",3.8,Good,13,€,80,4,"Hotel Mecenate Palace, Esquilino - Termini ","Hotel Mecenate Palace, Esquilino - Termini , Roma",Roma,00185,99,41.8969083333,12.5000444444,0,0
Antica Pesa,"Roman, Italian",3.8,Good,17,€,100,4,Trastevere,"Trastevere, Roma",Roma,00153,99,41.8906765734,12.4663375318,0,0
Doney - Hotel Excelsior,"Roman, Italian",3.8,Good,12,€,100,4,"Hotel Excelsior, Veneto","Hotel Excelsior, Veneto, Roma",Roma,00187,99,41.9077020000,12.4896660000,0,0
Casa Coppelle,"Seafood, French, Italian",3.8,Good,19,€,80,4,Navona - Pantheon,"Navona - Pantheon, Roma",Roma,00186,99,41.9008222222,12.4758972222,0,0
Il Pagliaccio,"Haute Cuisine, Italian, Mediterranean",3.8,Good,16,€,150,4,Campo de' Fiori,"Campo de' Fiori, Roma",Roma,00186,99,41.8978378019,12.4674117565,0,0
Acquolina Hostaria,"Seafood, Mediterranean",3.8,Good,13,€,150,4,Fleming,"Fleming, Roma",Roma,00199,99,41.9424861111,12.4739111111,0,0
La Luna - Hotel La Griffe,"Roman, Seafood, Italian",3.7,Good,12,€,130,4,"Hotel La Griffe, Monti","Hotel La Griffe, Monti, Roma",Roma,00184,99,41.9013634649,12.4944276363,0,0
Pierluigi Dal 1938,"Haute Cuisine, Seafood, Italian",3.7,Good,14,€,150,4,Campo de' Fiori,"Campo de' Fiori, Roma",Roma,00186,99,41.8967699328,12.4686221033,0,0
Le Roof,"Haute Cuisine, Italian",3.7,Good,8,€,140,4,Parioli,"Parioli, Roma",Roma,00197,99,41.9264233004,12.4819848686,0,0
Rinaldi al Quirinale,"Seafood, Italian",3.6,Good,14,€,120,4,Monti,"Monti, Roma",Roma,184,99,41.8988649758,12.4891359732,0,0
Imàgo - Hotel Hassler Roma,"Seafood, Mediterranean, Modern European",3.6,Good,9,€,200,4,"Hotel Hassler Roma, Spagna","Hotel Hassler Roma, Spagna, Roma",Roma,187,99,41.9059380000,12.4838800000,0,0
La Rosetta,"Seafood, Mediterranean",3.6,Good,20,€,170,4,Navona - Pantheon,"Navona - Pantheon, Roma",Roma,00186,99,41.8998500000,12.4764916667,0,0
Ar Galletto,"Seafood, Roman, Italian",3.6,Good,16,€,60,4,Campo de' Fiori,"Campo de' Fiori, Roma",Roma,00186,99,41.8953494072,12.4712613970,0,0
Harry's Bar,"Seafood, Modern European, Italian",3.6,Good,14,€,120,4,Veneto,"Veneto, Roma",Roma,00187,99,41.9091611111,12.4883833333,0,0
Brunello Lounge & Restaurant - Baglioni Hotel Regina,"Haute Cuisine, Seafood, Roman, Italian",3.6,Good,15,€,130,4,"Hotel Regina Baglioni, Veneto","Hotel Regina Baglioni, Veneto, Roma",Roma,00187,99,41.9070583333,12.4899333333,0,0
Chinappi,"Neapolitan, Italian",3.6,Good,11,€,80,4,Veneto,"Veneto, Roma",Roma,00187,99,41.9100333333,12.4986611111,0,0
Antico Arco,"Roman, Italian",3.6,Good,11,€,100,4,Trastevere,"Trastevere, Roma",Roma,00152,99,41.8882972222,12.4611250000,0,0
Les Etoiles - Hotel Atlante,"Modern European, Italian",3.6,Good,6,€,150,4,"Hotel Atlante, Prati","Hotel Atlante, Prati, Roma",Roma,00193,99,41.9046527778,12.4619388889,0,0
La Veranda - Hotel Columbus,"Seafood, Haute Cuisine, Italian",3.5,Good,9,€,90,4,"Hotel Columbus, Borgo","Hotel Columbus, Borgo, Roma",Roma,00193,99,41.9016000000,12.4611416667,0,0
Pipero,"Roman, Haute Cuisine, Italian",3.5,Good,8,€,150,4,Esquilino - Termini,"Esquilino - Termini, Roma",Roma,00184,99,41.9000970000,12.4966210000,0,0
L'Archeologia,"Seafood, Roman, Italian",3.5,Good,12,€,80,4,Appia Antica,"Appia Antica, Roma",Roma,00179,99,41.8529400000,12.5197170000,0,0
Il Caminetto,Italian,3.5,Good,10,€,150,4,Parioli,"Parioli, Roma",Roma,00197,99,41.9280361111,12.4864472222,0,0
Tazio Restaurant - Boscolo Exedra Roma,"Cafe, Middle Eastern, Italian",3.5,Good,11,€,150,4,Monti,"Monti, Roma",Roma,00185,99,41.9024567102,12.4960822240,0,0
Café Romano - Hotel d'Inghilterra,"Seafood, Italian",3.5,Good,12,€,70,4,"Hotel d'Inghilterra, Spagna ","Hotel d'Inghilterra, Spagna , Roma",Roma,187,99,41.9047070000,12.4806980000,0,0
I Due Ladroni,"Seafood, Italian",3.5,Good,10,€,90,4,Spagna,"Spagna, Roma",Roma,00186,99,41.9032891712,12.4748233706,0,0
Ristorante Moma,"Modern European, Italian",3.5,Good,9,€,120,4,Veneto,"Veneto, Roma",Roma,00187,99,41.9057111111,12.4906861111,0,0
Rossini - Hotel Quirinale,"Pizza, Italian",3.5,Good,11,€,80,4,"Hotel Quirinale, Monti","Hotel Quirinale, Monti, Roma",Roma,00184,99,41.9017150000,12.4948990000,0,0
Viva Voce - Gran Meliá Rome,"Seafood, Italian, Haute Cuisine",3.5,Good,6,€,150,4,"Gran Meliá Rome, Trastevere","Gran Meliá Rome, Trastevere, Roma",Roma,00165,99,41.8989775247,12.4609348923,0,0
Hi-Res - Hotel Valadier,"Seafood, Haute Cuisine, Italian",3.4,Average,11,€,130,4,"Hotel Valadier, Spagna","Hotel Valadier, Spagna, Roma",Roma,00187,99,41.9094388889,12.4776861111,0,0
Sa Tanca Crostaceria,"Seafood, Modern European",3.4,Average,10,€,100,4,Monti,"Monti, Roma",Roma,00184,99,41.8988750000,12.4919222222,0,0
Apuleius,"Roman, Modern European",3.4,Average,9,€,70,4,Aventino - Circo Massimo,"Aventino - Circo Massimo, Roma",Roma,00153,99,41.8827527778,12.4829861111,0,0
Rinaldo all'Acquedotto,"Italian, Mediterranean",3.4,Average,6,€,120,4,Cecchignola,"Cecchignola, Roma",Roma,00178,99,41.8148410000,12.5720310000,0,0
Gavius - Novotel,Italian,3.4,Average,7,€,80,4,Eur,"Eur, Roma",Roma,00144,99,41.8217810000,12.4583890000,0,0
Ristorante Trinità dei Monti,"Roman, Seafood, Italian",3.4,Average,6,€,100,4,Spagna,"Spagna, Roma",Roma,00187,99,41.9056560000,12.4836640000,0,0
Piero e Francesco,"Seafood, Italian",3.4,Average,9,€,140,4,Prati,"Prati, Roma",Roma,00192,99,41.9089750000,12.4621527778,0,0
Al 59,"Seafood, Roman, Emilian, Italian",3.3,Average,10,€,70,4,Spagna,"Spagna, Roma",Roma,00186,99,41.9093805556,12.4741944444,0,0
Eleonora d'Arborea,"Sardinian, Italian",3.3,Average,5,€,80,4,Quartiere Trieste,"Quartiere Trieste, Roma",Roma,198,99,41.9150500000,12.5077250000,0,0
Massimo Riccioli Ristorante Bistrot - Hotel Majestic,"Seafood, Modern European, Italian",3.3,Average,9,€,150,4,"Hotel Majestic, Veneto","Hotel Majestic, Veneto, Roma",Roma,00187,99,41.9053194444,12.4878250000,0,0
Roof Garden - Hotel Forum,"Seafood, Italian",3.3,Average,7,€,150,4,"Hotel Forum, Monti ","Hotel Forum, Monti , Roma",Roma,00184,99,41.8937683740,12.4879581481,0,0
La Madre Terra - Hotel Raphael,"Healthy Food, Italian",3.3,Average,6,€,140,4,"Hotel Raphael, Navona - Pantheon","Hotel Raphael, Navona - Pantheon, Roma",Roma,00186,99,41.9000040000,12.4722330000,0,0
Il Vivendo - Hotel St. Regis Rome,Italian,3.3,Average,7,€,140,4,"Hotel St. Regis Rome, Veneto","Hotel St. Regis Rome, Veneto, Roma",Roma,00185,99,41.9040300000,12.4949760000,0,0
Pagaroma,"Seafood, Mediterranean",3.2,Average,4,€,100,4,Parioli,"Parioli, Roma",Roma,00197,99,41.9215900000,12.4871980000,0,0
Cadorin - Grand Hotel Palace,"Roman, Modern European, Italian",3.2,Average,8,€,120,4,"Grand Hotel Palace, Veneto","Grand Hotel Palace, Veneto, Roma",Roma,00187,99,41.9067027778,12.4901500000,0,0
Circus Restaurant - Forty Seven Hotel,"Seafood, Roman, Healthy Food, Italian",3.2,Average,7,€,80,4,Colosseo,"Colosseo, Roma",Roma,00186,99,41.8899460000,12.4809920000,0,0
La Corte degli Archi - Grand Hotel del Gianicolo,Italian,3.2,Average,4,€,140,4,"Grand Hotel del Gianicolo, Monteverde","Grand Hotel del Gianicolo, Monteverde, Roma",Roma,00152,99,41.8875690000,12.4610090000,0,0
Il Convivio Troiani,"Seafood, Roman, Italian",3.2,Average,8,€,160,4,Navona - Pantheon,"Navona - Pantheon, Roma",Roma,186,99,41.9015166667,12.4725000000,0,0
ABC Restaurant - Grand Hotel Palace,"Roman, Modern European, Italian",3.2,Average,9,€,120,4,"Grand Hotel Palace, Veneto","Grand Hotel Palace, Veneto, Roma",Roma,00187,99,41.9068666667,12.4901138889,0,0
La Terrazza - Ambasciatori Palace Hotel,"Mediterranean, Italian",3.2,Average,8,€,140,4,"Ambasciatori Palace Hotel, Veneto","Ambasciatori Palace Hotel, Veneto, Roma",Roma,00187,99,41.9064700000,12.4896590000,0,0
Il Sanlorenzo,"Seafood, Mediterranean, Italian",3.2,Average,7,€,160,4,Campo de' Fiori,"Campo de' Fiori, Roma",Roma,00186,99,41.8949670000,12.4742470000,0,0
Minerva Roof Garden - Grand Hotel de la Minerve,"Seafood, Roman, Haute Cuisine, Italian",3.2,Average,5,€,200,4,"Grand Hotel de la Minerve, Navona - Pantheon","Grand Hotel de la Minerve, Navona - Pantheon, Roma",Roma,186,99,41.8977110000,12.4774330000,0,0
Granet - Hotel Savoy,"Mediterranean, Italian",3.2,Average,4,€,150,4,"Hotel Savoy, Veneto","Hotel Savoy, Veneto, Roma",Roma,00187,99,41.9072780000,12.4891790000,0,0
Gli Ulivi,"Haute Cuisine, Italian",3.2,Average,5,€,80,4,Parioli,"Parioli, Roma",Roma,00197,99,41.9217500000,12.4806750000,0,0
Casina Valadier,Modern European,3.1,Average,7,€,150,4,Villa Borghese,"Villa Borghese, Roma",Roma,00187,99,41.9106780000,12.4796810000,0,0
La Villa 1908,Italian,3.1,Average,5,€,120,4,Tor di Quinto,"Tor di Quinto, Roma",Roma,00191,99,41.9384250000,12.4738770000,0,0
Nero - The Church Palace,"Roman, Healthy Food, Grill, Italian",3.1,Average,5,€,100,4,"The Church Palace, Aurelia ","The Church Palace, Aurelia , Roma",Roma,00165,99,41.8963360000,12.4249110000,0,0
Evangelista,Italian,3.1,Average,6,€,100,4,Campo de' Fiori,"Campo de' Fiori, Roma",Roma,00186,99,41.8922222222,12.4733416667,0,0
Sangallo ai Coronari,"Roman, Italian",3.1,Average,9,€,100,4,Navona - Pantheon,"Navona - Pantheon, Roma",Roma,186,99,41.9006093367,12.4694234133,0,0
Savoia Restaurant - Sheraton Golf Parco de' Medici Hotel & Resort,"Modern European, Italian",3.1,Average,6,€,140,4,"Sheraton Golf Parco de' Medici Hotel & Resort, Magliana ","Sheraton Golf Parco de' Medici Hotel & Resort, Magliana , Roma",Roma,00148,99,41.8158480000,12.4082900000,0,0
Gallura,"Seafood, Sardinian, Mediterranean",3.1,Average,6,€,160,4,Parioli,"Parioli, Roma",Roma,00197,99,41.9228320000,12.4867690000,0,0
Like Quinzi & Gabrieli - Oyster Bar,"Seafood, Italian",3.1,Average,6,€,200,4,Navona - Pantheon,"Navona - Pantheon, Roma",Roma,00186,99,41.9004555556,12.4762888889,0,0
CucinAtipica,"Modern European, Grill",3.0,Average,4,€,80,4,Veneto,"Veneto, Roma",Roma,00187,99,41.9104340000,12.4963660000,0,0
La Maielletta,"Seafood, Steak, Italian",3.0,Average,4,€,80,4,Gregorio VII,"Gregorio VII, Roma",Roma,00164,99,41.8894277778,12.4390194444,0,0
Sgarbatella,"Seafood, Modern European, Mediterranean",3.0,Average,4,€,80,4,Garbatella,"Garbatella, Roma",Roma,00154,99,41.8628527778,12.4919111111,0,0
Pauline Borghese - Parco dei Principi Grand Hotel & SPA,"Modern European, Italian",2.9,Average,5,€,150,4,"Parco dei Principi Grand Hotel & SPA, Parioli","Parco dei Principi Grand Hotel & SPA, Parioli, Roma",Roma,00198,99,41.9175870000,12.4918930000,0,0
Al Ceppo,"Grill, Italian",2.9,Average,5,€,100,4,Pinciano,"Pinciano, Roma",Roma,00198,99,41.9226854830,12.4930835143,0,0
Enoteca La Torre - Villa Laetitia,"Modern European, Italian",2.9,Average,5,€,160,4,Prati,"Prati, Roma",Roma,00195,99,41.9171070000,12.4696310000,0,0
The Deer Club - D.O.M. Hotel Roma,Modern European,2.9,Average,4,€,60,4,Campo de' Fiori,"Campo de' Fiori, Roma",Roma,00186,99,41.8974200000,12.4672030000,0,0
Le Spighe - Hotel Palatino,Italian,2.7,Average,4,€,80,4,"Hotel Palatino, Monti","Hotel Palatino, Monti, Roma",Roma,00184,99,41.8946380000,12.4922680000,0,0
Per Me - Giulio Terrinoni,Italian,2.6,Average,10,€,100,4,Campo de' Fiori,"Campo de' Fiori, Roma",Roma,00186,99,41.8972887712,12.4674278498,0,0
Sorelle Fontana - Grand Hotel Plaza,"Italian, Mediterranean",2.5,Average,5,€,80,4,"Grand Hotel Plaza, Spagna","Grand Hotel Plaza, Spagna, Roma",Roma,00187,99,41.9051990991,12.4787447602,0,0
Agata e Romeo,"Roman, Italian",2.4,Poor,8,€,100,4,Esquilino - Termini,"Esquilino - Termini, Roma",Roma,00185,99,41.8963250000,12.5014277778,0,0
I Duchi - The Duke Hotel,Italian,0,Not rated,3,€,100,4,Parioli,"Parioli, Roma",Roma,00197,99,41.9236027778,12.4790611111,0,0
Il Fungo - Il Ristorante,"Seafood, Italian, Haute Cuisine",0,Not rated,2,€,100,4,Il Fungo,"Il Fungo, Roma",Roma,00144,99,41.8236305556,12.4627083333,0,0
L'Uliveto - Rome Cavalieri,"Apulian, Piedmont, Continental, Italian",0,Not rated,3,€,160,4,"Rome Cavalieri, Trionfale","Rome Cavalieri, Trionfale, Roma",Roma,00136,99,41.9189410000,12.4467660000,0,0
Senses - Palazzo Montemartini,"Mediterranean, Italian",0,Not rated,3,€,120,4,Castro Pretorio,"Castro Pretorio, Roma",Roma,00185,99,41.9032934133,12.5004662946,0,0
Bar & Restaurant Posh - Boscolo Exedra Roma,"Seafood, Italian",0,Not rated,3,€,100,4,"Boscolo Exedra Roma, Veneto","Boscolo Exedra Roma, Veneto, Roma",Roma,00185,99,41.9019540000,12.4960000000,0,0
Cecilia Metella,"Roman, Italian",0,Not rated,2,€,90,4,Appia Antica,"Appia Antica, Roma",Roma,00179,99,41.8565430000,12.5157530000,0,0
Sapori del Lord Byron - Hotel Lord Byron,"Haute Cuisine, Italian",0,Not rated,2,€,140,4,"Hotel Lord Byron, Parioli","Hotel Lord Byron, Parioli, Roma",Roma,00197,99,41.9199011856,12.4811325967,0,0
Ristorante 21 - Hotel Mediterraneo,Italian,0,Not rated,2,€,80,4,"Hotel Mediterraneo, Esquilino - Termini","Hotel Mediterraneo, Esquilino - Termini, Roma",Roma,00184,99,41.9002950000,12.4990370000,0,0
"Garden Restaurant ""Al Palatino"" - Kolbe Hotel Rome",Italian,0,Not rated,1,€,100,4,"Kolbe Hotel Rome, Colosseo","Kolbe Hotel Rome, Colosseo, Roma",Roma,00186,99,41.8902770000,12.4838230000,0,0
Rinascimento Restaurant - Sheraton Golf Parco de' Medici Hotel & Resort,Italian,0,Not rated,1,€,120,4,"Sheraton Golf Parco de' Medici Hotel & Resort, Magliana ","Sheraton Golf Parco de' Medici Hotel & Resort, Magliana , Roma",Roma,00139,99,41.8158480000,12.4082900000,0,0
Antico Forno Roscioli,"Pizza, Bakery",4.5,Excellent,25,€,15,1,Campo de' Fiori,"Campo de' Fiori, Roma",Roma,00186,99,41.8945994508,12.4742949754,0,0
La Renella,"Street Food, Bakery, Desserts",4.2,Very Good,21,€,15,1,Trastevere,"Trastevere, Roma",Roma,00153,99,41.8909134304,12.4705532938,0,0
Boccione,"Desserts, Bakery, Jewish",4.2,Very Good,13,€,10,1,Ghetto,"Ghetto, Roma",Roma,00186,99,41.8932208057,12.4769020826,0,0
Forno Campo de' Fiori,Bakery,4.0,Very Good,12,€,15,1,Campo de' Fiori,"Campo de' Fiori, Roma",Roma,00186,99,41.8958073630,12.4715363234,0,0
Le Levain,"Desserts, Bakery, French",3.9,Good,11,€,15,1,Trastevere,"Trastevere, Roma",Roma,00153,99,41.8871168741,12.4688950181,0,0
Pane e Tempesta,"Bakery, Pizza",3.8,Good,10,€,10,1,Gianicolense,"Gianicolense, Roma",Roma,00151,99,41.8689111111,12.4459250000,0,0
Forno Campo de' Fiori,Bakery,3.8,Good,8,€,15,1,Campo de' Fiori,"Campo de' Fiori, Roma",Roma,00186,99,41.8956444444,12.4715222222,0,0
Il Gianfornaio,"Cafeteria, Bakery, Pizza, Tavola Fredda",3.7,Good,14,€,10,1,Eur,"Eur, Roma",Roma,00144,99,41.8325111111,12.4628611111,0,0
Elettroforno - Frontoni,"Cafe, Bakery",3.7,Good,7,€,15,1,San Paolo,"San Paolo, Roma",Roma,00142,99,41.8530880000,12.4767430000,0,0
Fabrica,"Modern European, Italian",3.7,Good,7,€,40,3,Prati,"Prati, Roma",Roma,00195,99,41.9101004204,12.4518536031,0,0
Marinari,"Bakery, Desserts",3.7,Good,8,€,10,1,Quartiere Trieste,"Quartiere Trieste, Roma",Roma,00198,99,41.9209416667,12.5097333333,0,0
Giselda,"Cafe, Pizza, Desserts, Bakery, Tavola Calda",3.6,Good,11,€,15,1,Trastevere,"Trastevere, Roma",Roma,00153,99,41.8867419734,12.4719634652,0,0
Antico Forno Serpenti,"Bakery, Pizza, Desserts, Cafe",3.7,Good,8,€,30,3,Monti,"Monti, Roma",Roma,00184,99,41.8963346943,12.4901974574,0,0
Pandalì,"Bakery, Desserts, Panini, Tavola Calda",3.6,Good,8,€,10,1,Navona - Pantheon,"Navona - Pantheon, Roma",Roma,186,99,41.8971460225,12.4764226377,0,0
Il Pane di Eataly,"Bakery, Pizza",3.6,Good,5,€,15,1,"Eataly, Ostiense","Eataly, Ostiense, Roma",Roma,00154,99,41.8711040113,12.4865268543,0,0
Antico Forno Urbani,"Bakery, Tavola Fredda",3.6,Good,6,€,15,1,Ghetto,"Ghetto, Roma",Roma,00186,99,41.8933555768,12.4768812954,0,0
Il Forno delle Delizie,"Bakery, Pizza",3.5,Good,8,€,15,1,Laurentina,"Laurentina, Roma",Roma,00142,99,41.8325694444,12.4946666667,0,0
Prelibato,"Bakery, Desserts",3.5,Good,4,€,15,1,Gianicolense,"Gianicolense, Roma",Roma,00152,99,41.8775300000,12.4577490000,0,0
Favole di Pane,"Cafe, Bakery, Tavola Calda",3.4,Average,9,€,15,1,Tiburtina,"Tiburtina, Roma",Roma,00159,99,41.9086944444,12.5433472222,0,0
Il Gianfornaio,"Cafeteria, Bakery, Pizza, Tavola Fredda",3.4,Average,5,€,10,1,Parioli,"Parioli, Roma",Roma,00197,99,41.9288820482,12.4859994650,0,0
Granier,"Cafe, Bakery, Desserts",3.3,Average,11,€,15,1,Tiburtina,"Tiburtina, Roma",Roma,157,99,41.9083892550,12.5358392671,0,0
oTBReD,"Panini, Healthy Food",3.3,Average,7,€,15,1,Eur,"Eur, Roma",Roma,00144,99,41.8330277778,12.4622833333,0,0
Tornatora,"Cafe, Tavola Fredda, Tavola Calda, Desserts",3.3,Average,7,€,10,1,Laurentina,"Laurentina, Roma",Roma,00142,99,41.8303138889,12.4880111111,0,0
Duci duci,"Calabrian, Tavola Calda, Pizza, Bakery, Ice Cream",3.3,Average,5,€,10,1,Trastevere,"Trastevere, Roma",Roma,00153,99,41.8873138889,12.4702750000,0,0
Pasticceria Palmieri,"Bakery, Desserts",3.2,Average,5,€,10,1,Prati,"Prati, Roma",Roma,00192,99,41.9091842116,12.4592689052,0,0
Forno da Milvio,"Bakery, Pizza",3.1,Average,4,€,15,1,Monti,"Monti, Roma",Roma,00184,99,41.8949837890,12.4906232581,0,0
Compagnia del Pane,"Cafe, Bakery, Desserts, Pizza",3.0,Average,5,€,10,1,Prati,"Prati, Roma",Roma,00192,99,41.9093608672,12.4618944526,0,0
oTBRed,"Panini, Healthy Food",3.0,Average,5,€,15,1,Eur,"Eur, Roma",Roma,00144,99,41.8325277778,12.4665138889,0,0
Sans de blé,"Desserts, Bakery, Home-made, Healthy Food",3.0,Average,4,€,10,1,San Paolo,"San Paolo, Roma",Roma,00145,99,41.8549638889,12.4795805556,0,0
Forno Feliziani,"Abruzzese, Bakery, Pizza, Desserts, Tavola Calda",2.7,Average,4,€,15,1,Prati,"Prati, Roma",Roma,00192,99,41.9081250159,12.4533268064,0,0
Forno Caffè - Le Delizie,"Cafe, Bakery, Panini, Tavola Calda, Tavola Fredda",0,Not rated,1,€,15,1,Centocelle,"Centocelle, Roma",Roma,00177,99,41.8773939556,12.5499084592,0,0
Panificio Frontoni Alessandro,"Bakery, Tavola Calda",0,Not rated,0,€,10,1,Pietralata,"Pietralata, Roma",Roma,00156,99,41.9219666667,12.5308277778,0,0
Bake Mandara,"Pizza, Bakery, Desserts, Cafe",0,Not rated,3,€,20,2,Laurentina,"Laurentina, Roma",Roma,00142,99,41.8310020000,12.4948220000,0,0
Il Forno,"Cafe, Bakery, Pizza, Tavola Fredda, Tavola Calda",0,Not rated,1,€,15,1,Tuscolano,"Tuscolano, Roma",Roma,00175,99,41.8619861755,12.5589595735,0,0
L'Antica Cornetteria,"Desserts, Bakery, Italian",0,Not rated,3,€,6,1,Colosseo,"Colosseo, Roma",Roma,00184,99,41.8895611111,12.5001305556,0,0
La Dolceroma,"Bakery, Desserts",0,Not rated,3,€,15,1,Ghetto,"Ghetto, Roma",Roma,00186,99,41.8927091721,12.4782116711,0,0
Valli il Fornaio,"Bakery, Pizza, Tavola Calda, Desserts",0,Not rated,1,€,15,1,Salario,"Salario, Roma",Roma,198,99,41.9112708630,12.5001544878,0,0
"Lucarelli ""Il Pane""",Bakery,0,Not rated,2,€,10,1,Salario,"Salario, Roma",Roma,00198,99,41.9173777778,12.4980555556,0,0
L'Antico Forno,"Bakery, Pizza, Panini, Desserts",0,Not rated,3,€,15,1,Fontana di Trevi,"Fontana di Trevi, Roma",Roma,187,99,41.9009499682,12.4828569219,0,0
Pizza & Mortadella,"Pizza, Panini, Desserts, Bakery, Tavola Fredda",0,Not rated,2,€,15,1,Monti,"Monti, Roma",Roma,00184,99,41.8939595475,12.4901015684,0,0
Dolci Desideri,"Bakery, Desserts",0,Not rated,3,€,10,1,Gianicolense,"Gianicolense, Roma",Roma,00152,99,41.8758166667,12.4478222222,0,0
Fornocafè Rosati,"Cafe, Desserts, Bakery, Piadineria",0,Not rated,3,€,15,1,Tiburtina,"Tiburtina, Roma",Roma,00159,99,41.9087527778,12.5455722222,0,0
Il Fornaio di Via Cherso,"Bakery, Pizza",0,Not rated,1,€,10,1,Centocelle,"Centocelle, Roma",Roma,171,99,41.8959693313,12.5598098338,0,0
Pizza Pane e...,"Pizza, Bakery, Home-made",0,Not rated,1,€,15,1,Magliana,"Magliana, Roma",Roma,00146,99,41.8456638889,12.4566472222,0,0
Cose Buone dal Forno Trevisiol,"Bakery, Pizza, Tavola Calda",0,Not rated,2,€,15,1,Gianicolense,"Gianicolense, Roma",Roma,00151,99,41.8675638889,12.4478750000,0,0
Il Fornaio Leandro,"Bakery, Desserts, Tavola Calda",0,Not rated,3,€,15,1,Ostiense,"Ostiense, Roma",Roma,00145,99,41.8556750000,12.4793694444,0,0
Bar Pulcini,"Bakery, Desserts, Tavola Fredda",0,Not rated,3,€,10,1,Gianicolense,"Gianicolense, Roma",Roma,00152,99,41.8733690000,12.4479510000,0,0
Crystal,"Cafe, Tavola Fredda, Tavola Calda, Bakery",0,Not rated,3,€,10,1,Flaminio,"Flaminio, Roma",Roma,00196,99,41.9137000000,12.4749722222,0,0
Il Gianfornaio,"Bakery, Desserts, Pizza, Tavola Calda",0,Not rated,3,€,20,2,Farnesina,"Farnesina, Roma",Roma,00135,99,41.9364916667,12.4652500000,0,0
Antico Forno la Stelletta,"Pizza, Bakery",0,Not rated,2,€,15,1,Navona - Pantheon,"Navona - Pantheon, Roma",Roma,00186,99,41.9016222222,12.4749472222,0,0
Cu Mangia Crisci,"Cafe, Pizza, Bakery, Tavola Calda",0,Not rated,2,€,10,1,San Paolo,"San Paolo, Roma",Roma,00145,99,41.8519888889,12.4789944444,0,0
Forno Ciabattini,"Bakery, Desserts, Tavola Calda, Tavola Fredda",0,Not rated,2,€,15,1,San Giovanni,"San Giovanni, Roma",Roma,00185,99,41.8894700617,12.5133472681,0,0
Giammona,"Pizza, Bakery, Desserts",0,Not rated,3,€,15,1,Balduina,"Balduina, Roma",Roma,00136,99,41.9143972222,12.4404333333,0,0
Il Profumo del Pane,"Desserts, Bakery",0,Not rated,1,€,15,1,Appio Latino,"Appio Latino, Roma",Roma,00179,99,41.8710111111,12.5167472222,0,0
Il Tuo Fornaio,"Cafe, Pizza, Bakery, Desserts",0,Not rated,1,€,10,1,Laurentina,"Laurentina, Roma",Roma,00143,99,41.8113333333,12.4843111111,0,0
Panificio Mosca,"Bakery, Pizza, Desserts",0,Not rated,2,€,10,1,Prati,"Prati, Roma",Roma,00192,99,41.9085641663,12.4543198943,0,0
Forno Via del Banco di Santo Spirito,"Pizza, Bakery",0,Not rated,2,€,10,1,Navona - Pantheon,"Navona - Pantheon, Roma",Roma,00186,99,41.9002362621,12.4666104466,0,0
Forno Gieri,Bakery,0,Not rated,1,€,10,1,Prati,"Prati, Roma",Roma,00195,99,41.9143722222,12.4576833333,0,0
Kevin & Victory's Bakery,"Desserts, Bakery",0,Not rated,2,€,10,1,Quartiere Africano,"Quartiere Africano, Roma",Roma,00199,99,41.9291480000,12.5239200000,0,0
Panificio Barberi,Bakery,0,Not rated,2,€,10,1,Monte Sacro,"Monte Sacro, Roma",Roma,00141,99,41.9323277778,12.5277333333,0,0
Pasticceria Marron Glacé,"Desserts, Bakery",0,Not rated,1,€,15,1,Eur,"Eur, Roma",Roma,00144,99,41.8196250000,12.4525805556,0,0
Pane & Cioccolato,Bakery,0,Not rated,1,€,10,1,Torrevecchia,"Torrevecchia, Roma",Roma,00168,99,41.9256444444,12.4196222222,0,0
Cornetteria Nanak 2,Bakery,0,Not rated,1,€,5,1,Centocelle,"Centocelle, Roma",Roma,00171,99,41.8909166750,12.5621856004,0,0
L'Angelo del Pane,"Pizza, Bakery",0,Not rated,1,€,10,1,Marconi,"Marconi, Roma",Roma,00146,99,41.8640050000,12.4711750000,0,0
Panis,"Pizza, Desserts, Bakery",0,Not rated,1,€,15,1,Quartiere Trieste,"Quartiere Trieste, Roma",Roma,00198,99,41.9210562310,12.5046166778,0,0
Gelateria Valentini,"Bakery, Ice Cream, Desserts",0,Not rated,2,€,15,1,Monte Sacro,"Monte Sacro, Roma",Roma,00141,99,41.9436060000,12.5193130000,0,0
Compagnia del Pane,"Cafe, Bakery, Desserts, Pizza",0,Not rated,2,€,10,1,Gianicolense,"Gianicolense, Roma",Roma,00151,99,41.8617222222,12.4435527778,0,0
Panificio Costantini,"Pizza, Bakery",0,Not rated,2,€,10,1,Centocelle,"Centocelle, Roma",Roma,00171,99,41.8901670000,12.5628280000,0,0
Cuore di Grano,"Pizza, Desserts, Bakery",0,Not rated,1,€,15,1,Appio Latino,"Appio Latino, Roma",Roma,00179,99,41.8685310000,12.5270800000,0,0
Forno Cerulli,Bakery,0,Not rated,2,€,15,1,Veneto,"Veneto, Roma",Roma,00187,99,41.9044990000,12.4899490000,0,0
Dulci Sforno,"Bakery, Desserts",0,Not rated,1,€,10,1,Castel Giubileo,"Castel Giubileo, Roma",Roma,00139,99,41.9749416667,12.5361194444,0,0
Panificio Laugeni,"Bakery, Desserts, Tavola Calda, Pizza, Cafe",0,Not rated,1,€,20,2,Aventino - Circo Massimo,"Aventino - Circo Massimo, Roma",Roma,00153,99,41.8786277778,12.4828694444,0,0
Come una volta,"Pizza, Bakery",0,Not rated,1,€,15,1,Colosseo,"Colosseo, Roma",Roma,00184,99,41.8895444444,12.4947111111,0,0
Pasticceria Galligani,Bakery,0,Not rated,1,€,15,1,Talenti,"Talenti, Roma",Roma,00137,99,41.9443000000,12.5599810000,0,0
Pane e Pizza,"Pizza, Bakery",0,Not rated,1,€,15,1,Garbatella,"Garbatella, Roma",Roma,00154,99,41.8669100000,12.4906720000,0,0
Il Fornaretto,"Bakery, Pizza, Desserts",0,Not rated,1,€,10,1,Monteverde,"Monteverde, Roma",Roma,00153,99,41.8822750000,12.4680833333,0,0
Panificio Passi,"Bakery, Pizza",0,Not rated,1,€,15,1,Testaccio,"Testaccio, Roma",Roma,00153,99,41.8801500000,12.4761444444,0,0
Zucchero e Farina,"Pizza, Desserts, Bakery",0,Not rated,1,€,15,1,Campo de' Fiori,"Campo de' Fiori, Roma",Roma,00186,99,41.8990583333,12.4667638889,0,0
Il Golosone,"Bakery, Desserts",0,Not rated,1,€,10,1,Ottavia,"Ottavia, Roma",Roma,00135,99,41.9405250000,12.4234694444,0,0
Cornetto Notte,"Cafe, Panini, Desserts",0,Not rated,1,€,15,1,Tuscolano,"Tuscolano, Roma",Roma,00181,99,41.8702596462,12.5359529257,0,0
Glam Cake,"Bakery, Desserts",0,Not rated,1,€,20,2,Torrevecchia,"Torrevecchia, Roma",Roma,00168,99,41.9348638889,12.4208388889,0,0
Piadineria Romagnola,"Emilian, Bakery",0,Not rated,1,€,20,2,Prati,"Prati, Roma",Roma,00193,99,41.9066738019,12.4630840123,0,0
Il Forno delle Meraviglie,"Bakery, Pizza, Tavola Calda, Desserts",0,Not rated,1,€,15,1,Marconi,"Marconi, Roma",Roma,00146,99,41.8635990000,12.4688750000,0,0
La Merendina,"Cafe, Desserts, Pizza",0,Not rated,1,€,10,1,Prenestina,"Prenestina, Roma",Roma,00177,99,41.8964934170,12.5567739084,0,0
Specialitá del Forno e della Tavola,"Cafe, Desserts, Bakery, Tavola Calda, Pizza",0,Not rated,0,€,10,1,Bologna,"Bologna, Roma",Roma,00161,99,41.9109083333,12.5198833333,0,0
Dolce Forno,Bakery,0,Not rated,1,€,10,1,Flaminio,"Flaminio, Roma",Roma,00196,99,41.9267472222,12.4631916667,0,0
Fratelli Banger Dolci,"Bakery, Desserts",0,Not rated,1,€,10,1,San Giovanni,"San Giovanni, Roma",Roma,183,99,41.8787307543,12.5073562190,0,0
Rugiati,"Bakery, Desserts, Tavola Fredda",0,Not rated,1,€,15,1,Appio Latino,"Appio Latino, Roma",Roma,00179,99,41.8713861111,12.5154138889,0,0
Il Forno di Marinelli,"Bakery, Pizza, Panini",0,Not rated,1,€,10,1,Quartiere Trieste,"Quartiere Trieste, Roma",Roma,00198,99,41.9228860000,12.5133680000,0,0
Lo Sfizio...non solo pane,"Pizza, Bakery, Tavola Calda",0,Not rated,1,€,10,1,Prenestina,"Prenestina, Roma",Roma,00177,99,41.8923343042,12.5478371233,0,0
I Golosi,Bakery,0,Not rated,1,€,10,1,Gianicolense,"Gianicolense, Roma",Roma,00152,99,41.8724750000,12.4561861111,0,0
La Gioia del Pane,"Bakery, Desserts, Tavola Calda, Tavola Fredda",0,Not rated,1,€,20,2,Veneto,"Veneto, Roma",Roma,00187,99,41.9084166667,12.4987805556,0,0
Chistolini,"Cafe, Tavola Fredda, Desserts, Bakery",0,Not rated,1,€,15,1,Tuscolano,"Tuscolano, Roma",Roma,175,99,41.8554914402,12.5650998205,0,0
Forno Marchetti,"Pizza, Bakery",0,Not rated,1,€,10,1,Gianicolense,"Gianicolense, Roma",Roma,00151,99,41.8688083333,12.4494527778,0,0
Angelo Colapicchioni,"Bakery, Desserts",0,Not rated,1,€,10,1,Borgo,"Borgo, Roma",Roma,00193,99,41.9055583333,12.4611305556,0,0
RosticceRì,"Bakery, Mediterranean",0,Not rated,1,€,20,2,Navona - Pantheon,"Navona - Pantheon, Roma",Roma,00186,99,41.8997291766,12.4738788977,0,0
Mille Molliche,"Cafe, Pizza, Desserts, Bakery",0,Not rated,1,€,10,1,Garbatella,"Garbatella, Roma",Roma,00154,99,41.8672916667,12.4863527778,0,0
Pane e Caffè,"Cafe, Desserts, Bakery",0,Not rated,1,€,15,1,Policlinico,"Policlinico, Roma",Roma,00185,99,41.8988694444,12.5150638889,0,0
Dolce e Salato,Bakery,0,Not rated,1,€,10,1,Cinecittà,"Cinecittà, Roma",Roma,00143,99,41.8621944444,12.5714222222,0,0
L'Acqulina di Pane,"Pizza, Bakery",0,Not rated,1,€,10,1,Gianicolense,"Gianicolense, Roma",Roma,00152,99,41.8716194444,12.4531333333,0,0
Tram Depot,Cafe,4.0,Very Good,30,€,15,1,Aventino - Circo Massimo,"Aventino - Circo Massimo, Roma",Roma,00153,99,41.8784861111,12.4794805556,0,0
El Chiringuito Libre,"Cafe, Tavola Fredda, Tavola Calda",3.9,Good,35,€,15,1,San Paolo,"San Paolo, Roma",Roma,00146,99,41.8557210000,12.4764650000,0,0
Barcellona Caffè,"Cafe, Panini, Tavola Calda",3.7,Good,19,€,30,3,Roma 70,"Roma 70, Roma",Roma,00142,99,41.8351240000,12.5007310000,0,0
Steccolecco,Ice Cream,3.6,Good,9,€,10,1,Mercato Rionale Parioli,"Mercato Rionale Parioli, Roma",Roma,00197,99,41.9299972222,12.4841888889,0,0
Zoé - Mercato Testaccio,"Panini, Beverages, Healthy Food",3.4,Average,5,€,15,1,Mercato Testaccio,"Mercato Testaccio, Roma",Roma,00153,99,41.8774660000,12.4731780000,0,0
Grattachecche Sora Mirella,"Cafe, Tavola Fredda",3.3,Average,7,€,10,1,Trastevere,"Trastevere, Roma",Roma,00153,99,41.8900380000,12.4757740000,0,0
La Birretta,Street Food,3.2,Average,7,€,10,1,Flaminio,"Flaminio, Roma",Roma,00196,99,41.9310190000,12.4647960000,0,0
San Bartolomeo Street Food - Mercato Rionale Parioli,Street Food,3.2,Average,5,€,10,1,Mercato Rionale Parioli,"Mercato Rionale Parioli, Roma",Roma,00197,99,41.9296730080,12.4838563800,0,0
Il Lemoncocco,"Cafe, Tavola Fredda",3.2,Average,4,€,10,1,Quartiere Trieste,"Quartiere Trieste, Roma",Roma,198,99,41.9200000000,12.5000000000,0,0
Ponte Tazio,Finger Food,3.1,Average,6,€,20,2,Monte Sacro,"Monte Sacro, Roma",Roma,00141,99,41.9350390000,12.5340020000,0,0
Il Panamino,"Cafe, Tavola Fredda",3.1,Average,7,€,15,1,Pinciano,"Pinciano, Roma",Roma,00198,99,41.9249779904,12.4979936332,0,0
La Goloseria,"Cafe, Tavola Fredda",3.1,Average,6,€,10,1,Tuscolano,"Tuscolano, Roma",Roma,00175,99,41.8567755069,12.5627673045,0,0
Bar Piazzale Roberto Ardigò,"Cafe, Tavola Fredda",3.1,Average,4,€,10,1,Roma 70,"Roma 70, Roma",Roma,00142,99,41.8410750000,12.4812388889,0,0
Caffè dell'Orologio,"Cafe, Tavola Fredda",3.1,Average,5,€,10,1,Flaminio,"Flaminio, Roma",Roma,00196,99,41.9117555556,12.4755055556,0,0
Caffettino,"Cafe, Tavola Fredda",3.0,Average,5,€,15,1,Castel Giubileo,"Castel Giubileo, Roma",Roma,00138,99,41.9882083333,12.5060666667,0,0
Il Chiosco di fronte all'Auditorium,"Cafe, Tavola Fredda",3.0,Average,4,€,15,1,Parioli,"Parioli, Roma",Roma,00196,99,41.9298867725,12.4732046574,0,0
E 42 Cafè,"Cafe, Tavola Fredda",3.0,Average,4,€,10,1,Eur,"Eur, Roma",Roma,00144,99,41.8222722222,12.4709194444,0,0
Ar Gianicolo la Terrazza de Roma,"Cafe, Tavola Fredda",2.9,Average,4,€,15,1,Trastevere,"Trastevere, Roma",Roma,00165,99,41.8918685866,12.4609972537,0,0
Nimar Pesca Bontà di Mare - Mercato Rionale Casal de' Pazzi,Seafood,2.9,Average,4,€,20,2,Pietralata,"Pietralata, Roma",Roma,00156,99,41.9342370000,12.5561880000,0,0
L'Altro Chiosco,"Tavola Fredda, Tavola Calda",2.9,Average,4,€,15,1,Farnesina,"Farnesina, Roma",Roma,00191,99,41.9368480000,12.4665580000,0,0
Maratoneta Bistrot,"Roman, Italian",2.9,Average,4,€,20,2,Flaminio,"Flaminio, Roma",Roma,00196,99,41.9287194444,12.4691694444,0,0
Caffè La Pagoda,"Cafe, Tavola Fredda",2.9,Average,4,€,10,1,Torrino,"Torrino, Roma",Roma,00144,99,41.8079230000,12.4328690000,0,0
Cisterna Bar Gaeta,"Cafe, Tavola Fredda",2.9,Average,4,€,10,1,Castro Pretorio,"Castro Pretorio, Roma",Roma,00185,99,41.9032166667,12.5001277778,0,0
Oasi Caffè,"Cafe, Tavola Fredda",2.9,Average,4,€,15,1,Tuscolano,"Tuscolano, Roma",Roma,00177,99,41.8740017815,12.5458247960,0,0
Perpassione - Mercato Italia,"Panini, Desserts, Tavola Calda",2.8,Average,4,€,10,1,Mercato Italia,"Mercato Italia, Roma",Roma,00161,99,41.9094110000,12.5193480000,0,0
Bar Villa Glori,"Cafe, Tavola Fredda",2.8,Average,4,€,10,1,Parioli,"Parioli, Roma",Roma,00197,99,41.9290611438,12.4799266085,0,0
Il Buongustaio,"Cafe, Tavola Fredda",2.8,Average,4,€,10,1,Ostiense,"Ostiense, Roma",Roma,00154,99,41.8762510000,12.4815750000,0,0
Sica,"Cafe, Tavola Fredda",2.8,Average,4,€,10,1,"Centro Commerciale Cinecittà 2, Cinecittà","Centro Commerciale Cinecittà 2, Cinecittà, Roma",Roma,00173,99,41.8530590000,12.5717240000,0,0
Caffè La Stella,"Cafe, Tavola Fredda",2.8,Average,4,€,15,1,Eur,"Eur, Roma",Roma,00145,99,41.8323888889,12.4671361111,0,0
Grattachecche alla Fonte D'oro,Ice Cream,2.8,Average,4,€,10,1,Trastevere,"Trastevere, Roma",Roma,00153,99,41.8903380000,12.4739660000,0,0
Bar Antico Casello,"Cafe, Tavola Fredda",2.8,Average,4,€,10,1,Tor Cervara,"Tor Cervara, Roma",Roma,00156,99,41.9250944444,12.5733000000,0,0
Bar Policlinico,"Cafe, Tavola Fredda",2.8,Average,4,€,10,1,Policlinico,"Policlinico, Roma",Roma,00161,99,41.9067166667,12.5094722222,0,0
Chiosco Alberi Eduardo,"Cafe, Tavola Fredda",2.8,Average,4,€,10,1,Esquilino - Termini,"Esquilino - Termini, Roma",Roma,00185,99,41.9010055556,12.5049305556,0,0
Gazebo Bar,"Cafe, Tavola Fredda",2.8,Average,4,€,10,1,Ardeatina,"Ardeatina, Roma",Roma,00147,99,41.8583416667,12.4967500000,0,0
Centoquattro,Cafe,2.9,Average,4,€,10,1,Parioli,"Parioli, Roma",Roma,00198,99,41.9272916667,12.4863527778,0,0
Il Giardino di Flora,"Cafe, Tavola Fredda",2.7,Average,5,€,10,1,Cinecittà,"Cinecittà, Roma",Roma,00173,99,41.8506611111,12.5910555556,0,0
Caffè Moreno,"Cafe, Tavola Fredda",2.7,Average,4,€,10,1,"Centro Commerciale Cinecittà 2, Cinecittà","Centro Commerciale Cinecittà 2, Cinecittà, Roma",Roma,00143,99,41.8530590000,12.5717240000,0,0
Bar Tasso,"Cafe, Tavola Fredda",2.7,Average,4,€,20,2,Trastevere,"Trastevere, Roma",Roma,00165,99,41.8967333333,12.4614222222,0,0
Bar Mecomonaco,Tavola Fredda,2.7,Average,4,€,15,1,Parioli,"Parioli, Roma",Roma,00197,99,41.9244400000,12.4897790000,0,0
La Petite Forchette,"Cafe, Tavola Fredda, Italian",2.7,Average,4,€,15,1,Ostiense,"Ostiense, Roma",Roma,00154,99,41.8755138889,12.4827277778,0,0
Amir Azar,"Cafe, Burger, Panini, Tavola Calda",0,Not rated,3,€,40,3,Villa Borghese,"Villa Borghese, Roma",Roma,00197,99,41.9126055556,12.4842972222,0,0
Giamon Caffè,"Cafe, Tavola Fredda",0,Not rated,3,€,15,1,Pigneto,"Pigneto, Roma",Roma,00176,99,41.8901166667,12.5345944444,0,0
Da Nunzia al Colle Oppio,Cafe,0,Not rated,3,€,10,1,Colosseo,"Colosseo, Roma",Roma,184,99,41.8921220000,12.4938210000,0,0
Forno Vincenzo - Mercato Italia,"Panini, Pizza, Bakery",0,Not rated,3,€,10,1,Mercato Italia,"Mercato Italia, Roma",Roma,00161,99,41.9094110000,12.5193480000,0,0
Ristobar,"Cafe, Tavola Fredda",0,Not rated,3,€,10,1,Laurentina,"Laurentina, Roma",Roma,00142,99,41.8349277778,12.4806500000,0,0
Chiosco Bar,"Cafe, Tavola Fredda",0,Not rated,3,€,10,1,Battistini,"Battistini, Roma",Roma,00167,99,41.9166055556,12.4148777778,0,0
Bar Viale Regina Elena,"Cafe, Tavola Fredda",0,Not rated,3,€,10,1,Policlinico,"Policlinico, Roma",Roma,00161,99,41.9073120000,12.5135690000,0,0
Pit Stop,"Tavola Calda, Tavola Fredda, Burger",0,Not rated,3,€,15,1,La Pisana,"La Pisana, Roma",Roma,00165,99,41.8979305556,12.4276472222,0,0
Caffetteria Universitaria 2,"Cafe, Tavola Fredda",0,Not rated,3,€,10,1,Policlinico,"Policlinico, Roma",Roma,00185,99,41.9046527778,12.5124055556,0,0
Ori Bar Due,"Cafe, Tavola Fredda",0,Not rated,3,€,10,1,Monte Sacro,"Monte Sacro, Roma",Roma,00137,99,41.9437305556,12.5472472222,0,0
Bingo Bar,"Cafe, Tavola Fredda",0,Not rated,3,€,10,1,Portuense,"Portuense, Roma",Roma,00151,99,41.8703805556,12.4549805556,0,0
Granite di Sicilia,"Cafe, Tavola Fredda",0,Not rated,3,€,10,1,San Paolo,"San Paolo, Roma",Roma,00146,99,41.8562150000,12.4775030000,0,0
Bibliobar,"Cafe, Ice Cream",0,Not rated,3,€,15,1,Borgo,"Borgo, Roma",Roma,00193,99,41.9028166667,12.4689138889,0,0
Panini Gelati Since 1935,"Cafe, Tavola Fredda",0,Not rated,3,€,10,1,Castro Pretorio,"Castro Pretorio, Roma",Roma,00185,99,41.9032361111,12.5004305556,0,0
Nonna Giovanna dal 1947,"Cafe, Tavola Fredda",0,Not rated,3,€,10,1,Laurentina,"Laurentina, Roma",Roma,00142,99,41.8360333333,12.4806750000,0,0
Bar Duranti,Cafe,0,Not rated,3,€,5,1,Ostiense,"Ostiense, Roma",Roma,00154,99,41.8674320000,12.4881790000,0,0
Chiosco Ridente,"Cafe, Tavola Fredda",0,Not rated,3,€,10,1,Marconi,"Marconi, Roma",Roma,00146,99,41.8623111111,12.4639638889,0,0
Lo Spuntino,Tavola Fredda,0,Not rated,3,€,10,1,Boccea,"Boccea, Roma",Roma,00164,99,41.8980555556,12.4175527778,0,0
La Commissaria - Mercato della Magliana,"Pizza, Cucina Campana",0,Not rated,2,€,10,1,Mercato della Magliana,"Mercato della Magliana, Roma",Roma,00146,99,41.8484650000,12.4596580000,0,0
Caffetteria delle Sette Chiese,"Cafe, Tavola Fredda",0,Not rated,3,€,10,1,Garbatella,"Garbatella, Roma",Roma,00145,99,41.8608160000,12.4863760000,0,0
Da Emiliano,Tavola Fredda,0,Not rated,3,€,10,1,Ostiense,"Ostiense, Roma",Roma,00154,99,41.8628111111,12.4787611111,0,0
Al Belegi,"Cafe, Tavola Fredda",0,Not rated,3,€,10,1,Laurentina,"Laurentina, Roma",Roma,00142,99,41.8300805556,12.4914111111,0,0
Eden Bar,"Cafe, Tavola Fredda",0,Not rated,3,€,10,1,Battistini,"Battistini, Roma",Roma,00167,99,41.9064416667,12.4121944444,0,0
Chiosco Bar Paolo,"Cafe, Tavola Fredda",0,Not rated,3,€,10,1,Centocelle,"Centocelle, Roma",Roma,00172,99,41.8814287308,12.5662065670,0,0
Casina delle Terme,"Cafe, Tavola Fredda, Tavola Calda",0,Not rated,2,€,15,1,Castro Pretorio,"Castro Pretorio, Roma",Roma,00185,99,41.9044572434,12.5024792925,0,0
Casina Parioli,"Cafe, Tavola Fredda",0,Not rated,2,€,10,1,Parioli,"Parioli, Roma",Roma,00197,99,41.9229805556,12.4918805556,0,0
Casina Esedra,"Cafe, Tavola Fredda",0,Not rated,2,€,20,2,Castro Pretorio,"Castro Pretorio, Roma",Roma,00185,99,41.9032657147,12.4958944693,0,0
Bar dei Daini,"Cafe, Tavola Fredda",0,Not rated,2,€,10,1,Parioli,"Parioli, Roma",Roma,00198,99,41.9157222222,12.4936166667,0,0
Coffee and Co.,"Cafe, Tavola Fredda",0,Not rated,2,€,10,1,"Centro Commerciale Cinecittà 2, Cinecittà","Centro Commerciale Cinecittà 2, Cinecittà, Roma",Roma,00143,99,41.8530590000,12.5717240000,0,0
Monte d'Oro Pizza,"Pizza, Italian",0,Not rated,2,€,15,1,Spagna,"Spagna, Roma",Roma,00187,99,41.9046384037,12.4770599976,0,0
Giulio Cesare 140,"Cafe, Tavola Fredda",0,Not rated,2,€,10,1,Prati,"Prati, Roma",Roma,00192,99,41.9088777778,12.4556111111,0,0
Bar 33 Giri,"Cafe, Tavola Fredda",0,Not rated,2,€,10,1,Cinecittà,"Cinecittà, Roma",Roma,00169,99,41.8650260000,12.5812040000,0,0
Chiosco Piazza della Citta Leonina SNC,"Cafe, Tavola Fredda",0,Not rated,2,€,10,1,Borgo,"Borgo, Roma",Roma,00193,99,41.9035027778,12.4578638889,0,0
Cardo Greco,"Cafe, Tavola Fredda",0,Not rated,2,€,10,1,Ostiense,"Ostiense, Roma",Roma,00146,99,41.8562150000,12.4775030000,0,0
Chalet Bar,"Cafe, Tavola Fredda",0,Not rated,2,€,10,1,Ottavia,"Ottavia, Roma",Roma,00135,99,41.9433416667,12.4240166667,0,0
Bar L'Oasi,"Cafe, Tavola Fredda",0,Not rated,1,€,10,1,Boccea,"Boccea, Roma",Roma,00166,99,41.8969611111,12.4103333333,0,0
Bar Caffè Via del Castro Pretorio,"Cafe, Tavola Fredda",0,Not rated,1,€,10,1,Castro Pretorio,"Castro Pretorio, Roma",Roma,00185,99,41.9010250000,12.5048972222,0,0
Macelleria Bisteccheria Ulivieri,"Steak, Italian",0,Not rated,0,€,40,3,Tuscolano,"Tuscolano, Roma",Roma,00174,99,0.0000000000,0.0000000000,0,0
Forno il Mulino - Mercato Italia,"Pizza, Bakery",0,Not rated,0,€,10,1,Mercato Italia,"Mercato Italia, Roma",Roma,00161,99,41.9094110000,12.5193480000,0,0
Chiosco Bar,"Cafe, Tavola Fredda",0,Not rated,0,€,10,1,Tiburtina,"Tiburtina, Roma",Roma,00159,99,41.8979807987,12.5358268619,0,0
Pane Ciociaro,"Cafe, Bakery",0,Not rated,0,€,10,1,Boccea,"Boccea, Roma",Roma,00179,99,41.8745700000,12.5226510000,0,0
L'Emporio 2000,"Ice Cream, Tavola Calda",0,Not rated,0,€,10,1,Navona - Pantheon,"Navona - Pantheon, Roma",Roma,,99,41.9020651803,12.4713958427,0,0
200 Gradi,"Panini, Healthy Food",4.5,Excellent,92,€,20,2,Prati,"Prati, Roma",Roma,00192,99,41.9063923384,12.4565907195,0,0
Pastificio Guerra,Italian,4.5,Excellent,56,€,10,1,Spagna,"Spagna, Roma",Roma,00187,99,41.9064242776,12.4808965623,0,0
Trapizzino,"Street Food, Roman",4.5,Excellent,49,€,10,1,Testaccio,"Testaccio, Roma",Roma,00153,99,41.8795972222,12.4735916667,0,0
Pizzarium,"Street Food, Pizza",4.4,Very Good,45,€,20,2,Trionfale,"Trionfale, Roma",Roma,00136,99,41.9066820000,12.4466860000,0,0
Pastasciutta,"Home-made, Italian",4.4,Very Good,29,€,10,1,Borgo,"Borgo, Roma",Roma,00193,99,41.9046020000,12.4580240000,0,0
Pinsere,"Pizza, Street Food",4.4,Very Good,35,€,15,1,Veneto,"Veneto, Roma",Roma,00187,99,41.9075420000,12.4977620000,0,0
Knick Knack Yoda - Dal Papa,"Burger, Panini",4.3,Very Good,24,€,25,2,Prati,"Prati, Roma",Roma,00192,99,41.9066575828,12.4569910392,0,0
La Prosciutteria,Tavola Fredda,4.3,Very Good,18,€,40,3,Trastevere,"Trastevere, Roma",Roma,00153,99,41.8907696690,12.4685034156,0,0
Alice Pizza,Pizza,4.2,Very Good,31,€,15,1,Navona - Pantheon,"Navona - Pantheon, Roma",Roma,186,99,41.8957861111,12.4777027778,0,0
Bakery House,"Cafe, Desserts, Burger, American",4.2,Very Good,77,€,20,2,Quartiere Africano,"Quartiere Africano, Roma",Roma,00198,99,41.9234408471,12.5132131577,0,0
Bonci,"Bakery, Pizza",4.2,Very Good,27,€,10,1,Trionfale,"Trionfale, Roma",Roma,00195,99,41.9114638889,12.4534472222,0,0
Trapizzino,"Street Food, Roman",4.2,Very Good,31,€,10,1,Farnesina,"Farnesina, Roma",Roma,00135,99,41.9372750000,12.4657527778,0,0
Dar Filettaro,"Street Food, Seafood, Roman",4.2,Very Good,22,€,40,3,Campo de' Fiori,"Campo de' Fiori, Roma",Roma,00186,99,41.8946059396,12.4736234173,0,0
Fonzie the Burger's House,"Burger, American",4.1,Very Good,28,€,20,2,Prati,"Prati, Roma",Roma,00192,99,41.9073500000,12.4685888889,0,0
AllbiOne,"Street Food, Italian",4.1,Very Good,26,€,15,1,Colosseo,"Colosseo, Roma",Roma,00184,99,41.8933611111,12.4880944444,0,0
Banco Fast Food,"Burger, Healthy Food",4.1,Very Good,16,€,25,2,Ostiense,"Ostiense, Roma",Roma,00154,99,41.8732747923,12.4801532552,0,0
L'Involtino,"Sicilian, Desserts",4.1,Very Good,18,€,20,2,Prati,"Prati, Roma",Roma,00193,99,41.9069333333,12.4587194444,0,0
Tricolore,"Burger, Modern European",4.1,Very Good,24,€,25,2,Monti,"Monti, Roma",Roma,00184,99,41.8965909963,12.4943250418,0,0
The Butcher Shop,"Burger, Italian",4.1,Very Good,18,€,10,1,Monte Sacro,"Monte Sacro, Roma",Roma,00141,99,41.9353790000,12.5364030000,0,0
Panino Divino,Panini,4.0,Very Good,17,€,15,1,Prati,"Prati, Roma",Roma,00192,99,41.9069353023,12.4584615603,0,0
Pane e Salame,"Pizza, Panini, Tavola Calda",4.0,Very Good,8,€,10,1,Torrevecchia,"Torrevecchia, Roma",Roma,00168,99,41.9358333333,12.4220888889,0,0
Fonzie the Burger's House,"Burger, American",4.0,Very Good,17,€,20,2,Ghetto,"Ghetto, Roma",Roma,00186,99,41.8935472222,12.4761777778,0,0
Supplizio,"Street Food, Italian",4.0,Very Good,16,€,20,2,Campo de' Fiori,"Campo de' Fiori, Roma",Roma,00186,99,41.8974559765,12.4678952247,0,0
Ilios,Greek,4.0,Very Good,18,€,15,1,San Paolo,"San Paolo, Roma",Roma,00145,99,41.8541350000,12.4784200000,0,0
AliBabà,"Kebab, Pizza",4.0,Very Good,17,€,10,1,Tuscolano,"Tuscolano, Roma",Roma,00178,99,41.8670431171,12.5373292342,0,0
I Supplì,"Pizza, Tavola Calda",4.0,Very Good,15,€,15,1,Trastevere,"Trastevere, Roma",Roma,00153,99,41.8871450789,12.4717589468,0,0
La Boccaccia,Pizza,4.0,Very Good,16,€,15,1,Trastevere,"Trastevere, Roma",Roma,00153,99,41.8920861111,12.4685083333,0,0
Queen's Chips,Street Food,4.0,Very Good,15,€,10,1,Monti,"Monti, Roma",Roma,184,99,41.8980169846,12.4889287725,0,0
Mordi e Vai - Mercato Testaccio,"Street Food, Panini",4.0,Very Good,15,€,15,1,Mercato Testaccio,"Mercato Testaccio, Roma",Roma,00153,99,41.8774660000,12.4731770000,0,0
Dar Ciriola,"Cafe, Street Food, Panini",3.9,Good,17,€,10,1,Pigneto,"Pigneto, Roma",Roma,00176,99,41.8868657757,12.5348414853,0,0
Elleniko,"Street Food, Greek",3.8,Good,16,€,30,3,Aventino - Circo Massimo,"Aventino - Circo Massimo, Roma",Roma,00153,99,41.8809166667,12.4848916667,0,0
Mondo Arancina,"Sicilian, Pizza",3.9,Good,21,€,15,1,Prati,"Prati, Roma",Roma,00192,99,41.9096805556,12.4673583333,0,0
Nanù,"Healthy Food, Tavola Fredda",3.9,Good,17,€,15,1,Prati,"Prati, Roma",Roma,00193,99,41.9064777778,12.4602777778,0,0
Zia Rosetta,Panini,3.9,Good,18,€,20,2,Monti,"Monti, Roma",Roma,00184,99,41.8955777778,12.4934055556,0,0
Nonna Lia Panzerotti,"Street Food, Apulian",3.9,Good,13,€,10,1,Quartiere Trieste,"Quartiere Trieste, Roma",Roma,00198,99,41.9224680000,12.5129670000,0,0
Fa Bìo,Healthy Food,3.9,Good,19,€,15,1,Prati,"Prati, Roma",Roma,00192,99,41.9074503153,12.4569860101,0,0
Farinè la Pizza,Pizza,3.9,Good,12,€,15,1,San Lorenzo,"San Lorenzo, Roma",Roma,00185,99,41.8959250000,12.5139722222,0,0
Vitaminas 24,"Healthy Food, Desserts",3.9,Good,13,€,20,2,Pigneto,"Pigneto, Roma",Roma,00176,99,41.8897126637,12.5258356333,0,0
Brillo Burger,Burger,3.9,Good,11,€,40,3,Spagna,"Spagna, Roma",Roma,00187,99,41.9091694902,12.4773577228,0,0
Sisini La Casa del Supplì,"Street Food, Roman",3.8,Good,15,€,15,1,Re di Roma,"Re di Roma, Roma",Roma,00182,99,41.8814352209,12.5133419037,0,0
Mastrogusto,Panini,3.8,Good,10,€,15,1,Prati,"Prati, Roma",Roma,00192,99,41.9087972222,12.4659444444,0,0
Dispensa - Cibo Urbano,"Cafe, Healthy Food",3.8,Good,12,€,25,2,Ghetto,"Ghetto, Roma",Roma,00186,99,41.8939518108,12.4773111194,0,0
My Bags - La Baguetteria,"Panini, Healthy Food, Bakery, Italian",3.8,Good,14,€,15,1,Flaminio,"Flaminio, Roma",Roma,00196,99,41.9121410000,12.4747890000,0,0
"Grano, Frutta e Farina","Pizza, Desserts",3.8,Good,12,€,20,2,Spagna,"Spagna, Roma",Roma,00187,99,41.9059634036,12.4788245559,0,0
O Famo Strano,Panini,3.8,Good,18,€,15,1,San Lorenzo,"San Lorenzo, Roma",Roma,00185,99,41.8931777778,12.5159027778,0,0
Kathmandu Fast Food,"Indian, Nepalese",3.8,Good,12,€,20,2,Esquilino - Termini,"Esquilino - Termini, Roma",Roma,185,99,41.8938916667,12.5028972222,0,0
Pane e Tempesta,"Bakery, Pizza",3.8,Good,10,€,10,1,Gianicolense,"Gianicolense, Roma",Roma,00151,99,41.8689111111,12.4459250000,0,0
StrEatArt,"Pizza, Italian",3.8,Good,16,€,20,2,Quartiere Trieste,"Quartiere Trieste, Roma",Roma,198,99,41.9184210504,12.5001735985,0,0
Dolce Notte,"Cafe, Pizza, Desserts, Tavola Fredda",3.8,Good,9,€,10,1,Ostiense,"Ostiense, Roma",Roma,00154,99,41.8719089190,12.4793519452,0,0
Da Simo Pane e Vino,Panini,3.7,Good,8,€,20,2,Navona - Pantheon,"Navona - Pantheon, Roma",Roma,00186,99,41.8986666667,12.4707888889,0,0
Universo Vegano,"Panini, Healthy Food",3.7,Good,10,€,15,1,Campo de' Fiori,"Campo de' Fiori, Roma",Roma,00186,99,41.8960546827,12.4733159691,0,0
Aristocampo,"Panini, Finger Food",3.7,Good,12,€,15,1,Campo de' Fiori,"Campo de' Fiori, Roma",Roma,00186,99,41.8959768183,12.4718907103,0,0
La Piadineria,Piadineria,3.7,Good,10,€,15,1,Monti,"Monti, Roma",Roma,00184,99,41.8958165969,12.4910587817,0,0
Pastella,Street Food,3.7,Good,9,€,15,1,Pietralata,"Pietralata, Roma",Roma,00141,99,41.9337500000,12.5359694444,0,0
Gian Gusto,Piadineria,3.7,Good,11,€,20,2,Re di Roma,"Re di Roma, Roma",Roma,00183,99,41.8823820318,12.5132067874,0,0
Melograno,"Ice Cream, Pizza",3.7,Good,10,€,15,1,Fontana di Trevi,"Fontana di Trevi, Roma",Roma,187,99,41.9008833333,12.4830611111,0,0
Pizzeria Del Secolo,"Pizza, Tavola Calda",3.7,Good,8,€,15,1,Castro Pretorio,"Castro Pretorio, Roma",Roma,00185,99,41.9044280000,12.5049430000,0,0
Kono Pizza,Pizza,3.6,Good,7,€,15,1,Campo de' Fiori,"Campo de' Fiori, Roma",Roma,00186,99,41.8961710000,12.4716390000,0,0
Magnifico Eat,"Pizza, Burger, Roman, Italian",3.7,Good,9,€,15,1,Veneto,"Veneto, Roma",Roma,187,99,41.9038277778,12.4876777778,0,0
Premiata Panineria al Pigneto,"Fast Food, Fish and Chips, Burger",3.6,Good,14,€,15,1,Pigneto,"Pigneto, Roma",Roma,00176,99,41.8892555556,12.5304111111,0,0
aT,"Healthy Food, Italian",3.6,Good,10,€,20,2,Navona - Pantheon,"Navona - Pantheon, Roma",Roma,00186,99,41.9000055556,12.4795500000,0,0
DON - Vera Pizza Fritta Napoletana,"Pizza, Street Food, Cucina Campana",3.6,Good,6,€,15,1,Trastevere,"Trastevere, Roma",Roma,00153,99,41.8859332588,12.4726273119,0,0
Don Baguette,Panini,3.6,Good,7,€,15,1,Prati,"Prati, Roma",Roma,00192,99,41.9090881486,12.4672370777,0,0
Alice Pizza,Pizza,3.6,Good,7,€,15,1,Galleria Commerciale Porta di Roma,"Galleria Commerciale Porta di Roma, Roma",Roma,00139,99,41.9706960000,12.5393950000,0,0
Officina del Fritto,Tavola Fredda,3.6,Good,9,€,10,1,Monti,"Monti, Roma",Roma,00184,99,41.8959308982,12.4908596277,0,0
Panizzeri,Pizza,3.6,Good,9,€,10,1,Castel Giubileo,"Castel Giubileo, Roma",Roma,00139,99,41.9676444444,12.5366000000,0,0
Queen's Chips,Street Food,3.6,Good,8,€,10,1,Bologna,"Bologna, Roma",Roma,00161,99,41.9131044551,12.5190489739,0,0
Pandalì,"Bakery, Desserts, Panini, Tavola Calda",3.6,Good,8,€,10,1,Navona - Pantheon,"Navona - Pantheon, Roma",Roma,186,99,41.8971460225,12.4764226377,0,0
Pizza Zizza,"Pizza, Cafe, Tavola Fredda, Tavola Calda",3.6,Good,8,€,15,1,Trastevere,"Trastevere, Roma",Roma,00165,99,41.8997777778,12.4563500000,0,0
Shawarma Station,"Middle Eastern, Fast Food",3.6,Good,7,€,15,1,Monti,"Monti, Roma",Roma,00184,99,41.8960454488,12.4995080754,0,0
Sfizi di Pizza,"Pizza, Roman, Italian",3.6,Good,7,€,15,1,Monti,"Monti, Roma",Roma,00184,99,41.8993169171,12.4919445813,0,0
Fol Popcorn,Street Food,3.6,Good,8,€,6,1,Spagna,"Spagna, Roma",Roma,00186,99,41.9086520000,12.4761440000,0,0
Baguetteria del Fico,Panini,3.6,Good,7,€,30,3,Navona - Pantheon,"Navona - Pantheon, Roma",Roma,00186,99,41.8990370000,12.4708720000,0,0
Pizza Florida,Pizza,3.6,Good,5,€,10,1,Ghetto,"Ghetto, Roma",Roma,00186,99,41.8948666667,12.4767138889,0,0
Il Panino Ingegnoso,Panini,3.6,Good,6,€,20,2,Navona - Pantheon,"Navona - Pantheon, Roma",Roma,186,99,41.8999833333,12.4791805556,0,0
SanPanino,"Panini, Healthy Food",3.6,Good,7,€,15,1,Policlinico,"Policlinico, Roma",Roma,00161,99,41.9073640000,12.5169700000,0,0
Il Pane di Eataly,"Bakery, Pizza",3.6,Good,5,€,15,1,"Eataly, Ostiense","Eataly, Ostiense, Roma",Roma,00154,99,41.8711040113,12.4865268543,0,0
Zizzi Pizza,Pizza,3.6,Good,5,€,15,1,Colosseo,"Colosseo, Roma",Roma,00184,99,41.8952333333,12.4976250000,0,0
96 ore,"Pizza, Neapolitan, Italian",3.6,Good,9,€,20,2,Prati,"Prati, Roma",Roma,00192,99,41.9115403288,12.4544818327,0,0
Alice Pizza,Pizza,3.6,Good,7,€,15,1,Marconi,"Marconi, Roma",Roma,00146,99,41.8643640000,12.4686630000,0,0
PanDivino,"Panini, Tapas",3.5,Good,5,€,15,1,Campo de' Fiori,"Campo de' Fiori, Roma",Roma,00186,99,41.8963958375,12.4736073241,0,0
Likeat,Panini,3.5,Good,6,€,15,1,Campo de' Fiori,"Campo de' Fiori, Roma",Roma,00186,99,41.8997254333,12.4662567303,0,0
Made In Sud,"Pizza, Tavola Fredda, Tavola Calda, Cucina Campana",3.5,Good,8,€,15,1,Colosseo,"Colosseo, Roma",Roma,00184,99,41.8897972222,12.4955666667,0,0
Mama Frites,Street Food,3.5,Good,13,€,25,2,Trastevere,"Trastevere, Roma",Roma,00153,99,41.8909493707,12.4696222320,0,0
Chipsy Amsterdam,"Fast Food, Dutch",3.5,Good,13,€,10,1,Marconi,"Marconi, Roma",Roma,00146,99,41.8659010000,12.4691220000,0,0
Esco Sazio,"Healthy Food, Panini, Desserts",3.5,Good,7,€,30,3,Campo de' Fiori,"Campo de' Fiori, Roma",Roma,00186,99,41.8976910614,12.4675733596,0,0
Il Forno delle Delizie,"Bakery, Pizza",3.5,Good,8,€,15,1,Laurentina,"Laurentina, Roma",Roma,00142,99,41.8325694444,12.4946666667,0,0
Le Sicilianedde,"Tavola Calda, Desserts, Sicilian",3.5,Good,8,€,10,1,Parioli,"Parioli, Roma",Roma,00197,99,41.9242475901,12.4904683605,0,0
Fish Lab - Street Seafood,"Fish and Chips, Seafood, British",3.5,Good,5,€,25,2,Farnesina,"Farnesina, Roma",Roma,00191,99,41.9378200000,12.4697160000,0,0
Opulentia,Pizza,3.5,Good,7,€,15,1,Pigneto,"Pigneto, Roma",Roma,00176,99,41.8898555556,12.5257527778,0,0
Pasto Eat Good Food,"Panini, Tavola Fredda",3.5,Good,5,€,20,2,Navona - Pantheon,"Navona - Pantheon, Roma",Roma,00186,99,41.8980546678,12.4714310467,0,0
Peperino,Pizza,3.5,Good,9,€,15,1,Tiburtina,"Tiburtina, Roma",Roma,00159,99,41.9068555556,12.5485777778,0,0
Pizza dai Cinque,Pizza,3.5,Good,7,€,15,1,Policlinico,"Policlinico, Roma",Roma,00161,99,41.9074472222,12.5179000000,0,0
I Fritti de Sora Milvia,"Street Food, Roman",3.5,Good,8,€,15,1,Farnesina,"Farnesina, Roma",Roma,00191,99,41.9379083333,12.4658527778,0,0
Gian Gusto,Piadineria,3.5,Good,7,€,20,2,Quartiere Africano,"Quartiere Africano, Roma",Roma,00199,99,41.9280277778,12.5158888889,0,0
Pizza Ok,"Pizza, Roman",3.5,Good,5,€,15,1,Bologna,"Bologna, Roma",Roma,00162,99,41.9192949655,12.5226769969,0,0
Pasta Imperiale,"Panini, Piadineria, Home-made, Italian",3.5,Good,7,€,20,2,Navona - Pantheon,"Navona - Pantheon, Roma",Roma,00186,99,41.9005145086,12.4687749892,0,0
La Piadineria,Piadineria,3.5,Good,7,€,15,1,"Euroma2, Eur","Euroma2, Eur, Roma",Roma,00144,99,41.8170980000,12.4584320000,0,0
LasaGnaM,"Neapolitan, Tavola Calda, Italian",3.5,Good,6,€,20,2,Colosseo,"Colosseo, Roma",Roma,00184,99,41.8932310000,12.4898160000,0,0
Kebab,"Kebab, Middle Eastern",3.5,Good,7,€,15,1,Pinciano,"Pinciano, Roma",Roma,00187,99,41.9103970000,12.4994250000,0,0
Pompi Il Regno del Tiramisù,"Ice Cream, Desserts",4.9,Excellent,104,€,15,1,Spagna,"Spagna, Roma",Roma,00187,99,41.9064000737,12.4804660678,0,0
Giolitti,"Cafe, Ice Cream, Italian, Desserts",4.8,Excellent,192,€,40,3,Navona - Pantheon,"Navona - Pantheon, Roma",Roma,00186,99,41.9011333333,12.4771861111,0,0
Frigidarium - Gelateria Artigianale,Ice Cream,4.7,Excellent,88,€,6,1,Navona - Pantheon,"Navona - Pantheon, Roma",Roma,00186,99,41.8982942425,12.4705455825,0,0
La Romana,"Ice Cream, Crepes, Desserts",4.6,Excellent,109,€,6,1,Veneto,"Veneto, Roma",Roma,00187,99,41.9077770000,12.4989480000,0,0
Come Il Latte,"Ice Cream, Crepes, Desserts",4.5,Excellent,53,€,6,1,Veneto,"Veneto, Roma",Roma,00187,99,41.9072694444,12.4959777778,0,0
Gelateria della Palma,"Ice Cream, Cafe",4.4,Very Good,45,€,10,1,Navona - Pantheon,"Navona - Pantheon, Roma",Roma,00186,99,41.9006222222,12.4765861111,0,0
Gelateria del Teatro,"Ice Cream, Desserts",4.4,Very Good,38,€,10,1,Navona - Pantheon,"Navona - Pantheon, Roma",Roma,00186,99,41.9004890547,12.4694529176,0,0
Magnum Roma,"Cafe, Ice Cream",4.4,Very Good,24,€,15,1,Spagna,"Spagna, Roma",Roma,00187,99,41.9046735877,12.4778341502,0,0
Old Bridge,Ice Cream,4.3,Very Good,50,€,6,1,Prati,"Prati, Roma",Roma,00192,99,41.9062194444,12.4561555556,0,0
Fatamorgana,"Ice Cream, Desserts",4.2,Very Good,24,€,7,1,Monti,"Monti, Roma",Roma,00184,99,41.8955862469,12.4932689220,0,0
Palazzo del Freddo - Giovanni Fassi,"Ice Cream, Desserts, Cafe",4.2,Very Good,67,€,6,1,Esquilino - Termini,"Esquilino - Termini, Roma",Roma,00185,99,41.8938555556,12.5081027778,0,0
Gelateria dei Gracchi,"Ice Cream, Desserts",4.2,Very Good,33,€,10,1,Prati,"Prati, Roma",Roma,00193,99,41.9092044222,12.4670446292,0,0
Il Gelato di San Crispino,Ice Cream,4.2,Very Good,30,€,10,1,Fontana di Trevi,"Fontana di Trevi, Roma",Roma,187,99,41.9015531184,12.4847059697,0,0
Lubrano,Ice Cream,4.1,Very Good,46,€,6,1,Tiburtina,"Tiburtina, Roma",Roma,157,99,41.9094372183,12.5440468267,0,0
Tony Gelateria,"Ice Cream, Desserts",4.1,Very Good,21,€,6,1,Gianicolense,"Gianicolense, Roma",Roma,00151,99,41.8666027778,12.4443944444,0,0
Verde Pistacchio,"Ice Cream, Healthy Food, Frozen Yogurt",4.0,Very Good,19,€,6,1,Monti,"Monti, Roma",Roma,184,99,41.9012272134,12.4939230457,0,0
Gelateria Valentino,Ice Cream,4.1,Very Good,17,€,10,1,Fontana di Trevi,"Fontana di Trevi, Roma",Roma,187,99,41.9014525522,12.4850647151,0,0
Gelateria Fattori,"Cafe, Desserts, Ice Cream, Tavola Fredda",4.0,Very Good,25,€,6,1,Pigneto,"Pigneto, Roma",Roma,00176,99,41.8885028891,12.5348314270,0,0
Miami 3,"Ice Cream, Frozen Yogurt",4.0,Very Good,33,€,6,1,San Paolo,"San Paolo, Roma",Roma,00145,99,41.8519666667,12.4783666667,0,0
Steccolecco,Ice Cream,3.9,Good,15,€,10,1,Prati,"Prati, Roma",Roma,00195,99,41.9155794340,12.4668280408,0,0
Fior di Luna,"Ice Cream, Desserts",3.9,Good,18,€,6,1,Trastevere,"Trastevere, Roma",Roma,00153,99,41.8895995993,12.4726095423,0,0
Fatamorgana,"Ice Cream, Desserts",4.0,Very Good,14,€,7,1,Trastevere,"Trastevere, Roma",Roma,00153,99,41.8865482822,12.4692386761,0,0
Grom,Ice Cream,3.9,Good,19,€,6,1,Navona - Pantheon,"Navona - Pantheon, Roma",Roma,00186,99,41.9002295243,12.4731791764,0,0
Neve di Latte,Ice Cream,3.9,Good,14,€,10,1,Flaminio,"Flaminio, Roma",Roma,00196,99,41.9298490000,12.4649850000,0,0
Fatamorgana,"Ice Cream, Desserts",3.9,Good,15,€,7,1,Quartiere Africano,"Quartiere Africano, Roma",Roma,00199,99,41.9265213329,12.5104608759,0,0
Venchi,"Ice Cream, Desserts",3.9,Good,10,€,15,1,Esquilino - Termini,"Esquilino - Termini, Roma",Roma,00185,99,41.9008980000,12.5019730000,0,0
