name,cuisines,aggregate_rating,rating_text,votes,currency,average_cost_for_two,price_range,locality,locality_verbose,city,zipcode,country_id,latitude,longitude,has_online_delivery,has_table_booking
S'MAC,American,4.8,Excellent,618,$,25,2,East Village,East Village,New York City,10003,216,40.7303694444,-73.9840388889,0,0
Mamoun's Falafel,Middle Eastern,4.5,Excellent,332,$,30,2,"West 3rd Street, Greenwich Village","West 3rd Street, Greenwich Village, New York City",New York City,10012,216,40.7303416667,-74.0005416667,0,0
Taco King,Mexican,4.5,Excellent,32,$,20,2,Forest Hills,Forest Hills,New York City,11375,216,40.7328416667,-73.8494250000,0,0
Dominique Ansel Bakery,"Bakery, Desserts, Sandwich",4.4,Very Good,305,$,35,2,Greenwich Village,Greenwich Village,New York City,10012,216,40.7250861111,-74.0031138889,0,0
Gaby's Pizza,Pizza,4.4,Very Good,34,$,20,2,Holliswood,Holliswood,New York City,11423,216,40.7208833333,-73.7605750000,0,0
Arbuz,Desserts,4.4,Very Good,12,$,25,2,"Sheepshead Bay Road, Sheepshead Bay","Sheepshead Bay Road, Sheepshead Bay, New York City",New York City,11235,216,40.5858111111,-73.9518138889,0,0
My Little Pizzeria,Pizza,4.3,Very Good,46,$,40,3,"Court Street, Brooklyn Heights","Court Street, Brooklyn Heights, New York City",New York City,11201,216,40.6901194444,-73.9918666667,0,0
Original Pizzerria,"Pizza, Italian",4.3,Very Good,23,$,35,2,"Avenue L, Canarsie","Avenue L, Canarsie, New York City",New York City,11236,216,40.6378138889,-73.8964833333,0,0
Benjy's Kosher Pizza Dairy Restaurant & Sushi Bar,"American, Italian, Sushi",4.3,Very Good,12,$,30,2,Kew Gardens Hills,Kew Gardens Hills,New York City,11367,216,40.7249055556,-73.8210361111,0,0
Murray's Bagels,"Bagels, Fast Food, Coffee and Tea",4.1,Very Good,132,$,15,1,"Chelsea, Manhattan","Chelsea, Manhattan",New York City,10011,216,40.7449111111,-73.9989694444,0,0
Petey's Burger,"Burger, Fast Food",4.2,Very Good,52,$,25,2,Astoria,Astoria,New York City,11102,216,40.7670555556,-73.9218305556,0,0
Kum Kau,Chinese,4.2,Very Good,49,$,30,2,Clinton Hill,Clinton Hill,New York City,11205,216,40.6934750000,-73.9667805556,0,0
L.A. Burrito,Tex-Mex,4.2,Very Good,21,$,20,2,Bushwick,Bushwick,New York City,11237,216,40.7023083333,-73.9284277778,0,0
Tacos & Burritos Grill,"Mexican, Taco",4.2,Very Good,16,$,30,2,Windsor Terrace,Windsor Terrace,New York City,11215,216,40.6589138889,-73.9814833333,0,0
Habana Outpost,"Cuban, Mexican",4.1,Very Good,74,$,30,2,Downtown Brooklyn,Downtown Brooklyn,New York City,11217,216,40.6864083333,-73.9742444444,0,0
Jimmy Max,"Italian, Pizza, Seafood",4.1,Very Good,47,$,75,4,Westerleigh,Westerleigh,New York City,10314,216,40.6161243000,-74.1386246000,0,0
Golan Heights,Middle Eastern,4.1,Very Good,26,$,30,2,Washington Heights,Washington Heights,New York City,10033,216,40.8515694444,-73.9283055556,0,0
Memo Turkish Shish Kebab,Mediterranean,4.1,Very Good,19,$,40,3,Sheepshead Bay,Sheepshead Bay,New York City,11229,216,40.6102722222,-73.9549333333,0,0
Maharaja Sweets & Snacks,Indian,4.1,Very Good,21,$,30,2,Jackson Heights,Jackson Heights,New York City,11372,216,40.7488750000,-73.8923861111,0,0
Terrace Bagels,"Bagels, Sandwich",4.1,Very Good,29,$,20,2,Windsor Terrace,Windsor Terrace,New York City,11215,216,40.6599972222,-73.9806833333,0,0
Island Burger,"Burger, Caribbean",4.1,Very Good,26,$,35,2,East Flatbush,East Flatbush,New York City,11203,216,40.6507083333,-73.9303361111,0,0
Acapulco Restaurant,"American, Mexican",4.1,Very Good,21,$,35,2,Williamsburg,Williamsburg,New York City,11222,216,40.7366472222,-73.9553083333,0,0
Famous Pino's La Forchetta Pizzeria,Pizza,4.1,Very Good,19,$,45,3,Park Slope,Park Slope,New York City,11215,216,40.6713944444,-73.9777833333,0,0
El Campeon de Los Pollos,Spanish,4.1,Very Good,15,$,25,2,Richmond Hill,Richmond Hill,New York City,11420,216,40.6802111111,-73.8212138889,0,0
Ten Full Restaurant,Chinese,4.1,Very Good,13,$,25,2,"48th Street, Sunnyside","48th Street, Sunnyside, New York City",New York City,11104,216,40.7400333333,-73.9251250000,0,0
Los Mismos Amigos Restaurant,Dominican,4.1,Very Good,8,$,40,3,Corona,Corona,New York City,11368,216,40.7501250000,-73.8612583333,0,0
Long Won Restaurant,Chinese,4.1,Very Good,3,$,25,2,Canarsie,Canarsie,New York City,11236,216,40.6373150000,-73.8933890000,0,0
Murray's Bagels,"Bagels, Fast Food, Coffee and Tea",4.0,Very Good,134,$,15,1,West Village,West Village,New York City,10011,216,40.7366722222,-73.9978861111,0,0
Vanessa's Dumpling House,"Dim Sum, Chinese, Bubble Tea",4.0,Very Good,141,$,15,1,Lower East Side,Lower East Side,New York City,10002,216,40.7182888889,-73.9918888889,0,0
Mile End Delicatessen,"Jewish, Deli, Sandwich",4.0,Very Good,111,$,25,2,Boerum Hill,Boerum Hill,New York City,11217,216,40.6875305556,-73.9871361111,0,0
Woorijip,Korean,4.0,Very Good,102,$,30,2,"West 32nd Street, Gramercy","West 32nd Street, Gramercy, New York City",New York City,10001,216,40.7477611111,-73.9869166667,0,0
Murray's Cheese,"American, International",4.0,Very Good,108,$,25,2,West Village,West Village,New York City,10014,216,40.7309660000,-74.0029640000,0,0
Fornino,"Italian, Pizza",4.0,Very Good,94,$,40,3,North Williamsburg - North Side,North Williamsburg - North Side,New York City,11211,216,40.7179138889,-73.9580611111,0,0
99 Miles To Philly,American,4.0,Very Good,59,$,25,2,East Village,East Village,New York City,10003,216,40.7322111111,-73.9880222222,0,0
BZ Grill,"Greek, Sandwich",4.0,Very Good,48,$,25,2,Astoria,Astoria,New York City,11102,216,40.7708250000,-73.9212944444,0,0
East Village Pizza and Kebabs,"Pizza, Middle Eastern",4.0,Very Good,27,$,15,1,East Village,East Village,New York City,10003,216,40.7282333333,-73.9848722222,0,0
DUB Pies,Australian,4.0,Very Good,40,$,15,1,Windsor Terrace,Windsor Terrace,New York City,11215,216,40.6603861111,-73.9803777778,0,0
Fascati Pizza,Pizza,4.0,Very Good,35,$,25,2,Brooklyn Heights,Brooklyn Heights,New York City,11201,216,40.6984850000,-73.9926650000,0,0
Poor Freddie's Rib Shack,"BBQ, Southern",4.0,Very Good,36,$,25,2,Jamaica,Jamaica,New York City,11434,216,40.6878083333,-73.7900388889,0,0
VIPizza,Pizza,4.0,Very Good,34,$,30,2,Bayside,Bayside,New York City,11361,216,40.7611940000,-73.7700060000,0,0
J & D Pizzeria & Restaurant,Pizza,4.0,Very Good,18,$,40,3,Rego Park,Rego Park,New York City,11374,216,40.7323500000,-73.8573833333,0,0
Pizza Wagon,Pizza,4.0,Very Good,17,$,10,1,Fort Hamilton,Fort Hamilton,New York City,11209,216,40.6212472222,-74.0264194444,0,0
Johnny's Pizzeria,Pizza,4.0,Very Good,14,$,15,1,Sunset Park,Sunset Park,New York City,11220,216,40.6405805556,-74.0152194444,0,0
La Vita Mia Pizza Grill,"Pizza, Italian",4.0,Very Good,16,$,25,2,Astoria,Astoria,New York City,11102,216,40.7734722222,-73.9169777778,0,0
Cea-Lo Cafe,"Soul Food, Southern",4.0,Very Good,13,$,35,2,Soundview,Soundview,New York City,10472,216,40.8251611111,-73.8702777778,0,0
Johnson Bar-B-Q,American,4.0,Very Good,14,$,20,2,Longwood,Longwood,New York City,10456,216,40.8225277778,-73.9026416667,0,0
M & R Pizza,Pizza,4.0,Very Good,9,$,25,2,Norwood,Norwood,New York City,10467,216,40.8805305556,-73.8831861111,0,0
Shimon's Kosher Pizza,"Pizza, Fast Food",4.0,Very Good,8,$,25,2,Kew Gardens Hills,Kew Gardens Hills,New York City,11367,216,40.7272138889,-73.8222277778,0,0
Dominick's Pizzeria,Pizza,4.0,Very Good,8,$,25,2,Borough Park,Borough Park,New York City,11220,216,40.6416555556,-74.0030583333,0,0
Hong Kong Express,Chinese,4.0,Very Good,8,$,30,2,Ridgewood,Ridgewood,New York City,11385,216,40.6960833333,-73.9047694444,0,0
Vanessa's Dumplings,Dim Sum,3.9,Good,71,$,20,2,Gramercy,Gramercy,New York City,10003,216,40.7329138889,-73.9862583333,0,0
Tehuitzingo,Mexican,3.9,Good,58,$,30,2,Hell's Kitchen,Hell's Kitchen,New York City,10036,216,40.7632710000,-73.9930210000,0,0
Koronet Pizzeria,"Italian, Pizza",3.9,Good,64,$,25,2,Morningside Heights,Morningside Heights,New York City,10025,216,40.8045833333,-73.9663916667,0,0
Tortilleria Mexicana Los Hermanos,Mexican,3.9,Good,48,$,15,1,Bushwick,Bushwick,New York City,11237,216,40.7065250000,-73.9218222222,0,0
Freda's Caribbean & Soul Cuisine,"Caribbean, Southern",3.9,Good,41,$,45,3,Upper West Side,Upper West Side,New York City,10025,216,40.8010333333,-73.9615861111,0,0
Schnipper's Quality Kitchen,American,3.9,Good,36,$,30,2,"East 23rd Street, Gramercy-Flatiron","East 23rd Street, Gramercy-Flatiron, New York City",New York City,10010,216,40.7408687000,-73.9876803000,0,0
Pinkberry,Frozen Yogurt,3.9,Good,37,$,20,2,Upper West Side,Upper West Side,New York City,10023,216,40.7777472222,-73.9823694444,0,0
Grandpa's Brick Oven Pizza,"Pizza, Italian",3.9,Good,19,$,20,2,Inwood,Inwood,New York City,10034,216,40.8682472222,-73.9195861111,0,0
Mike's Bagels,"Bagels, Sandwich",3.9,Good,25,$,25,2,Washington Heights,Washington Heights,New York City,10032,216,40.8413888889,-73.9399194444,0,0
Luigi's Pizzeria,Pizza,3.9,Good,22,$,25,2,Clinton Hill,Clinton Hill,New York City,11205,216,40.6897666667,-73.9654916667,0,0
Nino's Pizzeria,"Pizza, Italian",3.9,Good,22,$,20,2,Fort Hamilton,Fort Hamilton,New York City,11209,216,40.6197694444,-74.0326694444,0,0
Karam,"Mediterranean, Middle Eastern",3.9,Good,22,$,35,2,"Av, Fort Hamilton","Av, Fort Hamilton, New York City",New York City,11209,216,40.6229972222,-74.0282666667,0,0
George's Pizza,Pizza,3.9,Good,18,$,15,1,Washington Heights,Washington Heights,New York City,10033,216,40.8505055556,-73.9370111111,0,0
Lioni Italian Heros,"Sandwich, Italian",3.9,Good,15,$,30,2,Bensonhurst,Bensonhurst,New York City,11228,216,40.6157500000,-74.0048833333,0,0
Peking BBQ Chicken,"BBQ, Chinese",3.9,Good,16,$,25,2,Woodside,Woodside,New York City,11377,216,40.7455777778,-73.9059444444,0,0
Benvenuti Pizzeria & Trattoria,"Italian, Pizza",3.9,Good,16,$,20,2,Great Kills,Great Kills,New York City,10308,216,40.5511060000,-74.1500150000,0,0
Pizza Park,"Pizza, Italian",3.9,Good,15,$,20,2,Upper East Side,Upper East Side,New York City,10021,216,40.7641638889,-73.9585194444,0,0
Ganni's Pizzeria,Pizza,3.9,Good,13,$,20,2,Bedford-Stuyvesant,Bedford-Stuyvesant,New York City,11205,216,40.6943027778,-73.9578694444,0,0
Valentino's Pizzeria & Restaurant,"Italian, Pizza",3.9,Good,14,$,50,3,Flushing,Flushing,New York City,11367,216,40.7287000000,-73.8150638889,0,0
Marabella Pizzeria Restaurant,"Pizza, Italian, Sandwich",3.9,Good,10,$,20,2,Sunnyside,Sunnyside,New York City,11104,216,40.7401111111,-73.9238972222,0,0
Brisas Del Caribe,Caribbean,3.9,Good,10,$,35,2,Unionport,Unionport,New York City,10462,216,40.8322750000,-73.8510972222,0,0
Kam's Kitchen,Chinese,3.9,Good,9,$,25,2,Cambria Heights,Cambria Heights,New York City,11411,216,40.6959277778,-73.7423333333,0,0
San Remo Pizzeria & Restaurant,"Italian, Pizza",3.9,Good,9,$,25,2,Flatbush,Flatbush,New York City,11226,216,40.6409138889,-73.9650194444,0,0
Faye & King,"Jamaican, American, Caribbean",3.9,Good,8,$,25,2,Flatbush,Flatbush,New York City,11210,216,40.6363000000,-73.9512416667,0,0
Didi Chinese Restaurant & Fresco Tortilla,"Chinese, Tex-Mex",3.9,Good,8,$,25,2,Flatlands,Flatlands,New York City,11210,216,40.6282305556,-73.9470583333,0,0
Golden Fountain Kitchen,Chinese,3.9,Good,6,$,30,2,Kew Gardens,Kew Gardens,New York City,11418,216,40.7073333333,-73.8356333333,0,0
Subsational,American,3.9,Good,7,$,25,2,Midwood,Midwood,New York City,11230,216,40.6105580000,-73.9626940000,0,0
Sparks Deli,"Sandwich, American, Deli",3.9,Good,6,$,20,2,Hunters Point,Hunters Point,New York City,11101,216,40.7387110000,-73.9409080000,0,0
Szechuan Garden Chinese,Chinese,3.9,Good,5,$,30,2,Fort Hamilton,Fort Hamilton,New York City,11209,216,40.6197583333,-74.0327305556,0,0
Number One Garden Chinese,Chinese,3.9,Good,5,$,15,1,South Slope,South Slope,New York City,11215,216,40.6601833333,-73.9806833333,0,0
Cho-Sen Garden,"Chinese, American, Japanese",3.9,Good,5,$,25,2,Forest Hills,Forest Hills,New York City,11375,216,40.7319611111,-73.8489305556,0,0
Mei Wei Restaurant,Chinese,3.9,Good,4,$,25,2,Canarsie,Canarsie,New York City,11236,216,40.6367555556,-73.9121472222,0,0
El Jobo Restaurant,Latin American,3.9,Good,5,$,35,2,Fordham,Fordham,New York City,10453,216,40.8552472222,-73.9044805556,0,0
La Estrella Restaurant,Latin American,3.9,Good,5,$,40,3,Fordham,Fordham,New York City,10457,216,40.8543055556,-73.9017722222,0,0
Hip Wo Kitchen,Chinese,3.9,Good,3,$,25,2,Dongan Hills,Dongan Hills,New York City,10306,216,40.5810972222,-74.0980611111,0,0
Mike's Pizzeria,Pizza,3.9,Good,1,$,25,2,Forest Hills,Forest Hills,New York City,11375,216,40.7207810000,-73.8551450000,0,0
Num Pang Sandwich Shop,"Cambodian, Sandwich",3.8,Good,127,$,30,2,Greenwich Village,Greenwich Village,New York City,10003,216,40.7340444444,-73.9930722222,0,0
Fatima's Halal Kitchen,Chinese,3.9,Good,22,$,25,2,Astoria,Astoria,New York City,11106,216,40.7633170000,-73.9278990000,0,0
Dumpling Man,"Asian, Chinese",3.8,Good,66,$,20,2,East Village,East Village,New York City,10009,216,40.7273472222,-73.9847111111,0,0
Lucky's Famous Burgers,"American, Burger",3.8,Good,48,$,30,2,Hell's Kitchen,Hell's Kitchen,New York City,10019,216,40.7645027778,-73.9876416667,0,0
Maoz Vegetarian,Mediterranean,3.8,Good,47,$,30,2,Gramercy-Flatiron,Gramercy-Flatiron,New York City,10003,216,40.7361055556,-73.9893805556,0,0
Pita Pan,"Mediterranean, Greek",3.8,Good,40,$,20,2,Astoria,Astoria,New York City,11103,216,40.7644361111,-73.9159250000,0,0
Milk Burger,"Burger, American",3.8,Good,20,$,25,2,East Harlem,East Harlem,New York City,10029,216,40.7901638889,-73.9427722222,0,0
"Famous Fish Market, Inc.",Seafood,3.8,Good,26,$,25,2,Harlem,Harlem,New York City,10030,216,40.8233430000,-73.9449240000,0,0
New York Pao de Queijo,"Brazilian, Desserts, Sandwich",3.8,Good,34,$,25,2,Astoria,Astoria,New York City,11106,216,40.7628270000,-73.9260100000,0,0
Ba Xuyên,Vietnamese,3.8,Good,35,$,15,1,Sunset Park,Sunset Park,New York City,11232,216,40.6452305556,-73.9995805556,0,0
Empanadas Café,Latin American,3.8,Good,24,$,20,2,Corona,Corona,New York City,11368,216,40.7402305556,-73.8532333333,0,0
Soomsoom Vegetarian Bar,"Mediterranean, Vegetarian",3.8,Good,29,$,25,2,Upper West Side,Upper West Side,New York City,10023,216,40.7784388889,-73.9811777778,0,0
Taquería Coatzingo,Mexican,3.8,Good,18,$,50,3,Jackson Heights,Jackson Heights,New York City,11372,216,40.7471277778,-73.8892277778,0,0
Ukus,"Mediterranean, Eastern European",3.8,Good,19,$,35,2,Astoria,Astoria,New York City,11103,216,40.7630166667,-73.9131611111,0,0
Leo's Latticini,Sandwich,4.4,Very Good,23,$,25,2,Corona,Corona,New York City,11368,216,40.7462180000,-73.8600110000,0,0
DeFonte's of Red Hook,Sandwich,4.1,Very Good,51,$,30,2,Red Hook,Red Hook,New York City,11231,216,40.6789555556,-74.0055305556,0,0
Banh Mi Saigon,"Sandwich, Vietnamese",3.9,Good,65,$,15,1,Lower East Side,Lower East Side,New York City,10013,216,40.7190805556,-73.9968027778,0,0
Tiny's Giant Sandwich Shop,Sandwich,3.7,Good,55,$,30,2,Lower East Side,Lower East Side,New York City,10002,216,40.7196000000,-73.9868555556,0,0
Zucker's Bagels & Smoked Fish,"Bagels, Sandwich",3.7,Good,68,$,20,2,Tribeca,Tribeca,New York City,10007,216,40.7157888889,-74.0096888889,0,0
Zigolinis Gourmet Delicatessen,Sandwich,3.7,Good,24,$,25,2,Lower Manhattan,Lower Manhattan,New York City,10004,216,40.7037583333,-74.0097972222,0,0
Num Pang Sandwich Shop,"Cambodian, Sandwich",3.6,Good,50,$,30,2,Murray Hill,Murray Hill,New York City,10017,216,40.7509777778,-73.9757388889,0,0
Saltie,"Desserts, Sandwich",3.6,Good,30,$,40,3,North Williamsburg - North Side,North Williamsburg - North Side,New York City,11211,216,40.7141944444,-73.9555888889,0,0
Lunchbox Brooklyn,"Sandwich, Beverages",3.6,Good,15,$,30,2,Williamsburg,Williamsburg,New York City,11222,216,40.7260055556,-73.9498972222,0,0
G. Esposito & Sons Jersey Pork Store,Italian,3.6,Good,13,$,25,2,"Court Street, Cobble Hill","Court Street, Cobble Hill, New York City",New York City,11231,216,40.6820638889,-73.9959250000,0,0
The Smile,"New American, Mediterranean",3.5,Good,41,$,100,4,"Bond Street, East Village","Bond Street, East Village, New York City",New York City,10012,216,40.7265590000,-73.9936430000,0,0
Lenwich,Sandwich,3.5,Good,35,$,25,2,Upper West Side,Upper West Side,New York City,10023,216,40.7788861111,-73.9777000000,0,0
Urban Rustic Market & Café,"Cafe, Sandwich",3.5,Good,20,$,35,2,"North 12th Street, Williamsburg","North 12th Street, Williamsburg, New York City",New York City,11211,216,40.7125100000,-73.9568070000,0,0
Sanpanino,Italian,3.5,Good,11,$,20,2,Greenwich Village,Greenwich Village,New York City,10014,216,40.7328611111,-74.0063694444,0,0
American Hero Subs,Sandwich,3.5,Good,6,$,15,1,Hunters Point,Hunters Point,New York City,11101,216,40.7476805556,-73.9443361111,0,0
Philadelphia Grille,"American, Sandwich",3.5,Good,7,$,30,2,Fort Hamilton,Fort Hamilton,New York City,11209,216,40.6126111111,-74.0336305556,0,0
Gourmet 53,Sandwich,3.5,Good,1,$,20,2,Turtle Bay,Turtle Bay,New York City,10022,216,40.7575120000,-73.9693420000,0,0
Pret a Manger,"Cafe, Sandwich",3.4,Average,15,$,25,2,Turtle Bay,Turtle Bay,New York City,10017,216,40.7536650000,-73.9744230000,0,0
Strokos Deli & Catering,"Pizza, Sandwich",3.4,Average,8,$,25,2,Hell's Kitchen,Hell's Kitchen,New York City,10019,216,40.7697333333,-73.9882500000,0,0
Raclette,"French, Sandwich",3.2,Average,12,$,40,3,East Village,East Village,New York City,10009,216,40.7292027778,-73.9812166667,0,0
Hale and Hearty Soups,Sandwich,3.3,Average,22,$,25,2,"9th Avenue, Greenwich Village","9th Avenue, Greenwich Village, New York City",New York City,10011,216,40.7425630000,-74.0060840000,0,0
Potbelly Sandwich Shop,"Sandwich, Healthy Food",3.3,Average,12,$,20,2,Lower Manhattan,Lower Manhattan,New York City,10038,216,40.7068527778,-74.0072638889,0,0
Bagels on the Square,"Bagels, Sandwich",3.3,Average,11,$,25,2,West Village,West Village,New York City,10014,216,40.7306050000,-74.0020910000,0,0
Potbelly Sandwich Shop,"Sandwich, Healthy Food",3.3,Average,10,$,20,2,"Rockefeller Plaza, Gramercy","Rockefeller Plaza, Gramercy, New York City",New York City,10112,216,40.7584400000,-73.9789890000,0,0
Parisi Bakery,Sandwich,3.3,Average,11,$,30,2,Lower East Side,Lower East Side,New York City,10012,216,40.7212444444,-73.9957111111,0,0
Hale and Hearty Soups,Sandwich,3.3,Average,6,$,30,2,"Rockefeller Plaza, Midtown","Rockefeller Plaza, Midtown, New York City",New York City,10112,216,40.7585890000,-73.9790690000,0,0
Black Seed,"Bagels, Cafe",3.2,Average,17,$,35,2,"Elizabeth Street, Nolita","Elizabeth Street, Nolita, New York City",New York City,10012,216,40.7209666667,-73.9947750000,0,0
Mile End Sandwich,"American, Sandwich",3.2,Average,31,$,60,4,East Village,East Village,New York City,10012,216,40.7258669000,-73.9926530000,0,0
Anthony & Son Panini Shoppe,Sandwich,3.2,Average,12,$,25,2,Williamsburg,Williamsburg,New York City,11211,216,40.7179861111,-73.9450833333,0,0
'wichcraft,"Sandwich, Cafe",3.2,Average,20,$,25,2,Gramercy,Gramercy,New York City,10017,216,40.7560888889,-73.9787666667,0,0
Hale and Hearty,Sandwich,3.2,Average,15,$,25,2,"East 47th Street, Gramercy","East 47th Street, Gramercy, New York City",New York City,10017,216,40.7559260000,-73.9774150000,0,0
Soho Café & Grill,"Sandwich, Burger, Juices",3.2,Average,11,$,30,2,Astoria,Astoria,New York City,11105,216,40.7755555556,-73.9113000000,0,0
'wichcraft,"Sandwich, Cafe",3.2,Average,13,$,25,2,Tribeca,Tribeca,New York City,10013,216,40.7207666667,-74.0100694444,0,0
Lenny's,Sandwich,3.2,Average,10,$,30,2,"Pennsylvania Plaza, Chelsea","Pennsylvania Plaza, Chelsea, New York City",New York City,10119,216,40.7504222222,-73.9915388889,0,0
HBH Gourmet Sandwiches,"French, Sandwich",3.2,Average,4,$,50,3,Carroll Gardens,Carroll Gardens,New York City,11231,216,40.6779361111,-73.9961916667,0,0
Hero Champ,"Sandwich, American",3.2,Average,1,$,15,1,Sunset Park,Sunset Park,New York City,11232,216,40.6558416667,-74.0066305556,0,0
Subway,"Healthy Food, Salad",3.2,Average,2,$,25,2,Brownsville,Brownsville,New York City,11212,216,40.6613472222,-73.9202333333,0,0
Num Pang Sandwich Shop,"Thai, Sandwich",3.1,Average,12,$,30,2,Chelsea,Chelsea,New York City,10011,216,40.7422302000,-74.0058955000,0,0
Dickson's Farmstand Meats,Sandwich,3.1,Average,13,$,75,4,"9th Avenue, Greenwich Village","9th Avenue, Greenwich Village, New York City",New York City,10011,216,40.7422140000,-74.0046500000,0,0
Pisillo Italian Panini,"Sandwich, Italian",3.1,Average,7,$,25,2,Lower Manhattan,Lower Manhattan,New York City,10038,216,40.7102138889,-74.0071638889,0,0
Paradis To Go,"American, Healthy Food",3.1,Average,9,$,35,2,East Village,East Village,New York City,10003,216,40.7326138889,-73.9901055556,0,0
Xe May Sandwich Shop,"Sandwich, Vietnamese",3.1,Average,7,$,20,2,East Village,East Village,New York City,10009,216,40.7273972222,-73.9848555556,0,0
Crave Sandwiches,Sandwich,3.1,Average,4,$,25,2,"Avenue Of The Americas, Midtown","Avenue Of The Americas, Midtown, New York City",New York City,10036,216,40.7556490000,-73.9833550000,0,0
Spreads Sandwich Shop,"Sandwich, Cafe",3.1,Average,4,$,25,2,Koreatown,Koreatown,New York City,10016,216,40.7445916667,-73.9835055556,0,0
Hale & Hearty Soups,Sandwich,3.1,Average,3,$,20,2,Midtown,Midtown,New York City,10036,216,40.7541690000,-73.9824450000,0,0
Brooklyn Sub,Sandwich,3.1,Average,3,$,25,2,"Bergen Street, Crown Heights","Bergen Street, Crown Heights, New York City",New York City,11238,216,40.6785690000,-73.9634890000,0,0
Pure & Fresh,"Sandwich, Healthy Food, Desserts",3.0,Average,4,$,20,2,Gramercy,Gramercy,New York City,10018,216,40.7506361111,-73.9859000000,0,0
Lenwich,Sandwich,3.0,Average,7,$,25,2,Midtown,Midtown,New York City,10022,216,40.7573916667,-73.9666833333,0,0
Bagels by the Park,"Deli, Bagels, Sandwich",3.0,Average,5,$,30,2,"Smith Street, Carroll Gardens","Smith Street, Carroll Gardens, New York City",New York City,11231,216,40.6810527778,-73.9943305556,0,0
Bari Pork Store,"Italian, Sandwich",3.0,Average,5,$,25,2,Borough Park,Borough Park,New York City,11204,216,40.6197972000,-73.9893323000,0,0
Earl of Sandwich,Sandwich,3.0,Average,3,$,25,2,Gramercy,Gramercy,New York City,10104,216,40.7604516658,-73.9788705111,0,0
Bully's Deli,"Deli, Sandwich",3.0,Average,4,$,75,4,Greenwich Village,Greenwich Village,New York City,10003,216,40.7308680000,-73.9923900000,0,0
Potbelly Sandwich Shop,"Sandwich, Healthy Food",3.0,Average,3,$,20,2,Turtle Bay,Turtle Bay,New York City,10017,216,40.7524416667,-73.9739388889,0,0
Oxford Cafe,"Sandwich, Cafe",3.0,Average,2,$,25,2,"5th Avenue, Koreatown","5th Avenue, Koreatown, New York City",New York City,10016,216,40.7493333333,-73.9840388889,0,0
Henry's,"Vietnamese, Sandwich, Bubble Tea",3.0,Average,2,$,30,2,"7th Avenue, South Slope","7th Avenue, South Slope, New York City",New York City,11215,216,40.6635666667,-73.9843833333,0,0
Subway,"Healthy Food, Salad",3.0,Average,1,$,25,2,"Bridge Plaza South, Hunters Point","Bridge Plaza South, Hunters Point, New York City",New York City,11101,216,40.7498888889,-73.9392000000,0,0
Subway,"Healthy Food, Salad",3.0,Average,1,$,25,2,Dongan Hills,Dongan Hills,New York City,10305,216,40.5861388889,-74.0922083333,0,0
Subway,"Healthy Food, Salad",3.0,Average,0,$,25,2,Concourse,Concourse,New York City,10452,216,40.8356750000,-73.9207527778,0,0
Subway,"Healthy Food, Salad",3.0,Average,0,$,25,2,Washington Heights,Washington Heights,New York City,10033,216,40.8492083333,-73.9369666667,0,0
Potbelly Sandwich Shop,"Sandwich, Healthy Food",2.9,Average,4,$,20,2,Midtown,Midtown,New York City,10018,216,40.7528944444,-73.9891666667,0,0
Devon & Blakely,"American, Deli",2.9,Average,3,$,20,2,Turtle Bay,Turtle Bay,New York City,10017,216,40.7552027778,-73.9714805556,0,0
Pret A Manger,"Cafe, Sandwich",2.9,Average,4,$,25,2,Gramercy,Gramercy,New York City,10016,216,40.7461930000,-73.9821960000,0,0
Subway,"Healthy Food, Salad",2.9,Average,3,$,25,2,Upper East Side,Upper East Side,New York City,10021,216,40.7649611111,-73.9567194444,0,0
Rachel's By the Bay,Sandwich,2.9,Average,2,$,25,2,Tottenville,Tottenville,New York City,10307,216,40.5092100000,-74.2467400000,0,0
Potbelly Sandwich Shop,"Sandwich, Healthy Food",2.9,Average,2,$,20,2,"Park Avenue South, Kips Bay","Park Avenue South, Kips Bay, New York City",New York City,10010,216,40.7412805556,-73.9859555556,0,0
Subway,"Healthy Food, Salad",2.9,Average,2,$,25,2,Hell's Kitchen,Hell's Kitchen,New York City,10019,216,40.7676555556,-73.9834527778,0,0
Subway,"Healthy Food, Salad",2.9,Average,0,$,25,2,Upper East Side,Upper East Side,New York City,10021,216,40.7621638889,-73.9627527778,0,0
Subway,"Healthy Food, Salad",2.9,Average,0,$,25,2,Upper East Side,Upper East Side,New York City,10028,216,40.7787361111,-73.9560861111,0,0
Fuku,Sandwich,2.8,Average,9,$,0,1,East Village,East Village,New York City,10003,216,40.7289820000,-73.9845650000,0,0
Bedford Cheese Shop,"Sandwich, American",2.8,Average,4,$,20,2,Gramercy,Gramercy,New York City,10003,216,40.7367555556,-73.9869388889,0,0
Smith Canteen,"Cafe, Sandwich",2.8,Average,4,$,30,2,"Smith Street, Carroll Gardens","Smith Street, Carroll Gardens, New York City",New York City,11231,216,40.6803277778,-73.9947888889,0,0
Melt Shop,Sandwich,2.8,Average,5,$,30,2,Lower Manhattan,Lower Manhattan,New York City,10038,216,40.7099922000,-74.0068953000,0,0
Action Burger,"American, Burger",2.8,Average,4,$,25,2,Williamsburg,Williamsburg,New York City,11211,216,40.7123119000,-73.9438745000,0,0
Broadway Gourmet,Sandwich,2.8,Average,3,$,20,2,Soho,Soho,New York City,10012,216,40.7249111111,-73.9972222222,0,0
Twin Donuts,"Donuts, Sandwich, Cafe",2.8,Average,2,$,25,2,West Concourse,West Concourse,New York City,10451,216,40.8262833333,-73.9212805556,0,0
Subway,"Healthy Food, Salad",2.8,Average,3,$,25,2,Upper East Side,Upper East Side,New York City,10028,216,40.7772527778,-73.9491722222,0,0
Subway,"Healthy Food, Salad",2.8,Average,4,$,25,2,Kew Gardens,Kew Gardens,New York City,11415,216,40.7129166667,-73.8282611111,0,0
Subway,"Healthy Food, Salad",2.8,Average,3,$,25,2,Flatlands,Flatlands,New York City,11234,216,40.6185111111,-73.9321583333,0,0
Elberih Deli,"Sandwich, Bagels",2.8,Average,4,$,0,1,Boerum Hill,Boerum Hill,New York City,11217,216,40.6847430000,-73.9858270000,0,0
Num Pang Sandwich Shop,"Fusion, Sandwich, Cambodian",2.7,Average,4,$,30,2,Financial District,Financial District,New York City,10281,216,40.7113747000,-74.0156618000,0,0
Pret A Manger,"Cafe, Sandwich",2.7,Average,4,$,20,2,Gramercy-Flatiron,Gramercy-Flatiron,New York City,10010,216,40.7412722222,-73.9936527778,0,0
Hale and Hearty,Sandwich,2.7,Average,6,$,25,2,Gramercy,Gramercy,New York City,10019,216,40.7603861111,-73.9829416667,0,0
Subway,"Healthy Food, Salad",2.7,Average,3,$,25,2,Park Slope,Park Slope,New York City,11215,216,40.6690472222,-73.9796444444,0,0
Subway,"Healthy Food, Salad",2.7,Average,3,$,25,2,"Astoria Boulevard, Astoria Heights","Astoria Boulevard, Astoria Heights, New York City",New York City,11369,216,40.7639694444,-73.8819416667,0,0
Subway,"Healthy Food, Salad",2.7,Average,2,$,25,2,Gerritsen Beach,Gerritsen Beach,New York City,11235,216,40.5861361111,-73.9311666667,0,0
Subway,"Healthy Food, Salad",2.7,Average,4,$,25,2,Upper East Side,Upper East Side,New York City,10028,216,40.7723888889,-73.9495611111,0,0
Dumbo Kitchen,"Pizza, Sandwich",2.6,Average,5,$,45,3,DUMBO,DUMBO,New York City,11201,216,40.7016000000,-73.9867861111,0,0
Blimpie,"Sandwich, Salad, Fast Food",2.6,Average,2,$,20,2,Unionport,Unionport,New York City,10462,216,40.8341472222,-73.8514861111,0,0
Subway,"Healthy Food, Salad",2.6,Average,2,$,25,2,"4th Avenue, Fort Hamilton","4th Avenue, Fort Hamilton, New York City",New York City,11209,216,40.6182222222,-74.0303111111,0,0
Subway,"Healthy Food, Salad",2.6,Average,2,$,25,2,Bayridge,Bayridge,New York City,11220,216,40.6313055556,-74.0278472222,0,0
Subway,"Healthy Food, Salad",2.5,Average,0,$,25,2,Financial District,Financial District,New York City,10007,216,40.7151111111,-74.0076666667,0,0
Subway,"Fast Food, Sandwich",2.5,Average,0,$,25,2,Inwood,Inwood,New York City,10034,216,40.8671805556,-73.9208222222,0,0
Subway,"Healthy Food, Salad",2.3,Poor,5,$,25,2,"West 43rd Street, Midtown","West 43rd Street, Midtown, New York City",New York City,10036,216,40.7546722222,-73.9821694444,0,0
Toasties,"Diner, Sandwich",2.4,Poor,2,$,20,2,"John Street, Lower Manhattan","John Street, Lower Manhattan, New York City",New York City,10038,216,40.7097861111,-74.0087666667,0,0
Potbelly Sandwich Shop,"Sandwich, Healthy Food",2.3,Poor,4,$,20,2,Lower Manhattan,Lower Manhattan,New York City,10038,216,40.7100222222,-74.0074833333,0,0
Black Seed,"Bagels, Cafe",2.9,Average,4,$,35,2,East Village,East Village,New York City,10009,216,0.0000000000,0.0000000000,0,0
Bread & Butter,"Sandwich, Fusion, Asian",0,Not rated,1,$,25,2,Turtle Bay,Turtle Bay,New York City,10017,216,40.7536472222,-73.9715361111,0,0
Jonny's Panini,"Coffee and Tea, Italian, Sandwich, Cafe",0,Not rated,2,$,25,2,"9th Avenue, Chelsea","9th Avenue, Chelsea, New York City",New York City,10001,216,40.7533000000,-73.9967370000,0,0
Chop't,Healthy Food,0,Not rated,2,$,30,2,Lower East Side,Lower East Side,New York City,10012,216,40.7220222222,-73.9965750000,0,0
Schnitz,"Sandwich, German",0,Not rated,1,$,30,2,East Village,East Village,New York City,10003,216,40.7293916667,-73.9842444444,0,0
Veranda Restaurant & Café,"American, Greek, Mediterranean",4.5,Excellent,47,$,150,4,Bayside,Bayside,New York City,11361,216,40.7589520000,-73.7753900000,0,0
Billy's Bakery,"Bakery, American",4.4,Very Good,212,$,15,1,"Chelsea, Manhattan","Chelsea, Manhattan",New York City,10011,216,40.7454861111,-74.0020666667,0,0
The Grey Dog,Cafe,4.4,Very Good,166,$,30,2,West Village,West Village,New York City,10014,216,40.7299000000,-74.0039444444,0,0
Penelope,"Cafe, American, Bakery",4.3,Very Good,302,$,60,4,Kips Bay,Kips Bay,New York City,10016,216,40.7437972222,-73.9816444444,0,0
Doughnut Plant,Donuts,4.3,Very Good,210,$,15,1,"Chelsea, Manhattan","Chelsea, Manhattan",New York City,10011,216,40.7446944444,-73.9965666667,0,0
Veniero's Pasticceria & Caffe,"Cafe, Desserts",4.3,Very Good,232,$,20,2,East Village,East Village,New York City,10003,216,40.7295083333,-73.9844805556,0,0
Kitchenette Uptown,"American, Breakfast",4.3,Very Good,120,$,45,3,Morningside Heights,Morningside Heights,New York City,10027,216,40.8111944444,-73.9580472222,0,0
Bouchon Bakery & Cafe,"Cafe, French",4.2,Very Good,263,$,75,4,"Columbus Circle, Hell's Kitchen","Columbus Circle, Hell's Kitchen, New York City",New York City,10019,216,40.7684141000,-73.9827037000,0,0
Alice's Tea Cup Chapter I,"Cafe, Desserts",4.2,Very Good,185,$,30,2,Upper West Side,Upper West Side,New York City,10023,216,40.7781361111,-73.9785527778,0,0
Candle Café,Cafe,4.2,Very Good,131,$,60,4,Upper East Side,Upper East Side,New York City,10021,216,40.7716861111,-73.9594111111,0,0
Café Lalo,"Cafe, Desserts",4.1,Very Good,258,$,75,4,Upper West Side,Upper West Side,New York City,10024,216,40.7859048000,-73.9767320000,0,0
Le Grainne Cafe,"Cafe, French",4.1,Very Good,129,$,45,3,"Chelsea, Manhattan","Chelsea, Manhattan",New York City,10011,216,40.7453194444,-74.0023277778,0,0
La Maison du Macaron,"Bakery, Cafe, Desserts",4.1,Very Good,125,$,40,3,"Chelsea, Manhattan","Chelsea, Manhattan",New York City,10011,216,40.7433444444,-73.9940638889,0,0
Two Little Red Hens,"Cafe, Desserts",4.1,Very Good,80,$,25,2,Upper East Side,Upper East Side,New York City,10028,216,40.7774700000,-73.9516440000,0,0
Brooklyn Bagel & Coffee Company,"Bagels, Cafe",4.1,Very Good,48,$,15,1,"Broadway, Astoria","Broadway, Astoria, New York City",New York City,11106,216,40.7604416667,-73.9219583333,0,0
Le Gamin Café,"Cafe, French",4.1,Very Good,47,$,75,4,"Vanderbilt Avenue, Prospect Heights","Vanderbilt Avenue, Prospect Heights, New York City",New York City,11238,216,40.6805980000,-73.9680180000,0,0
Krystal's Café,"Filipino, Cafe",4.1,Very Good,36,$,40,3,Woodside,Woodside,New York City,11377,216,40.7464305556,-73.8963861111,0,0
Stumptown Coffee Roasters,Cafe,4.0,Very Good,130,$,10,1,"West 30th Street, Gramercy","West 30th Street, Gramercy, New York City",New York City,10016,216,40.7461444444,-73.9878083333,0,0
Café Grumpy,Cafe,4.0,Very Good,113,$,25,2,"Chelsea, Manhattan","Chelsea, Manhattan",New York City,10011,216,40.7427055556,-73.9984500000,0,0
Blue Ribbon Bakery,"Bakery, Cafe",4.0,Very Good,154,$,60,4,West Village,West Village,New York City,10014,216,40.7293780000,-74.0039490000,0,0
Best Bagel & Coffee,"Bagels, Sandwich, Cafe",4.0,Very Good,51,$,20,2,Gramercy,Gramercy,New York City,10001,216,40.7519277778,-73.9912805556,0,0
Tartine,"French, Cafe",4.0,Very Good,135,$,75,4,Greenwich Village,Greenwich Village,New York City,10014,216,40.7362472222,-74.0034472222,0,0
Le Pain Quotidien,"Bakery, Sandwich",4.0,Very Good,99,$,50,3,Upper East Side,Upper East Side,New York City,10028,216,40.7798472222,-73.9596250000,0,0
Abraco,"Cafe, Desserts, Coffee and Tea",4.0,Very Good,66,$,25,2,East Village,East Village,New York City,10003,216,40.7271472222,-73.9861055556,0,0
Financier Patisserie,"Bakery, French, Desserts",4.0,Very Good,95,$,20,2,Lower Manhattan,Lower Manhattan,New York City,10004,216,40.7043416667,-74.0099500000,0,0
Moto,"American, Coffee and Tea",4.0,Very Good,72,$,30,2,South Side,South Side,New York City,11211,216,40.7070260000,-73.9543840000,0,0
Gimme! Coffee,Cafe,4.0,Very Good,54,$,15,1,Lower East Side,Lower East Side,New York City,10012,216,40.7224260000,-73.9949620000,0,0
Paneantico Bakery Cafe,"Cafe, Italian, Bakery",4.0,Very Good,27,$,30,2,Fort Hamilton,Fort Hamilton,New York City,11209,216,40.6194694444,-74.0328611111,0,0
The City Bakery,"Cafe, Bakery",3.9,Good,205,$,35,2,"West 18th Street, Gramercy-Flatiron","West 18th Street, Gramercy-Flatiron, New York City",New York City,10011,216,40.7388944444,-73.9929111111,0,0
Alice's Tea Cup Chapter II,Cafe,3.9,Good,105,$,40,3,Upper East Side,Upper East Side,New York City,10021,216,40.7652472222,-73.9659583333,0,0
Culture Espresso,Cafe,3.9,Good,54,$,15,1,Midtown,Midtown,New York City,10018,216,40.7522888889,-73.9857111111,0,0
Ristorante Saint Ambroeus,"Cafe, Italian",3.9,Good,76,$,100,4,Upper East Side,Upper East Side,New York City,10021,216,40.7753111111,-73.9625638889,0,0
Peacefood Café,"Cafe, Healthy Food",3.9,Good,65,$,50,3,Upper West Side,Upper West Side,New York City,10024,216,40.7852055556,-73.9769583333,0,0
Baked,"Desserts, Cafe",3.9,Good,75,$,15,1,Red Hook,Red Hook,New York City,11231,216,40.6769333333,-74.0134055556,0,0
Le Pain Quotidien,"Bakery, Sandwich",3.9,Good,65,$,50,3,"West 65th Street, Lincoln Square","West 65th Street, Lincoln Square, New York City",New York City,10023,216,40.7727666667,-73.9817583333,0,0
Martha's Country Bakery,"Bakery, Cafe, Desserts",3.9,Good,58,$,30,2,Astoria,Astoria,New York City,11105,216,40.7739361111,-73.9075916667,0,0
Le Petit Cafe,"Cafe, French, Juices",3.9,Good,42,$,30,2,Carroll Gardens,Carroll Gardens,New York City,11231,216,40.6766972222,-73.9985888889,0,0
Gorilla Coffee,Cafe,3.9,Good,63,$,20,2,"5th Avenue, Park Slope","5th Avenue, Park Slope, New York City",New York City,11217,216,40.6797250000,-73.9782250000,0,0
Think Coffee,Cafe,3.9,Good,49,$,25,2,"Mercer Street, Greenwich Village","Mercer Street, Greenwich Village, New York City",New York City,10012,216,40.7282710000,-73.9953260000,0,0
Fabianes Cafe & Pastry Shop,"Cafe, Desserts",3.9,Good,42,$,40,3,North Williamsburg - North Side,North Williamsburg - North Side,New York City,11211,216,40.7166833333,-73.9591222222,0,0
Artopolis Espresso,"Cafe, French",3.9,Good,36,$,30,2,Morningside Heights,Morningside Heights,New York City,10025,216,40.8052666667,-73.9622583333,0,0
The Cornelia Street Café,"Cafe, New American",3.8,Good,82,$,100,4,"Cornelia Street, West Village","Cornelia Street, West Village, New York City",New York City,10014,216,40.7313527778,-74.0023944444,0,0
Ninth Street Espresso,Cafe,3.8,Good,50,$,10,1,Chelsea,Chelsea,New York City,10011,216,40.7420510000,-74.0048210000,0,0
Dean & Deluca,"Cafe, Desserts",3.8,Good,74,$,30,2,Soho,Soho,New York City,10012,216,40.7242000000,-73.9981083333,0,0
Le Pain Quotidien,"Bakery, Sandwich",3.8,Good,70,$,50,3,Soho,Soho,New York City,10013,216,40.7212527778,-74.0017083333,0,0
Kaffe 1668,"Cafe, Sandwich",3.8,Good,41,$,35,2,"Greenwich Street, Financial District","Greenwich Street, Financial District, New York City",New York City,10007,216,40.7151390000,-74.0110870000,0,0
Birch Coffee,Cafe,3.8,Good,37,$,20,2,"East 27th Street, Gramercy-Flatiron","East 27th Street, Gramercy-Flatiron, New York City",New York City,10016,216,40.7435833333,-73.9866416667,0,0
Caffe Reggio,"Cafe, Italian",3.8,Good,58,$,40,3,Greenwich Village,Greenwich Village,New York City,10012,216,40.7303777778,-74.0003444444,0,0
Omonia Café,"European, Cafe",3.8,Good,50,$,40,3,Astoria,Astoria,New York City,11106,216,40.7612888889,-73.9240333333,0,0
Crepes on Columbus,"Cafe, Desserts",3.8,Good,34,$,40,3,Upper West Side,Upper West Side,New York City,10025,216,40.8010527778,-73.9617305556,0,0
Ristorante Sant Ambroeus,"Cafe, Italian",3.8,Good,50,$,200,4,Greenwich Village,Greenwich Village,New York City,10014,216,40.7354361111,-74.0032666667,0,0
B Cup Cafe,"Cafe, Sandwich",3.8,Good,39,$,25,2,East Village,East Village,New York City,10009,216,40.7287777778,-73.9786750000,0,0
Fort Defiance,"American, Cafe, Seafood",3.8,Good,42,$,40,3,Red Hook,Red Hook,New York City,11231,216,40.6767000000,-74.0135944444,0,0
The Bluebell Café,"American, Desserts, Cafe",3.8,Good,21,$,80,4,Gramercy,Gramercy,New York City,10010,216,40.7385222222,-73.9835277778,0,0
El Beit,"Cafe, Coffee and Tea",3.8,Good,30,$,25,2,North Williamsburg - North Side,North Williamsburg - North Side,New York City,11211,216,40.7185420000,-73.9569570000,0,0
Little Skips,"Cafe, Sandwich",3.8,Good,21,$,25,2,Bushwick,Bushwick,New York City,11221,216,40.6974861111,-73.9314277778,0,0
Il Caffe Latte,"American, Cafe",3.8,Good,20,$,35,2,Harlem,Harlem,New York City,10026,216,40.8043166667,-73.9483194444,0,0
Colador Café,"American, Cafe",3.8,Good,17,$,40,3,Bedford-Stuyvesant,Bedford-Stuyvesant,New York City,11205,216,40.6905888889,-73.9553750000,0,0
Aubergine Café,Cafe,3.8,Good,19,$,30,2,Sunnyside,Sunnyside,New York City,11377,216,40.7460722222,-73.9143833333,0,0
Roots Cafe,"Cafe, Sandwich",3.8,Good,17,$,25,2,"5th Avenue, South Slope","5th Avenue, South Slope, New York City",New York City,11215,216,40.6629416667,-73.9916916667,0,0
Champion Coffee,Cafe,3.8,Good,7,$,20,2,Williamsburg,Williamsburg,New York City,11222,216,40.7362861111,-73.9552388889,0,0
Nini's Café & PK's Lounge,Cafe,3.8,Good,1,$,25,2,"New Dorp Lane, New Dorp Beach","New Dorp Lane, New Dorp Beach, New York City",New York City,10306,216,40.5656060000,-74.1003380000,0,0
Cha-An,"Cafe, Japanese",3.6,Good,65,$,45,3,East Village,East Village,New York City,10003,216,40.7296611111,-73.9881222222,0,0
Le Pain Quotidien,"Bakery, Sandwich",3.7,Good,92,$,50,3,"Central Park South, Midtown","Central Park South, Midtown, New York City",New York City,10019,216,40.7663472222,-73.9796222222,0,0
Lafayette,"French, Mediterranean, Cafe",3.7,Good,81,$,120,4,East Village,East Village,New York City,10003,216,40.7275984000,-73.9935151000,0,0
Beecher's New York Cafe,Cafe,3.7,Good,49,$,25,2,Gramercy-Flatiron,Gramercy-Flatiron,New York City,10003,216,40.7391805556,-73.9897000000,0,0
Ceci-Cela Patisserie,"French, Cafe",3.7,Good,63,$,20,2,Lower East Side,Lower East Side,New York City,10012,216,40.7222555556,-73.9966361111,0,0
12 Chairs,Mediterranean,3.7,Good,47,$,60,4,Soho,Soho,New York City,10012,216,40.7276083333,-74.0024805556,0,0
Aroma Espresso Bar,Cafe,3.7,Good,45,$,15,1,Upper West Side,Upper West Side,New York City,10023,216,40.7786361111,-73.9805138889,0,0
Financier Patisserie,"French, Desserts, Cafe",3.7,Good,39,$,20,2,"Cedar Street, Lower Manhattan","Cedar Street, Lower Manhattan, New York City",New York City,10005,216,40.7069620000,-74.0077910000,0,0
Ground Support Cafe,Cafe,3.7,Good,36,$,15,1,Soho,Soho,New York City,10012,216,40.7242055556,-74.0019222222,0,0
Keko Cafe,Cafe,3.7,Good,38,$,20,2,Gramercy,Gramercy,New York City,10016,216,40.7454833333,-73.9848111111,0,0
Bacchus,French,3.7,Good,28,$,100,4,"Atlantic Avenue, Boerum Hill","Atlantic Avenue, Boerum Hill, New York City",New York City,11217,216,40.6868361111,-73.9843361111,0,0
Café Grumpy,Cafe,3.7,Good,30,$,25,2,Williamsburg,Williamsburg,New York City,11222,216,40.7285620000,-73.9487410000,0,0
Omonia Café,"Cafe, Greek, Desserts",3.7,Good,22,$,50,3,Bayridge,Bayridge,New York City,11209,216,40.6303666667,-74.0281305556,0,0
Sweetleaf,"Cafe, Bakery",3.7,Good,19,$,15,1,Hunters Point,Hunters Point,New York City,11101,216,40.7432555556,-73.9514472222,0,0
Boca Junior Restaurant,"Cafe, Latin American",3.7,Good,19,$,75,4,Elmhurst,Elmhurst,New York City,11373,216,40.7374700000,-73.8821400000,0,0
Oslo Coffee Roasters,Cafe,3.7,Good,19,$,25,2,North Williamsburg - North Side,North Williamsburg - North Side,New York City,11211,216,40.7147750000,-73.9567111111,0,0
San Antonio Bakery,"Latin American, Cafe, Desserts",3.7,Good,14,$,40,3,Astoria,Astoria,New York City,11103,216,40.7690972222,-73.9130861111,0,0
Cafe Noi,Cafe,3.7,Good,8,$,25,2,Upper East Side,Upper East Side,New York City,10075,216,40.7714277778,-73.9562750000,0,0
Djerdan Burek,"Eastern European, Cafe",3.7,Good,9,$,50,3,Astoria,Astoria,New York City,11106,216,40.7631527778,-73.9208611111,0,0
Café K,"Sandwich, Cafe",3.7,Good,4,$,50,3,Midwood,Midwood,New York City,11230,216,40.6223416667,-73.9643638889,0,0
Bouchon Bakery & Cafe,"Cafe, Bakery",3.6,Good,86,$,70,4,"Rockefeller Plaza, Gramercy","Rockefeller Plaza, Gramercy, New York City",New York City,10020,216,40.7580833333,-73.9789361111,0,0
Little Collins,"Cafe, Australian",3.6,Good,32,$,15,1,Midtown,Midtown,New York City,10022,216,40.7600861111,-73.9699083333,0,0
The Butcher's Daughter,"Cafe, Healthy Food",3.6,Good,38,$,100,4,"Elizabeth Street, Nolita","Elizabeth Street, Nolita, New York City",New York City,10012,216,40.7206722222,-73.9953166667,0,0
David Burke at Bloomingdale's,"Desserts, Cafe",3.6,Good,61,$,50,3,Upper East Side,Upper East Side,New York City,10022,216,40.7618916667,-73.9673833333,0,0
Rock Center Cafe,Cafe,3.6,Good,56,$,150,4,"Rockefeller Plaza, Gramercy","Rockefeller Plaza, Gramercy, New York City",New York City,10020,216,40.7590750000,-73.9786833333,0,0
Petrossian Boutique & Cafe,"French, Cafe, Desserts",3.6,Good,52,$,80,4,Midtown,Midtown,New York City,10019,216,40.7656361111,-73.9790638889,0,0
Caffe Roma Pastry,"Cafe, Desserts",3.6,Good,40,$,20,2,Little Italy,Little Italy,New York City,10013,216,40.7206083333,-73.9966361111,0,0
'wichcraft,"Sandwich, Cafe",3.6,Good,52,$,25,2,Gramercy-Flatiron,Gramercy-Flatiron,New York City,10003,216,40.7392972222,-73.9902805556,0,0
Four & Twenty Blackbirds,"Cafe, Bakery",3.6,Good,40,$,20,2,Gowanus,Gowanus,New York City,11215,216,40.6720611111,-73.9904722222,0,0
Zibetto Espresso Bar,Cafe,3.6,Good,31,$,25,2,Midtown,Midtown,New York City,10019,216,40.7636972222,-73.9774083333,0,0
Fluffy’s Cafe & Pizzeria,"Cafe, Pizza, American",3.6,Good,37,$,45,3,Midtown,Midtown,New York City,10019,216,40.7641944444,-73.9811333333,0,0
The Bedford,American,3.6,Good,22,$,80,4,Greenpoint,Greenpoint,New York City,11211,216,40.7199888889,-73.9552000000,0,0
Milk Bar Brooklyn,"Cafe, Coffee and Tea",3.6,Good,30,$,30,2,"Vanderbilt Avenue, Prospect Heights","Vanderbilt Avenue, Prospect Heights, New York City",New York City,11238,216,40.6777583333,-73.9689944444,0,0
Olive Tree Café & Bar,"Middle Eastern, Bar Food",3.6,Good,34,$,40,3,"West 3rd Street, Greenwich Village","West 3rd Street, Greenwich Village, New York City",New York City,10012,216,40.7302750000,-74.0004583333,0,0
Ninth Street Espresso,"Cafe, Coffee and Tea",3.6,Good,35,$,25,2,East Village,East Village,New York City,10009,216,40.7250640000,-73.9778090000,0,0
Le Pain Quotidien,"Bakery, Sandwich",3.6,Good,30,$,50,3,Midtown,Midtown,New York City,10022,216,40.7601666667,-73.9751666667,0,0
Café Glechik,"Cafe, Ukrainian, Eastern European",3.6,Good,30,$,60,4,Brighton Beach,Brighton Beach,New York City,11235,216,40.5790972222,-73.9596638889,0,0
Joe The Art Of Coffee,Cafe,3.6,Good,33,$,15,1,"Chelsea, Manhattan","Chelsea, Manhattan",New York City,10011,216,40.7466055556,-74.0017166667,0,0
Shake Shack,"American, Burger",4.9,Excellent,1606,$,30,2,Gramercy-Flatiron,Gramercy-Flatiron,New York City,10010,216,40.7408681000,-73.9879841000,0,0
Burger Joint,Burger,4.7,Excellent,852,$,25,2,Midtown,Midtown,New York City,10019,216,40.7641849000,-73.9784051000,0,0
Roll-n-Roaster,New American,4.6,Excellent,74,$,40,3,Sheepshead Bay,Sheepshead Bay,New York City,11235,216,40.5840250000,-73.9394388889,0,0
Nathan's Famous,American,4.5,Excellent,231,$,30,2,Gravesend,Gravesend,New York City,11224,216,40.5754500000,-73.9816805556,0,0
John's of Bleecker Street,Fast Food,4.4,Very Good,387,$,40,3,West Village,West Village,New York City,10014,216,40.7317500000,-74.0032583333,0,0
Gray's Papaya,American,4.4,Very Good,489,$,20,2,Upper West Side,Upper West Side,New York City,10023,216,40.7785805556,-73.9816277778,0,0
Crif Dogs,Fast Food,4.4,Very Good,307,$,30,2,East Village,East Village,New York City,10009,216,40.7269638889,-73.9839861111,0,0
Schnipper's Quality Kitchen,American,4.3,Very Good,124,$,30,2,"Chelsea, Manhattan","Chelsea, Manhattan",New York City,10018,216,40.7565388889,-73.9903027778,0,0
NY Pizza Suprema,"Pizza, Fast Food",4.3,Very Good,83,$,30,2,"Chelsea, Manhattan","Chelsea, Manhattan",New York City,10001,216,40.7500333333,-73.9948361111,0,0
V & S Pizza,"Pizza, Italian",4.3,Very Good,11,$,20,2,Sheepshead Bay,Sheepshead Bay,New York City,11235,216,40.5833050000,-73.9536690000,0,0
Joe's Pizza,Pizza,4.2,Very Good,203,$,40,3,West Village,West Village,New York City,10014,216,40.7305194444,-74.0019611111,0,0
Murray's Bagels,"Bagels, Fast Food, Coffee and Tea",4.1,Very Good,132,$,15,1,"Chelsea, Manhattan","Chelsea, Manhattan",New York City,10011,216,40.7449111111,-73.9989694444,0,0
Five Guys Burgers and Fries,"Burger, American, Fast Food",4.2,Very Good,110,$,30,2,Midtown,Midtown,New York City,10019,216,40.7624194444,-73.9768611111,0,0
Petey's Burger,"Burger, Fast Food",4.2,Very Good,52,$,25,2,Astoria,Astoria,New York City,11102,216,40.7670555556,-73.9218305556,0,0
Wafels & Dinges,"Desserts, Fast Food",4.1,Very Good,152,$,25,2,Financial District,Financial District,New York City,10013,216,40.7145500000,-74.0071240000,0,0
Michael & Sons Italian Food & Pizza,"American, Italian, Pizza",4.1,Very Good,7,$,20,2,Flushing,Flushing,New York City,11358,216,40.7520111111,-73.7882833333,0,0
Murray's Bagels,"Bagels, Fast Food, Coffee and Tea",4.0,Very Good,134,$,15,1,West Village,West Village,New York City,10011,216,40.7366722222,-73.9978861111,0,0
Joe Allen,Burger,4.0,Very Good,131,$,110,4,"Chelsea, Manhattan","Chelsea, Manhattan",New York City,10036,216,40.7601210000,-73.9887540000,0,0
John & Joe's Pizzeria,"Pizza, Italian",4.0,Very Good,47,$,25,2,Bronxdale,Bronxdale,New York City,10462,216,40.8544420000,-73.8659050000,0,0
Cachapas Y Mas,"Fast Food, Latin American, Venezuelan",4.0,Very Good,26,$,20,2,Inwood,Inwood,New York City,10040,216,40.8621000000,-73.9249638889,0,0
Joe & Pat's,"Italian, Pizza",4.0,Very Good,40,$,30,2,"Victory Boulevard, Castleton Corner","Victory Boulevard, Castleton Corner, New York City",New York City,10314,216,40.6130638889,-74.1221305556,0,0
Napoli Pizza & Pasta,Italian,4.0,Very Good,22,$,25,2,Astoria,Astoria,New York City,11106,216,40.7573083333,-73.9267888889,0,0
Sunnyside Fresh Taco,Mexican,4.0,Very Good,13,$,15,1,Sunnyside,Sunnyside,New York City,11104,216,40.7405888889,-73.9224166667,0,0
Shimon's Kosher Pizza,"Pizza, Fast Food",4.0,Very Good,8,$,25,2,Kew Gardens Hills,Kew Gardens Hills,New York City,11367,216,40.7272138889,-73.8222277778,0,0
Royal Kings Pizza,"Pizza, Fast Food",4.0,Very Good,3,$,20,2,Sunset Park,Sunset Park,New York City,11220,216,40.6436694444,-74.0118111111,0,0
Burrito Box,Tex-Mex,3.9,Good,54,$,30,2,Hell's Kitchen,Hell's Kitchen,New York City,10019,216,40.7681583333,-73.9854055556,0,0
Chirping Chicken,Fast Food,3.9,Good,47,$,30,2,Upper West Side,Upper West Side,New York City,10024,216,40.7818805556,-73.9793777778,0,0
Five Guys Burgers and Fries,"Burger, American, Fast Food",3.9,Good,45,$,30,2,Brooklyn Heights,Brooklyn Heights,New York City,11201,216,40.6948194444,-73.9937527778,0,0
New York Burger Co.,"Burger, Fast Food",3.8,Good,59,$,40,3,Gramercy-Flatiron,Gramercy-Flatiron,New York City,10010,216,40.7417444444,-73.9936361111,0,0
Vinnie's Pizzeria,Pizza,3.8,Good,53,$,25,2,North Williamsburg - North Side,North Williamsburg - North Side,New York City,11249,216,40.7188590000,-73.9567910000,0,0
Ben's Pizza,"Pizza, Fast Food",3.8,Good,46,$,20,2,Greenwich Village,Greenwich Village,New York City,10012,216,40.7249222222,-74.0026777778,0,0
Five Guys Burgers and Fries,"Burger, American, Fast Food",3.8,Good,48,$,30,2,Greenwich Village,Greenwich Village,New York City,10014,216,40.7323888889,-74.0036000000,0,0
Jollibee,Filipino,3.8,Good,25,$,20,2,Woodside,Woodside,New York City,11377,216,40.7459111111,-73.9011916667,0,0
Hanco's,"Vietnamese, Bubble Tea",3.8,Good,27,$,30,2,"7th Avenue, South Slope","7th Avenue, South Slope, New York City",New York City,11215,216,40.6662472222,-73.9821694444,0,0
Five Guys Burgers and Fries,"Burger, American, Fast Food",3.8,Good,22,$,30,2,"5th Avenue, Bayridge","5th Avenue, Bayridge, New York City",New York City,11209,216,40.6219222222,-74.0257944444,0,0
Seaport Buffet,"Chinese, Fast Food, Seafood",3.8,Good,8,$,75,4,Sheepshead Bay,Sheepshead Bay,New York City,11235,216,40.5838694444,-73.9471972222,0,0
Chirping Chicken,Fast Food,3.8,Good,10,$,30,2,Pelham Bay,Pelham Bay,New York City,10461,216,40.8473570000,-73.8310030000,0,0
MacBar,American,3.7,Good,69,$,45,3,Lower East Side,Lower East Side,New York City,10012,216,40.7234120000,-73.9961750000,0,0
Papaya King,American,3.7,Good,69,$,15,1,Upper East Side,Upper East Side,New York City,10028,216,40.7786527778,-73.9541694444,0,0
Irving Farm Coffee Roasters,"Fast Food, Coffee and Tea",3.7,Good,66,$,30,2,Gramercy,Gramercy,New York City,10003,216,40.7368388889,-73.9869833333,0,0
Cheeburger Cheeburger,"Burger, Fast Food",3.7,Good,43,$,40,3,Forest Hills,Forest Hills,New York City,11375,216,40.7204583333,-73.8425972222,0,0
Front Street Pizza,"Pizza, Fast Food",3.7,Good,21,$,20,2,DUMBO,DUMBO,New York City,11201,216,40.7023305556,-73.9895555556,0,0
Gino's Pizzeria,"Pizza, Fast Food",3.7,Good,7,$,75,4,"Forest Avenue, Westerleigh","Forest Avenue, Westerleigh, New York City",New York City,10302,216,40.6260810000,-74.1345330000,0,0
Maya Taqueria,Tex-Mex,3.7,Good,14,$,40,3,Prospect Heights,Prospect Heights,New York City,11238,216,40.6780861111,-73.9686361111,0,0
Planet Wings,American,3.7,Good,10,$,75,4,Great Kills,Great Kills,New York City,10308,216,40.5601060000,-74.1640580000,0,0
Tetaj Brothers,Pizza,3.7,Good,4,$,25,2,Longwood,Longwood,New York City,10459,216,40.8232680000,-73.8907450000,0,0
Haat Bazaar,Indian,3.6,Good,9,$,25,2,Jackson Heights,Jackson Heights,New York City,11372,216,40.7485510000,-73.8924800000,0,0
Comfort Diner,"American, Diner",3.6,Good,44,$,35,2,Turtle Bay,Turtle Bay,New York City,10017,216,40.7529111111,-73.9723750000,0,0
Best Pizza,Pizza,3.6,Good,29,$,45,3,North Williamsburg - North Side,North Williamsburg - North Side,New York City,11211,216,40.7158750000,-73.9538027778,0,0
Sacco Pizza,"Pizza, Fast Food",3.6,Good,37,$,25,2,Hell's Kitchen,Hell's Kitchen,New York City,10019,216,40.7661333333,-73.9871000000,0,0
Freddie and Pepper's,"Pizza, Italian",3.6,Good,32,$,20,2,Upper West Side,Upper West Side,New York City,10023,216,40.7800611111,-73.9807972222,0,0
Dos Toros Taqueria,Tex-Mex,3.6,Good,24,$,30,2,Upper East Side,Upper East Side,New York City,10075,216,40.7738722222,-73.9596416667,0,0
Piccolo Cafe,"Sandwich, Italian",3.6,Good,23,$,60,4,Gramercy,Gramercy,New York City,10003,216,40.7342194444,-73.9866777778,0,0
Steak 'n Shake,"American, Burger",3.6,Good,14,$,20,2,"Broadway, Theatre District","Broadway, Theatre District, New York City",New York City,10019,216,40.7635888889,-73.9823750000,0,0
Bed Stuy Fish Fry,"Fast Food, Seafood, Southern",3.6,Good,23,$,25,2,Bedford-Stuyvesant,Bedford-Stuyvesant,New York City,11233,216,40.6852900000,-73.9207730000,0,0
Happy Fresh Tortillas Grill,"Mexican, Tex-Mex",3.6,Good,11,$,30,2,Park Slope,Park Slope,New York City,11215,216,40.6678055556,-73.9807583333,0,0
Thai Tony's,Thai,3.6,Good,8,$,25,2,"Fort Hamilton Parkway, Kensington","Fort Hamilton Parkway, Kensington, New York City",New York City,11218,216,40.6483388889,-73.9788972222,0,0
Fratelli's Pizza Café,Italian,3.6,Good,6,$,30,2,Hunt's Point,Hunt's Point,New York City,10474,216,40.8098027778,-73.8806527778,0,0
Daro's Pizza & Fried Chicken,"Fast Food, Italian",3.6,Good,2,$,20,2,Flushing,Flushing,New York City,11355,216,40.7534138889,-73.8220361111,0,0
Famous Original Ray's Pizza,"Pizza, Fast Food",3.5,Good,49,$,25,2,Gramercy,Gramercy,New York City,10019,216,40.7603300000,-73.9840260000,0,0
Bravo Pizza,"Pizza, Fast Food",3.5,Good,29,$,25,2,Gramercy,Gramercy,New York City,10017,216,40.7533820000,-73.9807060000,0,0
Chipotle Mexican Grill,Tex-Mex,3.5,Good,40,$,30,2,Midtown,Midtown,New York City,10036,216,40.7538000000,-73.9816194444,0,0
Rosario Pizza,"Pizza, Fast Food",3.5,Good,38,$,25,2,Lower East Side,Lower East Side,New York City,10002,216,40.7215500000,-73.9885416667,0,0
Pie By the Pound,"Pizza, Fast Food",3.5,Good,29,$,30,2,East Village,East Village,New York City,10003,216,40.7330138889,-73.9899444444,0,0
Chipotle Mexican Grill,Tex-Mex,3.5,Good,27,$,30,2,Greenwich Village,Greenwich Village,New York City,10003,216,40.7310750000,-73.9934222222,0,0
Patacon Pisao #2,Latin American,3.5,Good,23,$,20,2,Elmhurst,Elmhurst,New York City,11373,216,40.7352833333,-73.8814000000,0,0
Famous Original Ray's Pizza,"Pizza, Fast Food",3.5,Good,17,$,25,2,Upper West Side,Upper West Side,New York City,10024,216,40.7840944444,-73.9738388889,0,0
Gino's Pizzeria,"Pizza, Fast Food",3.5,Good,13,$,75,4,Upper East Side,Upper East Side,New York City,10028,216,40.7754470000,-73.9520940000,0,0
Five Guys Burgers and Fries,"Burger, American, Fast Food",3.5,Good,13,$,30,2,Little Neck,Little Neck,New York City,11362,216,40.7650944444,-73.7256166667,0,0
Pizza Palace,Pizza,3.5,Good,9,$,10,1,Inwood,Inwood,New York City,10040,216,40.8624222222,-73.9251944444,0,0
Garden Tortilla & Chinese Express,"Chinese, Tex-Mex",3.5,Good,7,$,20,2,Dyker Heights,Dyker Heights,New York City,11228,216,40.6221916667,-74.0056083333,0,0
Gino's Pizzeria,"Pizza, Fast Food",3.5,Good,8,$,75,4,Bayside,Bayside,New York City,11364,216,40.7484720000,-73.7565240000,0,0
Los Papi's,Latin American,3.5,Good,4,$,30,2,Vinegar Hill,Vinegar Hill,New York City,11201,216,40.7021111111,-73.9846805556,0,0
Jimmy's Pizza Shop,Fast Food,3.5,Good,4,$,20,2,Bushwick,Bushwick,New York City,11207,216,40.6912694444,-73.9093083333,0,0
John's Pizzeria,"Pizza, Italian, Fast Food",3.5,Good,4,$,25,2,Briarwood,Briarwood,New York City,11432,216,40.7146305556,-73.8076472222,0,0
Gino's Pizzeria,"Pizza, Fast Food",3.5,Good,5,$,75,4,Elmhurst,Elmhurst,New York City,11373,216,40.7375330000,-73.8771010000,0,0
Russo's,Italian,3.5,Good,5,$,40,3,South Slope,South Slope,New York City,11215,216,40.6659444444,-73.9824361111,0,0
Papa John's Pizza,"Fast Food, Pizza",3.5,Good,4,$,25,2,Queens Village,Queens Village,New York City,11427,216,40.7188740000,-73.7575580000,0,0
Singas Famous Pizza,"Pizza, Fast Food",3.5,Good,3,$,30,2,Forest Hills,Forest Hills,New York City,11375,216,40.7335666667,-73.8498305556,0,0
Wendy's,Fast Food,3.5,Good,1,$,25,2,New Dorp Beach,New Dorp Beach,New York City,10306,216,40.5661720000,-74.1138010000,0,0
Shake Shack,"American, Burger",3.4,Average,20,$,30,2,DUMBO,DUMBO,New York City,11201,216,40.7030163000,-73.9942833000,0,0
Papaya Dog Enterprises 42 NY,Fast Food,3.4,Average,24,$,20,2,"Chelsea, Manhattan","Chelsea, Manhattan",New York City,10036,216,40.7582583333,-73.9925777778,0,0
Ho Yip Restaurant,"Chinese, Fast Food, Sushi",3.4,Average,14,$,40,3,Financial District,Financial District,New York City,10007,216,40.7099444444,-74.0119555556,0,0
Smashburger,"American, Burger, Healthy Food",3.4,Average,16,$,25,2,Fort Greene,Fort Greene,New York City,11201,216,40.6900833333,-73.9796833333,0,0
Gino's Villa Monte Pizzeria & Restaurant,"Italian, Pizza",3.4,Average,11,$,25,2,New Springville,New Springville,New York City,10314,216,40.5789530000,-74.1692810000,0,0
Fast & Fresh Burrito Deli,Tex-Mex,3.4,Average,4,$,20,2,Boerum Hill,Boerum Hill,New York City,11201,216,40.6879722222,-73.9869611111,0,0
Popeyes Louisiana Kitchen,"Fast Food, Southern",3.4,Average,7,$,25,2,"Union Turnpike, Jamaica Hills","Union Turnpike, Jamaica Hills, New York City",New York City,11366,216,40.7218777778,-73.8036722222,0,0
Papa John's Pizza,"Fast Food, Pizza",3.4,Average,7,$,25,2,Canarsie,Canarsie,New York City,11236,216,40.6353861111,-73.9188388889,0,0
Goody's BBQ,"BBQ, Caribbean",3.4,Average,6,$,30,2,Arverne,Arverne,New York City,11692,216,40.5926888889,-73.7998361111,0,0
Popeyes,"Fast Food, Southern",3.4,Average,6,$,25,2,Harlem,Harlem,New York City,10039,216,40.8229916667,-73.9420472222,0,0
Frank's Original Pizza,"Pizza, Italian",3.4,Average,5,$,25,2,Pelham Bay,Pelham Bay,New York City,10461,216,40.8435027778,-73.8358305556,0,0
Hing Wong Chinese Restaurant,Chinese,3.4,Average,2,$,25,2,Bedford-Stuyvesant,Bedford-Stuyvesant,New York City,11216,216,40.6809777778,-73.9546972222,0,0
Crif Dogs,American,3.3,Average,27,$,25,2,North Williamsburg - North Side,North Williamsburg - North Side,New York City,11211,216,40.7170055556,-73.9565055556,0,0
Famous Original Ray's Pizza,"Pizza, Fast Food",3.3,Average,33,$,25,2,Midtown,Midtown,New York City,10019,216,40.7641550000,-73.9822280000,0,0
New World Mall Food Court,"Asian, Chinese, Fast Food",3.3,Average,11,$,25,2,Flushing,Flushing,New York City,11354,216,40.7593570000,-73.8292220000,0,0
Irving Farm Coffee Roasters,"Fast Food, Coffee and Tea",3.3,Average,18,$,30,2,Upper West Side,Upper West Side,New York City,10024,216,40.7835194444,-73.9793555556,0,0
Halsey Street Grill,"Seafood, Southern",3.3,Average,12,$,25,2,Bedford-Stuyvesant,Bedford-Stuyvesant,New York City,11216,216,40.6824150000,-73.9432220000,0,0
Blossom Du Jour,American,3.3,Average,12,$,40,3,"Chelsea, Manhattan","Chelsea, Manhattan",New York City,10011,216,40.7450222222,-73.9977277778,0,0
Fresh Tortillas,Mexican,3.3,Average,9,$,25,2,Kew Gardens,Kew Gardens,New York City,11415,216,40.7070361111,-73.8344500000,0,0
Famous Original Ray's Pizza,"Pizza, Fast Food",3.3,Average,10,$,25,2,"2nd Avenue, Upper East Side","2nd Avenue, Upper East Side, New York City",New York City,10128,216,40.7834277778,-73.9478222222,0,0
The Door,"Caribbean, Soul Food",4.9,Excellent,90,$,35,2,Jamaica,Jamaica,New York City,11434,216,40.6799138889,-73.7774583333,0,0
Adrienne's Pizza Bar,"Italian, Pizza",4.6,Excellent,218,$,40,3,Lower Manhattan,Lower Manhattan,New York City,10004,216,40.7045250000,-74.0103611111,0,0
Joy Burger Bar,"Burger, American",4.6,Excellent,153,$,30,2,East Harlem,East Harlem,New York City,10029,216,40.7884750000,-73.9491111111,0,0
Becco,Italian,4.5,Excellent,601,$,110,4,"Chelsea, Manhattan","Chelsea, Manhattan",New York City,10036,216,40.7606600000,-73.9894300000,0,0
Fette Sau,"American, BBQ",4.5,Excellent,276,$,75,4,North Williamsburg - North Side,North Williamsburg - North Side,New York City,11211,216,40.7141680000,-73.9566570000,0,0
Chavela's,Mexican,4.5,Excellent,124,$,25,2,Crown Heights,Crown Heights,New York City,11238,216,40.6733972222,-73.9570777778,0,0
Press 195,"Sandwich, American, Bar Food",4.5,Excellent,52,$,60,4,Bayside,Bayside,New York City,11361,216,40.7638888889,-73.7710583333,0,0
Blue Smoke,"BBQ, American",4.4,Very Good,592,$,70,4,"East 26th Street, Gramercy-Flatiron","East 26th Street, Gramercy-Flatiron, New York City",New York City,10016,216,40.7422410000,-73.9838080000,0,0
Del Frisco's Double Eagle Steakhouse,"Steak, American",4.4,Very Good,326,$,220,4,Williamsburg,Williamsburg,New York City,10020,216,40.7348666667,-73.9584416667,0,0
Ayza Wine & Chocolate Bar,"Mediterranean, Desserts, Bar Food",4.3,Very Good,466,$,100,4,"West 31st Street, Gramercy","West 31st Street, Gramercy, New York City",New York City,10016,216,40.7470083333,-73.9870388889,0,0
Union Square Cafe,"American, Italian",4.3,Very Good,492,$,75,4,"East 16th Street, Gramercy-Flatiron","East 16th Street, Gramercy-Flatiron, New York City",New York City,10003,216,40.7369333333,-73.9913472222,0,0
Gotham Bar and Grill,American,4.3,Very Good,327,$,120,4,Greenwich Village,Greenwich Village,New York City,10003,216,40.7344027778,-73.9935916667,0,0
McSorley's Old Ale House,"Bar Food, Irish",4.3,Very Good,223,$,25,2,East Village,East Village,New York City,10003,216,40.7286250000,-73.9899361111,0,0
J.G. Melon,"American, Burger",4.3,Very Good,237,$,55,3,Upper East Side,Upper East Side,New York City,10021,216,40.7713138889,-73.9597944444,0,0
Ippudo Westside,"Ramen, Japanese, Asian",4.3,Very Good,115,$,70,4,Hell's Kitchen,Hell's Kitchen,New York City,10019,216,40.7634388889,-73.9866250000,0,0
Dell'Anima,Italian,4.3,Very Good,147,$,150,4,"8th Avenue, Greenwich Village","8th Avenue, Greenwich Village, New York City",New York City,10014,216,40.7382083333,-74.0042805556,0,0
Zum Stammtisch,"German, Bar Food",4.3,Very Good,66,$,60,4,Glendale,Glendale,New York City,11385,216,40.7019527778,-73.8810416667,0,0
Bayou,"American, Cajun",4.3,Very Good,50,$,150,4,"Bay Street, Rosebank","Bay Street, Rosebank, New York City",New York City,10305,216,40.6167550000,-74.0683270000,0,0
Skinflints,"Bar Food, American",4.3,Very Good,54,$,65,4,"5th Avenue, Bayridge","5th Avenue, Bayridge, New York City",New York City,11220,216,40.6264916667,-74.0239861111,0,0
Barosa,"Italian, Pizza",4.3,Very Good,26,$,65,4,Rego Park,Rego Park,New York City,11374,216,40.7261888889,-73.8699333333,0,0
Café Rubio,Spanish,4.3,Very Good,19,$,70,4,Astoria Heights,Astoria Heights,New York City,11368,216,40.7571805556,-73.8702861111,0,0
DBGB Kitchen & Bar,American,4.2,Very Good,360,$,70,4,"Bowery, East Village","Bowery, East Village, New York City",New York City,10003,216,40.7244500000,-73.9923472222,0,0
Blue Ribbon Brasserie,"European, Seafood",4.2,Very Good,458,$,120,4,"Sullivan Street, Greenwich Village","Sullivan Street, Greenwich Village, New York City",New York City,10012,216,40.7255250000,-74.0031444444,0,0
Bouchon Bakery & Cafe,"Cafe, French",4.2,Very Good,263,$,75,4,"Columbus Circle, Hell's Kitchen","Columbus Circle, Hell's Kitchen, New York City",New York City,10019,216,40.7684141000,-73.9827037000,0,0
Callé Ocho,"Cuban, Latin American",4.2,Very Good,248,$,80,4,Upper West Side,Upper West Side,New York City,10024,216,40.7828611111,-73.9738777778,0,0
Havana Central,Cuban,4.2,Very Good,196,$,80,4,Gramercy,Gramercy,New York City,10036,216,40.7589111111,-73.9847555556,0,0
Morandi,Italian,4.2,Very Good,192,$,100,4,West Village,West Village,New York City,10014,216,40.7352222222,-74.0017083333,0,0
Marseille,"French, Mediterranean",4.2,Very Good,156,$,150,4,Hell's Kitchen,Hell's Kitchen,New York City,10036,216,40.7597083333,-73.9915083333,0,0
L'Artusi,Italian,4.2,Very Good,145,$,120,4,Greenwich Village,Greenwich Village,New York City,10014,216,40.7337110000,-74.0051290000,0,0
Sake Bar Hagi,"Asian, Japanese",4.2,Very Good,137,$,75,4,"West 49th Street, Gramercy","West 49th Street, Gramercy, New York City",New York City,10019,216,40.7598750000,-73.9827740000,0,0
Barrio Chino,Mexican,4.2,Very Good,123,$,75,4,"Orchard Street, Alphabet City","Orchard Street, Alphabet City, New York City",New York City,10002,216,40.7180750000,-73.9899888889,0,0
The Farm on Adderley,American,4.2,Very Good,107,$,50,3,Flatbush,Flatbush,New York City,11218,216,40.6397861111,-73.9675444444,0,0
Superfine,"American, Seafood",4.2,Very Good,93,$,75,4,DUMBO,DUMBO,New York City,11201,216,40.7023450000,-73.9874450000,0,0
Donovan's Pub,"American, Burger, Bar Food",4.2,Very Good,53,$,35,2,Woodside,Woodside,New York City,11377,216,40.7453833333,-73.9067388889,0,0
Momo Hibachi Steak House & Bar,"Japanese, Steak, Sushi",4.2,Very Good,24,$,45,3,Sheepshead Bay,Sheepshead Bay,New York City,11235,216,40.5833100000,-73.9536290000,0,0
Tony's Pizzeria,"Italian, Pizza",4.2,Very Good,7,$,60,4,Corona,Corona,New York City,11368,216,40.7464311718,-73.8601584558,0,0
The Breslin,"British, Bar Food",4.1,Very Good,359,$,70,4,"West 30th Street, Gramercy","West 30th Street, Gramercy, New York City",New York City,10001,216,40.7460527778,-73.9877166667,0,0
Bar Americain,"American, European",4.1,Very Good,318,$,150,4,Gramercy,Gramercy,New York City,10019,216,40.7620194444,-73.9816277778,0,0
Red Rooster,Southern,4.1,Very Good,240,$,80,4,Harlem,Harlem,New York City,10027,216,40.8083611111,-73.9454638889,0,0
Rue 57,"American, Asian, European",4.1,Very Good,224,$,120,4,Midtown,Midtown,New York City,10019,216,40.7643444444,-73.9770500000,0,0
Rubirosa,"Italian, Pizza",4.1,Very Good,115,$,85,4,Lower East Side,Lower East Side,New York City,10012,216,40.7227240000,-73.9961490000,0,0
Good Enough To Eat,American,4.1,Very Good,158,$,60,4,Upper West Side,Upper West Side,New York City,10024,216,40.7858888889,-73.9726250000,0,0
Socarrat Paella Bar,"Spanish, Tapas",4.1,Very Good,169,$,100,4,"Chelsea, Manhattan","Chelsea, Manhattan",New York City,10011,216,40.7425888889,-73.9996861111,0,0
Cuba,Cuban,4.1,Very Good,127,$,70,4,Greenwich Village,Greenwich Village,New York City,10012,216,40.7291750000,-73.9990388889,0,0
Bohemian Hall and Beer Garden,"Bar Food, Eastern European",4.1,Very Good,120,$,40,3,Astoria,Astoria,New York City,11102,216,40.7727472222,-73.9158861111,0,0
Zum Schneider,"German, Bar Food",4.1,Very Good,100,$,50,3,East Village,East Village,New York City,10009,216,40.7266540000,-73.9849850000,0,0
The Good Fork,"American, Korean",4.1,Very Good,79,$,80,4,Red Hook,Red Hook,New York City,11231,216,40.6760666667,-74.0143972222,0,0
Cafe Steinhof,"European, German",4.1,Very Good,70,$,70,4,"7th Avenue, South Slope","7th Avenue, South Slope, New York City",New York City,11215,216,40.6639638889,-73.9840000000,0,0
Baby Bo's Cantina,Tex-Mex,4.1,Very Good,70,$,50,3,Murray Hill,Murray Hill,New York City,10016,216,40.7450722222,-73.9758527778,0,0
Mira Sushi,"Japanese, Sushi, Thai",4.1,Very Good,57,$,35,2,Kew Gardens Hills,Kew Gardens Hills,New York City,11367,216,40.7198027778,-73.8101500000,0,0
El Basurero,Colombian,4.1,Very Good,33,$,60,4,Astoria,Astoria,New York City,11103,216,40.7585444444,-73.9192805556,0,0
Highlands,Scottish,4.1,Very Good,40,$,75,4,"West 10th Street, West Village","West 10th Street, West Village, New York City",New York City,10014,216,40.7346722222,-74.0010916667,0,0
Basil Pizza and Wine Bar,"Italian, Pizza",4.1,Very Good,34,$,65,4,"Kingston Avenue, Crown Heights","Kingston Avenue, Crown Heights, New York City",New York City,11213,216,40.6703222222,-73.9422000000,0,0
Toby's Public House,Pizza,4.1,Very Good,38,$,60,4,Sunset Park,Sunset Park,New York City,11215,216,40.6601111111,-73.9912500000,0,0
Las Margaritas,"Colombian, Tex-Mex",4.1,Very Good,18,$,75,4,Jackson Heights,Jackson Heights,New York City,11372,216,40.7498027778,-73.8825694444,0,0
Stan's Sports Bar,American,4.1,Very Good,12,$,40,3,Concourse,Concourse,New York City,10451,216,40.8267944444,-73.9263611111,0,0
Dos Caminos,Mexican,4.0,Very Good,180,$,100,4,Greenwich Village,Greenwich Village,New York City,10012,216,40.7265800000,-73.9998100000,0,0
Ed's Lobster Bar,"American, Seafood",4.0,Very Good,144,$,90,4,Soho,Soho,New York City,10012,216,40.7219972222,-73.9973833333,0,0
Hundred Acres,American,4.0,Very Good,146,$,80,4,Greenwich Village,Greenwich Village,New York City,10012,216,40.7271416667,-74.0029000000,0,0
Nizza,Italian,4.0,Very Good,119,$,80,4,Hell's Kitchen,Hell's Kitchen,New York City,10036,216,40.7600750000,-73.9912805556,0,0
PDT (Please Don't Tell),Bar Food,4.0,Very Good,129,$,100,4,East Village,East Village,New York City,10009,216,40.7269027778,-73.9839027778,0,0
Fanelli's Cafe,"Bar Food, American",4.0,Very Good,101,$,55,3,"Prince Street, Soho","Prince Street, Soho, New York City",New York City,10012,216,40.7248472222,-73.9987416667,0,0
Blind Tiger,"American, Bar Food, Sandwich",4.0,Very Good,109,$,70,4,West Village,West Village,New York City,10014,216,40.7318611111,-74.0032416667,0,0
Dylan's Candy Bar,Desserts,4.0,Very Good,116,$,20,2,Upper East Side,Upper East Side,New York City,10021,216,40.7621527778,-73.9661555556,0,0
Landmarc,"French, Italian",4.0,Very Good,121,$,90,4,Tribeca,Tribeca,New York City,10013,216,40.7182277778,-74.0074388889,0,0
Bocca di Bacco,Italian,4.0,Very Good,108,$,70,4,Hell's Kitchen,Hell's Kitchen,New York City,10019,216,40.7662777778,-73.9871527778,0,0
Jacob's Pickles,"American, Southern",4.0,Very Good,85,$,80,4,Upper West Side,Upper West Side,New York City,10024,216,40.7867138889,-73.9758305556,0,0
Ginger Man,"American, Sandwich",4.0,Very Good,101,$,50,3,"Madison Avenue, Gramercy","Madison Avenue, Gramercy, New York City",New York City,10016,216,40.7491638889,-73.9829027778,0,0
Macondo,Latin American,4.0,Very Good,90,$,70,4,Lower East Side,Lower East Side,New York City,10002,216,40.7228777778,-73.9890055556,0,0
Spitzer's Corner,American,4.0,Very Good,101,$,60,4,Lower East Side,Lower East Side,New York City,10002,216,40.7201222222,-73.9884111111,0,0
Bar Tabac,French,4.0,Very Good,91,$,100,4,"Smith Street, Boerum Hill","Smith Street, Boerum Hill, New York City",New York City,11201,216,40.6873500000,-73.9900888889,0,0
Hillstone,American,4.0,Very Good,89,$,100,4,"Park Avenue South, Kips Bay","Park Avenue South, Kips Bay, New York City",New York City,10010,216,40.7426000000,-73.9848861111,0,0
Sinigual,Mexican,4.0,Very Good,65,$,100,4,Murray Hill,Murray Hill,New York City,10017,216,40.7499166667,-73.9742888889,0,0
Tortilla Flats,"Mexican, Tex-Mex",4.0,Very Good,78,$,60,4,West Village,West Village,New York City,10014,216,40.7375750000,-74.0081722222,0,0
Petite Abeille,"Belgian, European",4.0,Very Good,78,$,75,4,Gramercy,Gramercy,New York City,10010,216,40.7351222222,-73.9796611111,0,0
Lederhosen,"German, Bar Food",4.0,Very Good,73,$,60,4,Greenwich Village,Greenwich Village,New York City,10014,216,40.7327620000,-74.0044360000,0,0
Walker's,"American, Breakfast",4.0,Very Good,65,$,70,4,Financial District,Financial District,New York City,10013,216,40.7197750000,-74.0069194444,0,0
Knickerbocker Bar & Grill,"American, Steak",4.0,Very Good,62,$,100,4,Greenwich Village,Greenwich Village,New York City,10003,216,40.7322611111,-73.9943083333,0,0
Le Marais,"French, Steak",4.0,Very Good,50,$,60,4,Gramercy,Gramercy,New York City,10036,216,40.7592277778,-73.9847555556,0,0
Nurnberger Bierhaus,German,4.0,Very Good,45,$,75,4,Randall Manor,Randall Manor,New York City,10310,216,40.6348370000,-74.1095240000,0,0
MangoSeed,"Caribbean, Fusion",4.0,Very Good,42,$,80,4,Flatbush,Flatbush,New York City,11226,216,40.6543888889,-73.9597166667,0,0
Fatty's Café,"Caribbean, Latin American",4.0,Very Good,42,$,75,4,Astoria,Astoria,New York City,11103,216,40.7635000000,-73.9089340000,0,0
Sweet Afton,"American, Sandwich",4.0,Very Good,43,$,60,4,Astoria,Astoria,New York City,11103,216,40.7653500000,-73.9189830000,0,0
Lee's Tavern,"Pizza, Bar Food",4.0,Very Good,31,$,35,2,South Beach,South Beach,New York City,10305,216,40.5888260000,-74.0952540000,0,0
Sugar Freak,"Cajun, Creole, Southern",4.0,Very Good,36,$,70,4,Astoria,Astoria,New York City,11103,216,40.7647333333,-73.9168027778,0,0
Cebu,American,4.0,Very Good,40,$,80,4,Fort Hamilton,Fort Hamilton,New York City,11209,216,40.6218750000,-74.0315777778,0,0
Donovan's Grill & Tavern,"American, Burger, Bar Food",4.0,Very Good,36,$,60,4,Bayside,Bayside,New York City,11361,216,40.7637250000,-73.7703166667,0,0
Habitat,American,4.0,Very Good,28,$,55,3,Williamsburg,Williamsburg,New York City,11222,216,40.7328555556,-73.9546888889,0,0
Smoke BBQ Pit,"BBQ, American",4.0,Very Good,29,$,30,2,Jamaica,Jamaica,New York City,11434,216,40.6806972222,-73.7635888889,0,0
Sancho's Restaurant,"Seafood, Spanish, Tapas",4.0,Very Good,31,$,80,4,Bayridge,Bayridge,New York City,11220,216,40.6318888889,-74.0277250000,0,0
Quaint Restaurant & Bar,American,4.0,Very Good,32,$,60,4,Sunnyside,Sunnyside,New York City,11104,216,40.7465138889,-73.9175638889,0,0
Bocelli,Italian,4.0,Very Good,25,$,85,4,"Hylan Boulevard, Arrochar","Hylan Boulevard, Arrochar, New York City",New York City,10305,216,40.5975390000,-74.0841320000,0,0
The Copper Kettle Bar & Restaurant,"Irish, Bar Food",4.0,Very Good,20,$,50,3,Sunnyside,Sunnyside,New York City,11377,216,40.7460138889,-73.9134916667,0,0
The Proper Café,"American, International, Southern",4.0,Very Good,18,$,40,3,Cambria Heights,Cambria Heights,New York City,11411,216,40.6959370000,-73.7426720000,0,0
Il Poeta,"Italian, Seafood",4.0,Very Good,14,$,60,4,Forest Hills,Forest Hills,New York City,11375,216,40.7110138889,-73.8545527778,0,0
Sam's Restaurant Bar and Lounge,"American, Southern",4.0,Very Good,9,$,45,3,West Concourse,West Concourse,New York City,10451,216,40.8198250000,-73.9265527778,0,0
Brisa Del Cibao Restaurant,Dominican,4.0,Very Good,5,$,60,4,"103rd Street, Corona","103rd Street, Corona, New York City",New York City,11368,216,40.7511333333,-73.8632750000,0,0
Umami Burger,Burger,3.9,Good,133,$,50,3,West Village,West Village,New York City,10011,216,40.7345000000,-73.9989472222,0,0
Bill's Bar & Burger,"American, Burger",3.9,Good,116,$,110,4,Gramercy,Gramercy,New York City,10019,216,40.7598898000,-73.9784591000,0,0
Tao Downtown,"Asian, Chinese, Sushi, Dim Sum",3.9,Good,42,$,200,4,"Chelsea, Manhattan","Chelsea, Manhattan",New York City,10011,216,40.7423527778,-74.0042583333,0,0
The Door,"Caribbean, Soul Food",4.9,Excellent,90,$,35,2,Jamaica,Jamaica,New York City,11434,216,40.6799138889,-73.7774583333,0,0
Ippudo,Ramen,4.8,Excellent,898,$,40,3,East Village,East Village,New York City,10003,216,40.7307361111,-73.9906833333,0,0
Five Napkin Burger,"American, Burger, Sushi",4.8,Excellent,609,$,85,4,Hell's Kitchen,Hell's Kitchen,New York City,10036,216,40.7602666667,-73.9912111111,0,0
Max Brenner,"New American, Desserts",4.7,Excellent,652,$,70,4,Greenwich Village,Greenwich Village,New York City,10003,216,40.7344138889,-73.9914333333,0,0
Momofuku Noodle Bar,"Asian, Ramen",4.7,Excellent,1159,$,70,4,East Village,East Village,New York City,10003,216,40.7291416667,-73.9842388889,0,0
Pommes Frites,"European, Belgian",4.7,Excellent,701,$,35,2,Greenwich Village,Greenwich Village,New York City,10012,216,40.7300310000,-74.0001620000,0,0
Café Mogador,"Moroccan, Mediterranean",4.7,Excellent,405,$,75,4,East Village,East Village,New York City,10009,216,40.7272416667,-73.9845666667,0,0
L & B Spumoni Gardens,"Italian, Pizza",4.7,Excellent,296,$,75,4,Gravesend,Gravesend,New York City,11223,216,40.5944920000,-73.9812310000,0,0
Taverna Kyclades,"Greek, Seafood",4.7,Excellent,223,$,100,4,Astoria,Astoria,New York City,11105,216,40.7751694444,-73.9092555556,0,0
Il Bambino,"Italian, Sandwich",4.7,Excellent,135,$,50,3,Astoria,Astoria,New York City,11106,216,40.7629916667,-73.9207083333,0,0
Peaches,"American, Seafood, Southern",4.7,Excellent,92,$,45,3,Bedford-Stuyvesant,Bedford-Stuyvesant,New York City,11233,216,40.6817500000,-73.9348305556,0,0
John's Pizza of Times Square,"Italian, Pizza",4.6,Excellent,695,$,40,3,"West 44th Street, Gramercy","West 44th Street, Gramercy, New York City",New York City,10036,216,40.7584111111,-73.9882666667,0,0
Carmine's Italian Restaurant - Times Square,"Italian, Southern",4.6,Excellent,1005,$,100,4,"West 44th Street, Gramercy","West 44th Street, Gramercy, New York City",New York City,10036,216,40.7574980000,-73.9866540000,0,0
Caracas Arepa Bar,"Latin American, Venezuelan",4.6,Excellent,464,$,30,2,East Village,East Village,New York City,10009,216,40.7268750000,-73.9854138889,0,0
Dinosaur Bar-B-Que,"BBQ, Southern",4.6,Excellent,614,$,40,3,Morningside Heights,Morningside Heights,New York City,10027,216,40.8182972222,-73.9607083333,0,0
Café Habana,"Cuban, Mexican",4.6,Excellent,487,$,45,3,"Elizabeth Street, Lower East Side","Elizabeth Street, Lower East Side, New York City",New York City,10012,216,40.7229330000,-73.9941930000,0,0
Roberta's,"Pizza, Italian",4.6,Excellent,290,$,50,3,Williamsburg,Williamsburg,New York City,11206,216,40.7048930000,-73.9343520000,0,0
Amy Ruth's,"American, Soul Food",4.6,Excellent,320,$,40,3,"West 116th Street, Harlem","West 116th Street, Harlem, New York City",New York City,10026,216,40.8021777778,-73.9504861111,0,0
Egg,"American, Southern",4.6,Excellent,288,$,50,3,North Williamsburg - North Side,North Williamsburg - North Side,New York City,11249,216,40.7166722222,-73.9617777778,0,0
Denino's Pizzeria & Tavern,"Italian, Pizza",4.6,Excellent,157,$,50,3,"Port Richmond Avenue, Port Richmond","Port Richmond Avenue, Port Richmond, New York City",New York City,10302,216,40.6300166667,-74.1400666667,0,0
Pisticci,Italian,4.6,Excellent,118,$,75,4,Morningside Heights,Morningside Heights,New York City,10027,216,40.8140260000,-73.9599460000,0,0
Bakhter Halal Kabab,"Afghani, American, Pakistani",4.6,Excellent,28,$,25,2,Flushing,Flushing,New York City,11365,216,40.7332690000,-73.7947330000,0,0
Junior's,"American, Desserts",4.5,Excellent,502,$,45,3,Theater District,Theater District,New York City,10019,216,40.7582472222,-73.9864416667,0,0
The Spotted Pig,Burger,4.5,Excellent,1262,$,70,4,Greenwich Village,Greenwich Village,New York City,10014,216,40.7356916667,-74.0067222222,0,0
Balthazar,"French, Bakery",4.5,Excellent,1839,$,140,4,Soho,Soho,New York City,10012,216,40.7228083333,-73.9982222222,0,0
Becco,Italian,4.5,Excellent,601,$,110,4,"Chelsea, Manhattan","Chelsea, Manhattan",New York City,10036,216,40.7606600000,-73.9894300000,0,0
Sea Restaurant,"Asian, Thai",4.5,Excellent,607,$,50,3,North Williamsburg - North Side,North Williamsburg - North Side,New York City,11249,216,40.7182055556,-73.9598388889,0,0
The Meatball Shop,"American, Italian, Sandwich",4.5,Excellent,402,$,50,3,Lower East Side,Lower East Side,New York City,10002,216,40.7216138889,-73.9888083333,0,0
Fette Sau,"American, BBQ",4.5,Excellent,276,$,75,4,North Williamsburg - North Side,North Williamsburg - North Side,New York City,11211,216,40.7141680000,-73.9566570000,0,0
Sanford's Restaurant,New American,4.5,Excellent,122,$,150,4,Astoria,Astoria,New York City,11106,216,40.7621944444,-73.9257583333,0,0
Bareburger,Burger,4.5,Excellent,154,$,30,2,Astoria,Astoria,New York City,11106,216,40.7632666667,-73.9212111111,0,0
Joya,"Asian, Thai",4.5,Excellent,168,$,30,2,Cobble Hill,Cobble Hill,New York City,11201,216,40.6867027778,-73.9939027778,0,0
Song,Thai,4.5,Excellent,162,$,45,3,"5th Avenue, Park Slope","5th Avenue, Park Slope, New York City",New York City,11215,216,40.6735638889,-73.9826277778,0,0
Lucali,Pizza,4.5,Excellent,139,$,40,3,Carroll Gardens,Carroll Gardens,New York City,11231,216,40.6818388889,-74.0004888889,0,0
Chavela's,Mexican,4.5,Excellent,124,$,25,2,Crown Heights,Crown Heights,New York City,11238,216,40.6733972222,-73.9570777778,0,0
Malecón Restaurant,"Dominican, Latin American",4.5,Excellent,99,$,80,4,Washington Heights,Washington Heights,New York City,10033,216,40.8463472222,-73.9385000000,0,0
Fisheye Bar & Grill,"Caribbean, Seafood",4.5,Excellent,85,$,75,4,East Flatbush,East Flatbush,New York City,11234,216,40.6398630000,-73.9203390000,0,0
Giano,Italian,4.5,Excellent,94,$,55,3,East Village,East Village,New York City,10009,216,40.7263055556,-73.9840166667,0,0
Vesta Trattoria & Winebar,"Italian, Pizza",4.5,Excellent,81,$,80,4,Astoria,Astoria,New York City,11102,216,40.7699388889,-73.9276500000,0,0
Avli,"Greek, Mediterranean",4.5,Excellent,57,$,50,3,Bayside,Bayside,New York City,11361,216,40.7657361111,-73.7719027778,0,0
Veranda Restaurant & Café,"American, Greek, Mediterranean",4.5,Excellent,47,$,150,4,Bayside,Bayside,New York City,11361,216,40.7589520000,-73.7753900000,0,0
Press 195,"Sandwich, American, Bar Food",4.5,Excellent,52,$,60,4,Bayside,Bayside,New York City,11361,216,40.7638888889,-73.7710583333,0,0
Liberato Restaurant,"Spanish, Latin American",4.5,Excellent,28,$,40,3,University Heights,University Heights,New York City,10453,216,40.8585750000,-73.9040666667,0,0
Joe's Shanghai,Chinese,4.4,Very Good,561,$,30,2,"Pell Street, Lower East Side","Pell Street, Lower East Side, New York City",New York City,10013,216,40.7147472222,-73.9976722222,0,0
Momofuku Ssäm Bar,"Asian, Fusion",4.4,Very Good,631,$,50,3,East Village,East Village,New York City,10003,216,40.7316666667,-73.9856555556,0,0
Veselka,Ukrainian,4.4,Very Good,682,$,40,3,East Village,East Village,New York City,10003,216,40.7287300000,-73.9870800000,0,0
Blue Smoke,"BBQ, American",4.4,Very Good,592,$,70,4,"East 26th Street, Gramercy-Flatiron","East 26th Street, Gramercy-Flatiron, New York City",New York City,10016,216,40.7422410000,-73.9838080000,0,0
Ferrara Bakery & Cafe,"Italian, Desserts",4.4,Very Good,309,$,25,2,Lower East Side,Lower East Side,New York City,10013,216,40.7192833333,-73.9970472222,0,0
Corner Bistro,"Burger, Bar Food",4.4,Very Good,437,$,25,2,Greenwich Village,Greenwich Village,New York City,10014,216,40.7380055556,-74.0038000000,0,0
Locanda Verde,Italian,4.4,Very Good,376,$,100,4,Tribeca,Tribeca,New York City,10013,216,40.7197680000,-74.0100580000,0,0
Sripraphai,"Asian, Thai",4.4,Very Good,277,$,45,3,Woodside,Woodside,New York City,11377,216,40.7463750000,-73.8992777778,0,0
Luke's Lobster,Seafood,4.4,Very Good,249,$,50,3,East Village,East Village,New York City,10009,216,40.7268333333,-73.9853527778,0,0
Negril Village,"Caribbean, Latin American, Southern",4.4,Very Good,229,$,150,4,Greenwich Village,Greenwich Village,New York City,10012,216,40.7294220000,-73.9984120000,0,0
ilili Restaurant,"Lebanese, Mediterranean",4.4,Very Good,186,$,65,4,Gramercy-Flatiron,Gramercy-Flatiron,New York City,10001,216,40.7441555556,-73.9875638889,0,0
Red Bamboo,"Asian, Vegetarian",4.4,Very Good,176,$,40,3,Greenwich Village,Greenwich Village,New York City,10012,216,40.7312710000,-74.0004660000,0,0
Bogotá Latin Bistro,"Latin American, Colombian",4.4,Very Good,188,$,60,4,"5th Avenue, Park Slope","5th Avenue, Park Slope, New York City",New York City,11217,216,40.6782138889,-73.9792333333,0,0
Juliana's Pizza,"Pizza, Italian",4.5,Excellent,78,$,50,3,"Old Fulton Street, DUMBO","Old Fulton Street, DUMBO, New York City",New York City,11201,216,40.7027055556,-73.9935222222,0,0
La Bonne Soupe,French,4.4,Very Good,173,$,60,4,Midtown,Midtown,New York City,10019,216,40.7627361111,-73.9771500000,0,0
Frankies 457 Spuntino,Italian,4.4,Very Good,172,$,80,4,Carroll Gardens,Carroll Gardens,New York City,11231,216,40.6774638889,-73.9983222222,0,0
Pierre Loti,"Mediterranean, Tapas",4.4,Very Good,70,$,50,3,Turtle Bay,Turtle Bay,New York City,10022,216,40.7560833333,-73.9672611111,0,0
Cafe Orlin,"American, Middle Eastern",4.4,Very Good,144,$,55,3,East Village,East Village,New York City,10003,216,40.7284777778,-73.9871833333,0,0
Pio Pio 2,"Peruvian, Latin American",4.4,Very Good,130,$,70,4,Jackson Heights,Jackson Heights,New York City,11372,216,40.7555805556,-73.8832083333,0,0
Cabana,"Cuban, Latin American",4.4,Very Good,123,$,60,4,Forest Hills,Forest Hills,New York City,11375,216,40.7209027778,-73.8456333333,0,0
Saraghina,"Italian, Pizza, Bakery",4.3,Very Good,74,$,50,3,Bedford-Stuyvesant,Bedford-Stuyvesant,New York City,11233,216,40.6837666667,-73.9354638889,0,0
Watawa Sushi,"Japanese, Sushi",4.4,Very Good,96,$,45,3,Astoria,Astoria,New York City,11105,216,40.7751694444,-73.9092722222,0,0
Footprints Café,"Caribbean, Southern",4.4,Very Good,69,$,75,4,Gravesend,Gravesend,New York City,11224,216,40.5756060000,-73.9826050000,0,0
Amorina Cucina Rustica,"Italian, Pizza",4.4,Very Good,59,$,40,3,Prospect Heights,Prospect Heights,New York City,11238,216,40.6775555556,-73.9689722222,0,0
Kismat Indian Restaurant,Indian,4.4,Very Good,51,$,45,3,Washington Heights,Washington Heights,New York City,10040,216,40.8554111111,-73.9368138889,0,0
Don Peppe,Italian,4.4,Very Good,45,$,60,4,South Richmond Hill,South Richmond Hill,New York City,11420,216,40.6689275000,-73.8215571000,0,0
El Nuevo Bohio Restaurant,"Caribbean, Latin American, Spanish, Puerto Rican",4.4,Very Good,33,$,30,2,"East Tremont Avenue, Tremont","East Tremont Avenue, Tremont, New York City",New York City,10460,216,40.8438805556,-73.8878944444,0,0
Pine Restaurant of Queens,"American, Italian",4.4,Very Good,33,$,40,3,Corona,Corona,New York City,11368,216,40.7547305556,-73.8537361111,0,0
Polonica Restaurant,"Eastern European, Polish",4.4,Very Good,33,$,45,3,Bayridge,Bayridge,New York City,11209,216,40.6255460000,-74.0302600000,0,0
China New Star Restaurant,Chinese,4.4,Very Good,32,$,0,1,Marine Park,Marine Park,New York City,11234,216,40.6159166667,-73.9296722222,0,0
Tropical Grill & Restaurant,"Caribbean, Spanish",4.4,Very Good,17,$,30,2,Harlem,Harlem,New York City,10027,216,40.8104638889,-73.9471194444,0,0
Punto Rojo,"Bakery, Colombian, Seafood, Juices",4.4,Very Good,11,$,40,3,Jamaica,Jamaica,New York City,11435,216,40.7059027778,-73.8090527778,0,0
Serendipity 3,"American, Desserts",4.3,Very Good,939,$,75,4,Upper East Side,Upper East Side,New York City,10022,216,40.7618990000,-73.9648580000,0,0
Rosa Mexicano,Mexican,4.3,Very Good,426,$,80,4,"Columbus Avenue, Lincoln Square","Columbus Avenue, Lincoln Square, New York City",New York City,10023,216,40.7713777778,-73.9835888889,0,0
Virgil's Real BBQ -Times Square,"BBQ, American, Southern",4.3,Very Good,487,$,50,3,Gramercy,Gramercy,New York City,10036,216,40.7570500000,-73.9847805556,0,0
La Esquina,Mexican,4.3,Very Good,434,$,70,4,Soho,Soho,New York City,10012,216,40.7215000000,-73.9978250000,0,0
Cafeteria,American,4.3,Very Good,620,$,75,4,"Chelsea, Manhattan","Chelsea, Manhattan",New York City,10011,216,40.7405916667,-73.9980861111,0,0
Clinton Street Baking Company,"American, Bakery, Desserts",4.3,Very Good,366,$,70,4,Lower East Side,Lower East Side,New York City,10002,216,40.7212305556,-73.9840694444,0,0
Ayza Wine & Chocolate Bar,"Mediterranean, Desserts, Bar Food",4.3,Very Good,466,$,100,4,"West 31st Street, Gramercy","West 31st Street, Gramercy, New York City",New York City,10016,216,40.7470083333,-73.9870388889,0,0
Union Square Cafe,"American, Italian",4.3,Very Good,492,$,75,4,"East 16th Street, Gramercy-Flatiron","East 16th Street, Gramercy-Flatiron, New York City",New York City,10003,216,40.7369333333,-73.9913472222,0,0
Hill Country Barbecue Market,"BBQ, Southern",4.3,Very Good,375,$,70,4,Gramercy-Flatiron,Gramercy-Flatiron,New York City,10010,216,40.7443111111,-73.9904027778,0,0
Sarabeth's,American,4.3,Very Good,310,$,90,4,Upper West Side,Upper West Side,New York City,10024,216,40.7838861111,-73.9777444444,0,0
Boqueria,"Spanish, Tapas",4.3,Very Good,351,$,75,4,Gramercy-Flatiron,Gramercy-Flatiron,New York City,10011,216,40.7402297000,-73.9937565000,0,0
Trattoria Trecolori,Italian,4.3,Very Good,212,$,60,4,"West 47th Street, Gramercy","West 47th Street, Gramercy, New York City",New York City,10036,216,40.7603000000,-73.9866333333,0,0
The Little Owl,Mediterranean,4.3,Very Good,303,$,100,4,Greenwich Village,Greenwich Village,New York City,10014,216,40.7324777778,-74.0053027778,0,0
Alta,"Mediterranean, Spanish",4.3,Very Good,225,$,75,4,Greenwich Village,Greenwich Village,New York City,10011,216,40.7341630000,-73.9976020000,0,0
Pio Pio 6,"Latin American, Peruvian",4.3,Very Good,250,$,80,4,Upper West Side,Upper West Side,New York City,10025,216,40.7928194444,-73.9714277778,0,0
J.G. Melon,"American, Burger",4.3,Very Good,237,$,55,3,Upper East Side,Upper East Side,New York City,10021,216,40.7713138889,-73.9597944444,0,0
The Red Cat,"American, Mediterranean",4.3,Very Good,242,$,100,4,"Chelsea, Manhattan","Chelsea, Manhattan",New York City,10011,216,40.7479888889,-74.0036166667,0,0
Buttermilk Channel,American,4.3,Very Good,180,$,90,4,Carroll Gardens,Carroll Gardens,New York City,11231,216,40.6759694444,-73.9990694444,0,0
Aquagrill,"American, Seafood",4.3,Very Good,198,$,90,4,Greenwich Village,Greenwich Village,New York City,10012,216,40.7253694444,-74.0037000000,0,0
A Salt & Battery,"British, Seafood",4.3,Very Good,216,$,25,2,"Greenwich Avenue, Meat Packing District","Greenwich Avenue, Meat Packing District, New York City",New York City,10011,216,40.7379880000,-74.0019610000,0,0
Supper,Italian,4.3,Very Good,219,$,50,3,"East 2nd Street, East Village","East 2nd Street, East Village, New York City",New York City,10009,216,40.7227583333,-73.9852833333,0,0
Wo Hop,Chinese,4.3,Very Good,214,$,25,2,Lower East Side,Lower East Side,New York City,10013,216,40.7141833333,-73.9988111111,0,0
Kefi,Greek,4.3,Very Good,185,$,50,3,Upper West Side,Upper West Side,New York City,10024,216,40.7853916667,-73.9729611111,0,0
2nd Ave Deli,"Sandwich, Deli, American",4.3,Very Good,201,$,70,4,Kips Bay,Kips Bay,New York City,10016,216,40.7454690000,-73.9796000000,0,0
Empanada Mama,Latin American,4.3,Very Good,178,$,30,2,Hell's Kitchen,Hell's Kitchen,New York City,10019,216,40.7643305556,-73.9884861111,0,0
Katz's Delicatessen,Sandwich,4.9,Excellent,2432,$,30,2,Lower East Side,Lower East Side,New York City,10002,216,40.7223277778,-73.9873500000,0,0
Russ & Daughters,"Seafood, Bagels",4.6,Excellent,240,$,25,2,Lower East Side,Lower East Side,New York City,10002,216,40.7227361111,-73.9882361111,0,0
"Sal, Kris & Charlie's Deli","Sandwich, Deli",4.4,Very Good,69,$,15,1,Astoria,Astoria,New York City,11105,216,40.7732777778,-73.9115305556,0,0
Cherry Valley Deli & Grill,"Deli, Sandwich",4.4,Very Good,55,$,20,2,Whitestone,Whitestone,New York City,11357,216,40.7898611111,-73.8141944444,0,0
2nd Ave Deli,"Sandwich, Deli, American",4.3,Very Good,201,$,70,4,Kips Bay,Kips Bay,New York City,10016,216,40.7454690000,-73.9796000000,0,0
Zabar's Café,"Sandwich, Bakery",4.1,Very Good,114,$,15,1,Upper West Side,Upper West Side,New York City,10024,216,40.7847700000,-73.9794580000,0,0
Barney Greengrass,"American, Seafood, Deli",4.0,Very Good,117,$,50,3,Upper West Side,Upper West Side,New York City,10024,216,40.7878120000,-73.9749100000,0,0
Mile End Delicatessen,"Jewish, Deli, Sandwich",4.0,Very Good,111,$,25,2,Boerum Hill,Boerum Hill,New York City,11217,216,40.6875305556,-73.9871361111,0,0
Ben's Best Kosher Delicatessen,"Sandwich, Deli",4.0,Very Good,50,$,75,4,Rego Park,Rego Park,New York City,11374,216,40.7294305556,-73.8612833333,0,0
Marie's Gourmet,"Deli, Italian, Sandwich",4.0,Very Good,37,$,25,2,Silver Lake,Silver Lake,New York City,10301,216,40.6208820000,-74.0984220000,0,0
Tony's Beechhurst Deli,Italian,3.9,Good,12,$,25,2,Whitestone,Whitestone,New York City,11357,216,40.7917722222,-73.8074333333,0,0
Sparks Deli,"Sandwich, American, Deli",3.9,Good,6,$,20,2,Hunters Point,Hunters Point,New York City,11101,216,40.7387110000,-73.9409080000,0,0
Alsalam Restaurant & Meat Market,"Sandwich, Middle Eastern, Deli",3.8,Good,7,$,30,2,"5th Avenue, Bayridge","5th Avenue, Bayridge, New York City",New York City,11220,216,40.6314722222,-74.0218888889,0,0
Ann Clair's Salumeria,"Sandwich, Italian, Deli",3.8,Good,6,$,20,2,Van Nest,Van Nest,New York City,10461,216,40.8500666667,-73.8518222222,0,0
W53rd Gourmet Deli,Sandwich,3.7,Good,24,$,35,2,Midtown,Midtown,New York City,10019,216,40.7625305556,-73.9803777778,0,0
Montague Street Bagels,"Bagels, Deli",3.7,Good,20,$,20,2,Brooklyn Heights,Brooklyn Heights,New York City,11201,216,40.6951305556,-73.9950555556,0,0
Sonny's Heros,Sandwich,3.7,Good,5,$,15,1,Canarsie,Canarsie,New York City,11236,216,40.6439340000,-73.9076660000,0,0
Vincent's Deli,"Pizza, Sandwich",3.7,Good,6,$,30,2,Randall Manor,Randall Manor,New York City,10310,216,40.6381090000,-74.1084430000,0,0
Casa Della Mozzarella Deli,"Sandwich, Deli",3.7,Good,5,$,25,2,Belmont,Belmont,New York City,10458,216,40.8554490000,-73.8874070000,0,0
Gottliebs Restaurant,Jewish,3.7,Good,3,$,25,2,"Roebling Street, South Williamsburg","Roebling Street, South Williamsburg, New York City",New York City,11211,216,40.7077111111,-73.9611888889,0,0
L & M Delicatessen,"Deli, Sandwich",3.6,Good,13,$,20,2,Greenwich Village,Greenwich Village,New York City,10011,216,40.7394300000,-73.9992410000,0,0
H&H Midtown Bagels East,"Bagels, Sandwich",3.6,Good,44,$,10,1,Upper East Side,Upper East Side,New York City,10028,216,40.7744972222,-73.9542305556,0,0
Faicco's,Sandwich,3.6,Good,32,$,25,2,West Village,West Village,New York City,10014,216,40.7310920000,-74.0031816000,0,0
Mill Basin Kosher Deli,"Sandwich, Eastern European",3.6,Good,26,$,45,3,Flatlands,Flatlands,New York City,11234,216,40.6156583333,-73.9180750000,0,0
Cafe 28,"Deli, Sandwich",3.6,Good,11,$,20,2,Gramercy-Flatiron,Gramercy-Flatiron,New York City,10016,216,40.7445722222,-73.9874583333,0,0
Lassen & Hennigs,"Sandwich, Desserts, Bakery",3.6,Good,16,$,20,2,Brooklyn Heights,Brooklyn Heights,New York City,11201,216,40.6950694444,-73.9947666667,0,0
Jay & Lloyd's Kosher Delicatessen,"Sandwich, Deli",3.6,Good,12,$,40,3,"Avenue U, Sheepshead Bay","Avenue U, Sheepshead Bay, New York City",New York City,11229,216,40.6001638889,-73.9441750000,0,0
Bagel Express,"Bagels, Deli",3.6,Good,14,$,15,1,Upper East Side,Upper East Side,New York City,10128,216,40.7641055556,-73.9621500000,0,0
Baker's Dozen Bagels,"Bagels, Deli",3.6,Good,11,$,25,2,"Lefferts Boulevard, Kew Gardens","Lefferts Boulevard, Kew Gardens, New York City",New York City,11415,216,40.7090388889,-73.8300388889,0,0
Hana Food,"Sandwich, Deli",3.6,Good,11,$,0,1,Williamsburg,Williamsburg,New York City,11211,216,40.7139630000,-73.9509030000,0,0
Al Humza,Pakistani,3.6,Good,5,$,25,2,"Richmond Road, Grymes Hill","Richmond Road, Grymes Hill, New York City",New York City,10304,216,40.6114530000,-74.0886760000,0,0
Wilkens Fine Foods,Deli,3.6,Good,2,$,15,1,Bergen Beach,Bergen Beach,New York City,11234,216,40.6200250000,-73.9069444444,0,0
Sarge's Deli & Restaurant,"Jewish, Deli",3.5,Good,47,$,80,4,Murray Hill,Murray Hill,New York City,10016,216,40.7476583333,-73.9767305556,0,0
Rupert Jee's Hello Deli,"Deli, Sandwich",3.5,Good,28,$,30,2,"Broadway, Theatre District","Broadway, Theatre District, New York City",New York City,10019,216,40.7636060000,-73.9829070000,0,0
Al's Deli,"Sandwich, Deli",3.5,Good,11,$,30,2,Gramercy,Gramercy,New York City,10001,216,40.7515130000,-73.9902500000,0,0
Bagel Bobs on York,"Bagels, Cafe",3.5,Good,16,$,15,1,Upper East Side,Upper East Side,New York City,10028,216,40.7762972222,-73.9473027778,0,0
Bagels & Buns,Deli,3.5,Good,9,$,15,1,Graniteville,Graniteville,New York City,10314,216,40.6104140000,-74.1462340000,0,0
Durso's Pasta & Ravioli,"Italian, Deli",3.5,Good,16,$,75,4,Flushing,Flushing,New York City,11358,216,40.7632300000,-73.7931400000,0,0
Tino's Delicatessen,"Italian, Pizza, Sandwich, Deli",3.5,Good,13,$,25,2,Belmont,Belmont,New York City,10458,216,40.8557780000,-73.8871940000,0,0
Bagels And Bake,"Deli, Bagels, Cafe",3.5,Good,10,$,20,2,Bayside,Bayside,New York City,11361,216,40.7623416667,-73.7704611111,0,0
Strokos,"American, Pizza, Sandwich",3.5,Good,14,$,10,1,Morningside Heights,Morningside Heights,New York City,10025,216,40.8053694444,-73.9621805556,0,0
La Bagel Delight,"Bagels, Sandwich",3.5,Good,7,$,20,2,DUMBO,DUMBO,New York City,11201,216,40.7024638889,-73.9886250000,0,0
Café 45,"Deli, Sandwich",3.5,Good,11,$,20,2,"5th Ave   6a, Midtown","5th Ave   6a, Midtown, New York City",New York City,10036,216,40.7556388889,-73.9799888889,0,0
Neofytos Pizza/ Gourmet Deli,"Sandwich, Pizza",3.5,Good,6,$,30,2,Upper East Side,Upper East Side,New York City,10028,216,40.7790861111,-73.9598916667,0,0
Parisian Deli,Sandwich,3.5,Good,3,$,25,2,Upper West Side,Upper West Side,New York City,10024,216,40.7853120000,-73.9728220000,0,0
Don Pepi Deli,"Sandwich, Deli",3.5,Good,4,$,40,3,"Chelsea, Manhattan","Chelsea, Manhattan",New York City,10121,216,40.7492780000,-73.9920780000,0,0
Mini Deli,"Sandwich, Italian",3.5,Good,3,$,25,2,Upper East Side,Upper East Side,New York City,10065,216,40.7653250000,-73.9611138889,0,0
Scaglione Brothers Bakery & Deli,"Italian, Deli, Bakery",3.5,Good,2,$,20,2,Van Nest,Van Nest,New York City,10461,216,40.8493833333,-73.8537000000,0,0
Blue Moon Deli,Deli,3.5,Good,2,$,20,2,Upper East Side,Upper East Side,New York City,10128,216,40.7805610000,-73.9469280000,0,0
Gourmet on J,Deli,3.5,Good,0,$,20,2,Midwood,Midwood,New York City,11230,216,40.6251638889,-73.9619055556,0,0
Pastrami Queen,Sandwich,3.4,Average,28,$,40,3,Upper East Side,Upper East Side,New York City,10075,216,40.7744166667,-73.9592138889,0,0
Stage Door Deli,Deli,3.4,Average,21,$,75,4,"Chelsea, Manhattan","Chelsea, Manhattan",New York City,10001,216,40.7511722222,-73.9981388889,0,0
Punjabi Grocery & Deli,"Indian, Deli",3.4,Average,19,$,20,2,East Village,East Village,New York City,10009,216,40.7230570000,-73.9875720000,0,0
Tal Bagels,Bagels,3.4,Average,17,$,30,2,Upper West Side,Upper West Side,New York City,10024,216,40.7911444444,-73.9742972222,0,0
Kalustyan's,"Mediterranean, Asian, Indian",3.4,Average,17,$,25,2,Kips Bay,Kips Bay,New York City,10016,216,40.7428660000,-73.9822860000,0,0
Green Symphony,Healthy Food,3.4,Average,12,$,30,2,Gramercy,Gramercy,New York City,10036,216,40.7574111111,-73.9885722222,0,0
Reyes Deli & Grocery,"Mexican, Sandwich, Deli",3.4,Average,7,$,25,2,Gowanus,Gowanus,New York City,11215,216,40.6672140000,-73.9915990000,0,0
NYU Bagels & Café,"Bagels, Sandwich",3.4,Average,8,$,15,1,Kips Bay,Kips Bay,New York City,10016,216,40.7435240000,-73.9737070000,0,0
A & S Greek Deli and Butcher,"Mediterranean, Greek, Desserts",3.4,Average,4,$,25,2,"5th Avenue, Bayridge","5th Avenue, Bayridge, New York City",New York City,11209,216,40.6263540000,-74.0241110000,0,0
Andrew & Frank's Deli,American,3.4,Average,6,$,25,2,Astoria,Astoria,New York City,11105,216,40.7754861111,-73.9145055556,0,0
Bingo Deli,"Sandwich, Deli, Salvadorean",3.4,Average,5,$,25,2,"Pearl Street, Lower Manhattan","Pearl Street, Lower Manhattan, New York City",New York City,10004,216,40.7038694444,-74.0102083333,0,0
Buon Appetit Deli,"Sandwich, Deli",3.4,Average,3,$,25,2,Astoria,Astoria,New York City,11105,216,40.7741690000,-73.9081380000,0,0
The Pantry Deli And Cafe,Sandwich,3.4,Average,1,$,20,2,"Chelsea, Manhattan","Chelsea, Manhattan",New York City,10011,216,40.7465333333,-74.0017916667,0,0
Blue & Gold Deli,"American, Middle Eastern, Sandwich",3.4,Average,3,$,15,1,Midtown,Midtown,New York City,10022,216,40.7593930000,-73.9623380000,0,0
G & R Deli Corporation,Sandwich,3.4,Average,3,$,15,1,Van Nest,Van Nest,New York City,10461,216,40.8529610000,-73.8532090000,0,0
New Riverdale Deli,"Deli, Sandwich, Salad",3.4,Average,0,$,20,2,Fildston,Fildston,New York City,10463,216,40.8871440000,-73.9049330000,0,0
Majestic Delicatessen Cafe,Deli,3.3,Average,23,$,25,2,Gramercy,Gramercy,New York City,10019,216,40.7611388889,-73.9835972222,0,0
Tribeca Bagels,Deli,3.3,Average,13,$,30,2,"Canal Street, Tribeca","Canal Street, Tribeca, New York City",New York City,10013,216,40.7209750000,-74.0043638889,0,0
Mendy's Deli & Restaurant,"Deli, American, Sandwich",3.3,Average,12,$,65,4,"East 34th Street, Gramercy","East 34th Street, Gramercy, New York City",New York City,10016,216,40.7474530000,-73.9822150000,0,0
David's Bagels,"Bagels, Deli",3.3,Average,12,$,15,1,Gramercy,Gramercy,New York City,10003,216,40.7324972222,-73.9818638889,0,0
Bagel Town,"Sandwich, Bagels",3.3,Average,7,$,20,2,"20th Avenue, Bensonhurst","20th Avenue, Bensonhurst, New York City",New York City,11204,216,40.6106820000,-73.9917380000,0,0
Tasty Deli,"Sandwich, Deli",3.3,Average,8,$,20,2,Washington Heights,Washington Heights,New York City,10032,216,40.8417972222,-73.9391638889,0,0
Brooklyn Heights Deli,"Sandwich, Deli",3.3,Average,5,$,20,2,Brooklyn Heights,Brooklyn Heights,New York City,11201,216,40.6913555556,-73.9959333333,0,0
La Bagel Delight,Bagels,3.3,Average,6,$,45,3,Brooklyn Heights,Brooklyn Heights,New York City,11201,216,40.6911611111,-73.9916694444,0,0
Simon's Deli,Deli,3.3,Average,5,$,20,2,"Arthur Avenue, Belmont","Arthur Avenue, Belmont, New York City",New York City,10458,216,40.8574222222,-73.8860694444,0,0
Farmer in the Deli,Deli,3.3,Average,5,$,25,2,Fort Greene,Fort Greene,New York City,11205,216,40.6932760000,-73.9717390000,0,0
Olive Tree Deli,"Deli, Middle Eastern, Sandwich",3.3,Average,4,$,20,2,Morningside Heights,Morningside Heights,New York City,10027,216,40.8112430000,-73.9612490000,0,0
