name,cuisines,aggregate_rating,rating_text,votes,currency,average_cost_for_two,price_range,locality,locality_verbose,city,zipcode,country_id,latitude,longitude,has_online_delivery,has_table_booking
Elisabeth,"Desserts, Coffee and Tea",4.3,Very Good,79,NZ$,30,2,Kingsland,"Kingsland, Auckland",Auckland,,148,-36.8722327752,174.7449808940,0,0
Giorgia Gelato & Coffee,"Desserts, Coffee and Tea, Ice Cream",4.0,Very Good,48,NZ$,20,1,Onehunga,"Onehunga, Auckland",Auckland,,148,-36.9232364948,174.7854607925,0,0
Espresso Workshop,Coffee and Tea,3.8,Good,79,NZ$,30,2,Britomart,"Britomart, Auckland",Auckland,,148,-36.8449960177,174.7709352896,0,0
Eden Espresso Bar,Coffee and Tea,3.8,Good,81,NZ$,20,1,Mt Eden,"Mt Eden, Auckland",Auckland,1024,148,-36.8708184765,174.7613239288,0,0
Eighthirty,Coffee and Tea,3.8,Good,25,NZ$,20,1,High Street,"High Street, Auckland",Auckland,1010,148,-36.8478521063,174.7667590901,0,0
Camper Coffee,Coffee and Tea,3.8,Good,37,NZ$,10,1,Newmarket,"Newmarket, Auckland",Auckland,1023,148,-36.8680646361,174.7767684236,0,0
Coffix,Coffee and Tea,3.8,Good,25,NZ$,10,1,Newmarket,"Newmarket, Auckland",Auckland,1023,148,-36.8676786560,174.7774547339,0,0
Anastasis Coffee Roasters,Coffee and Tea,3.7,Good,26,NZ$,10,1,Te Atatu South,"Te Atatu South, Auckland",Auckland,,148,-36.8765929847,174.6469595656,0,0
Altezano Espresso,Coffee and Tea,3.6,Good,31,NZ$,35,2,Newmarket,"Newmarket, Auckland",Auckland,1023,148,-36.8683237433,174.7770651430,0,0
Caffetteria Allpress,Cafe Food,3.6,Good,27,NZ$,30,2,Wellesley Street West,"Wellesley Street West, Auckland",Auckland,1010,148,-36.8490092681,174.7555528209,0,0
Deluxe Coffee Bar,Coffee and Tea,3.6,Good,22,NZ$,15,1,Mt Roskill,"Mt Roskill, Auckland",Auckland,,148,-36.9137402803,174.7521427274,0,0
Espresso Workshop,Coffee and Tea,3.6,Good,18,NZ$,30,2,Parnell,"Parnell, Auckland",Auckland,,148,-36.8541498808,174.7790949047,0,0
Weta Coffee,European,3.5,Good,21,NZ$,20,1,One Tree Hill,"One Tree Hill, Auckland",Auckland,1051,148,-36.9096130108,174.7991447523,0,0
Eighthirty,Coffee and Tea,3.4,Average,11,NZ$,30,2,"Ponsonby Central, Ponsonby","Ponsonby Central, Ponsonby, Auckland",Auckland,,148,-36.8563049130,174.7462002933,0,0
Coffee General,Coffee and Tea,3.4,Average,20,NZ$,25,1,Birkenhead,"Birkenhead, Auckland",Auckland,0626,148,-36.8170876681,174.7321780399,0,0
Allpress Coffee,Coffee and Tea,3.4,Average,11,NZ$,30,2,Ponsonby,"Ponsonby, Auckland",Auckland,,148,-36.8507088931,174.7443260998,0,0
Planet Espresso,Cafe Food,3.4,Average,11,NZ$,15,1,Grafton,"Grafton, Auckland",Auckland,1010,148,-36.8612875719,174.7689846531,0,0
Wild Bean Cafe,Coffee and Tea,3.4,Average,9,NZ$,30,2,Newmarket,"Newmarket, Auckland",Auckland,1023,148,-36.8673154735,174.7749176994,0,0
NOTE Coffee & Eats,"Healthy Food, Cafe Food",3.3,Average,11,NZ$,25,1,Epsom,"Epsom, Auckland",Auckland,,148,-36.8822898212,174.7843047604,0,0
Coffix,Coffee and Tea,3.3,Average,8,NZ$,15,1,"Glenfield Mall, Glenfield","Glenfield Mall, Glenfield, Auckland",Auckland,0169,148,-36.7820805719,174.7217908502,0,0
Eighthirty,Coffee and Tea,3.3,Average,12,NZ$,20,1,Karangahape Road,"Karangahape Road, Auckland",Auckland,1010,148,-36.8594849030,174.7534097359,0,0
Eighthirty,Coffee and Tea,3.2,Average,5,NZ$,20,1,Anzac Avenue,"Anzac Avenue, Auckland",Auckland,,148,-36.8467501973,174.7718837857,0,0
Wednesday Espresso Bar,Coffee and Tea,3.2,Average,8,NZ$,25,1,Wellesley Street West,"Wellesley Street West, Auckland",Auckland,,148,-36.8509339866,174.7634509206,0,0
Coffix,Coffee and Tea,3.2,Average,14,NZ$,10,1,"Lim-chour Food Court, Auckland CBD, Auckland","Lim-chour Food Court, Auckland CBD, Auckland, Auckland",Auckland,1010,148,-36.8583965748,174.7600173578,0,0
MoinMoin,Coffee and Tea,3.2,Average,7,NZ$,20,1,Durham Street West,"Durham Street West, Auckland",Auckland,,148,-36.8479001317,174.7651038319,0,0
Meebz Coffee Roasters,Coffee and Tea,3.2,Average,5,NZ$,10,1,Milford,"Milford, Auckland",Auckland,,148,-36.7729618618,174.7667500377,0,0
The Tasting Room,Coffee and Tea,3.2,Average,7,NZ$,10,1,Sandringham,"Sandringham, Auckland",Auckland,,148,-36.8797589893,174.7403229028,0,0
The Meus Cafe & Eatery,"Coffee and Tea, Cafe Food",3.1,Average,7,NZ$,40,2,Kumeu,"Kumeu, Auckland",Auckland,,148,-36.7734110000,174.5510740000,0,0
Coffix - Howick,Coffee and Tea,3.1,Average,8,NZ$,15,1,Howick,"Howick, Auckland",Auckland,2014,148,-36.8956908099,174.9326285720,0,0
Daily Daily,Coffee and Tea,3.1,Average,5,NZ$,15,1,Karangahape Road,"Karangahape Road, Auckland",Auckland,,148,-36.8580526631,174.7548815981,0,0
Miller's Coffee,Coffee and Tea,3.1,Average,8,NZ$,25,1,Karangahape Road,"Karangahape Road, Auckland",Auckland,1010,148,-36.8585135366,174.7608364373,0,0
Devo Coffee,Coffee and Tea,3.1,Average,7,NZ$,15,1,Devonport,"Devonport, Auckland",Auckland,0624,148,-36.8310767944,174.7964806482,0,0
Take Off Espresso,Coffee and Tea,3.1,Average,9,NZ$,25,1,Auckland Airport,"Auckland Airport, Auckland",Auckland,2154,148,-37.0064904346,174.7904580832,0,0
St Heliers Home Cookery,"Bakery, Coffee and Tea",3.1,Average,10,NZ$,25,1,St Heliers,"St Heliers, Auckland",Auckland,,148,-36.8515647278,174.8577775061,0,0
Receptionist Coffee,"Coffee and Tea, Juices",3.1,Average,4,NZ$,20,1,Lorne Street,"Lorne Street, Auckland",Auckland,,148,-36.8503090000,174.7657110000,0,0
Coffee & Durum,"Turkish, European, Cafe Food",3.0,Average,8,NZ$,45,3,Grey Lynn,"Grey Lynn, Auckland",Auckland,1021,148,-36.8590028429,174.7314699367,0,0
Cargo Coffee Shop,Coffee and Tea,3.0,Average,6,NZ$,15,1,Fort Street,"Fort Street, Auckland",Auckland,,148,-36.8459750685,174.7673726454,0,0
McCafe,Coffee and Tea,3.0,Average,9,NZ$,20,1,Glenfield,"Glenfield, Auckland",Auckland,,148,-36.7823243958,174.7213040292,0,0
Fresh Pots by Flight Coffee,Coffee and Tea,3.0,Average,4,NZ$,15,1,Queen Street,"Queen Street, Auckland",Auckland,1010,148,-36.8471113312,174.7656684369,0,0
Chiasso Coffee Roasters,Coffee and Tea,3.0,Average,8,NZ$,10,1,Devonport,"Devonport, Auckland",Auckland,0624,148,-36.8313749386,174.7964766249,0,0
Altezano Espresso,Coffee and Tea,3.0,Average,4,NZ$,25,1,Queen Street,"Queen Street, Auckland",Auckland,1010,148,-36.8464073064,174.7664841637,0,0
Cigana,Coffee and Tea,3.0,Average,4,NZ$,20,1,St Johns,"St Johns, Auckland",Auckland,1072,148,-36.8705714477,174.8460207135,0,0
Coco Mexico,Coffee and Tea,3.0,Average,4,NZ$,10,1,"Glenfield Mall, Glenfield","Glenfield Mall, Glenfield, Auckland",Auckland,,148,-36.7820816460,174.7215752676,0,0
McCafe,Coffee and Tea,3.0,Average,4,NZ$,20,1,Queen Street,"Queen Street, Auckland",Auckland,,148,-36.8504709210,174.7650327534,0,0
Customs Coffee House,Coffee and Tea,2.9,Average,23,NZ$,20,1,"Queens Arcade, Auckland CBD","Queens Arcade, Auckland CBD, Auckland",Auckland,,148,-36.8444744246,174.7665596008,0,0
The Coffee Stop,Coffee and Tea,2.9,Average,4,NZ$,25,1,Grey Lynn,"Grey Lynn, Auckland",Auckland,1021,148,-36.8660523681,174.7434869036,0,0
The Rocket Store,Coffee and Tea,2.9,Average,4,NZ$,20,1,Ponsonby,"Ponsonby, Auckland",Auckland,,148,-36.8532484675,174.7453144938,0,0
Long White Cafe,Coffee and Tea,2.9,Average,4,NZ$,30,2,Auckland Airport,"Auckland Airport, Auckland",Auckland,,148,-37.0049846468,174.7828204930,0,0
Muffin Break,"Coffee and Tea, Bakery",2.8,Average,9,NZ$,25,1,"Lynn Mall, New Lynn","Lynn Mall, New Lynn, Auckland",Auckland,,148,-36.9077090000,174.6851940000,0,0
Cigana,Coffee and Tea,2.8,Average,6,NZ$,25,1,St Heliers,"St Heliers, Auckland",Auckland,,148,-36.8596788529,174.8609106615,0,0
Alice & George,Coffee and Tea,2.8,Average,5,NZ$,30,2,Auckland Airport,"Auckland Airport, Auckland",Auckland,2154,148,-37.0063455868,174.7902539000,0,0
48 Espresso,"Cafe Food, Coffee and Tea",2.8,Average,1,NZ$,30,2,Shortland Street,"Shortland Street, Auckland",Auckland,1010,148,-36.8468886411,174.7685806453,0,0
Atomic,"Cafe Food, Coffee and Tea",0,Not rated,3,NZ$,40,2,Shortland Street,"Shortland Street, Auckland",Auckland,1010,148,-36.8471191119,174.7689528018,0,0
Moo Cafe,Coffee and Tea,0,Not rated,1,NZ$,15,1,Hobsonville,"Hobsonville, Auckland",Auckland,,148,-36.8103879561,174.6331200376,0,0
Santini,Coffee and Tea,0,Not rated,3,NZ$,15,1,Devonport,"Devonport, Auckland",Auckland,0624,148,-36.8306903591,174.7976856306,0,0
Coral Tea,Coffee and Tea,0,Not rated,0,NZ$,15,1,Queen Street,"Queen Street, Auckland",Auckland,1010,148,-36.8538534351,174.7634988651,0,0
Little Albert Coffee,Coffee and Tea,0,Not rated,3,NZ$,15,1,Albert Street,"Albert Street, Auckland",Auckland,,148,-36.8480530000,174.7634940000,0,0
Too Good,"Coffee and Tea, Desserts",0,Not rated,3,NZ$,20,1,Ponsonby,"Ponsonby, Auckland",Auckland,,148,-36.8565128209,174.7427878529,0,0
Ferry Cafe,Coffee and Tea,0,Not rated,2,NZ$,30,2,Quay Street West,"Quay Street West, Auckland",Auckland,1010,148,-36.8432627264,174.7673753277,0,0
Myers Kitchen,Coffee and Tea,0,Not rated,1,NZ$,15,1,Pitt Street,"Pitt Street, Auckland",Auckland,,148,-36.8541882443,174.7618483007,0,0
Altezano Brothers,Coffee and Tea,0,Not rated,3,NZ$,25,1,Fort Street,"Fort Street, Auckland",Auckland,,148,-36.8462414948,174.7671842203,0,0
The Paper Cup,"Coffee and Tea, Ice Cream",0,Not rated,2,NZ$,20,1,Waimauku,"Waimauku, Auckland",Auckland,0064,148,-36.7657110000,174.4930140000,0,0
ActiveZone Cafe,Coffee and Tea,0,Not rated,3,NZ$,25,1,Glenfield,"Glenfield, Auckland",Auckland,,148,-36.7836176160,174.7240442410,0,0
Wild Bean Cafe,Coffee and Tea,0,Not rated,2,NZ$,30,2,Henderson,"Henderson, Auckland",Auckland,,148,-36.8856484009,174.6449311450,0,0
Brewed Awakening,Coffee and Tea,0,Not rated,2,NZ$,20,1,Te Atatu Peninsula,"Te Atatu Peninsula, Auckland",Auckland,,148,-36.8420324951,174.6535608172,0,0
Anastasis Coffee Roasters,Coffee and Tea,0,Not rated,0,NZ$,15,1,Pt Chevalier,"Pt Chevalier, Auckland",Auckland,,148,-36.8647715381,174.7058716044,0,0
Lola's,Coffee and Tea,0,Not rated,1,NZ$,15,1,Devonport,"Devonport, Auckland",Auckland,0622,148,-36.8133561941,174.7926729173,0,0
The Shortland Street Kiosk,Cafe Food,0,Not rated,1,NZ$,30,2,Shortland Street,"Shortland Street, Auckland",Auckland,1010,148,-36.8471416492,174.7682235763,0,0
Island Coffee,Cafe Food,0,Not rated,1,NZ$,20,1,Waiheke Island,"Waiheke Island, Auckland",Auckland,,148,-36.7960519315,175.0464005023,0,0
Elemento,"Coffee and Tea, Cafe Food",0,Not rated,0,NZ$,20,1,Newmarket,"Newmarket, Auckland",Auckland,,148,-36.8701876260,174.7779093683,0,0
Bean n Gone,Coffee and Tea,0,Not rated,2,NZ$,20,1,Sunnynook,"Sunnynook, Auckland",Auckland,,148,-36.7475149902,174.7396868840,0,0
Utopia Coffee ,Coffee and Tea,0,Not rated,1,NZ$,15,1,Hobson Street,"Hobson Street, Auckland",Auckland,,148,-36.8449420878,174.7631749883,0,0
The Annex,Coffee and Tea,0,Not rated,0,NZ$,25,1,Waiheke Island,"Waiheke Island, Auckland",Auckland,,148,-36.7973110000,175.0445980000,0,0
Coffix,Coffee and Tea,0,Not rated,1,NZ$,10,1,Birkenhead,"Birkenhead, Auckland",Auckland,,148,-36.8122006403,174.7260719910,0,0
Roma Coffee Roasters,"Bakery, Coffee and Tea, Cafe Food",0,Not rated,1,NZ$,25,1,Drury,"Drury, Auckland",Auckland,,148,-37.1047294062,174.9514342099,0,0
Hepbrun Road Lunch Bar & Takeaway,European,0,Not rated,1,NZ$,20,1,Glendene,"Glendene, Auckland",Auckland,,148,-36.8880849146,174.6597064287,0,0
InCafe,Coffee and Tea,0,Not rated,1,NZ$,10,1,Freemans Bay,"Freemans Bay, Auckland",Auckland,1010,148,-36.8498353415,174.7547877207,0,0
The Daily Grind,Coffee and Tea,0,Not rated,1,NZ$,10,1,Warkworth,"Warkworth, Auckland",Auckland,,148,-36.3974524833,174.6656086296,0,0
Hotshot Espresso,Coffee and Tea,0,Not rated,1,NZ$,25,1,Waiheke Island,"Waiheke Island, Auckland",Auckland,,148,-36.7958317777,175.0459565967,0,0
Wild Bean Cafe,Coffee and Tea,0,Not rated,1,NZ$,30,2,Takapuna,"Takapuna, Auckland",Auckland,0622,148,-36.7982617581,174.7834813222,0,0
The Coffee Guy,Coffee and Tea,0,Not rated,1,NZ$,10,1,Howick,"Howick, Auckland",Auckland,,148,-36.9586750000,174.9163140000,0,0
The Coffee Guy,Coffee and Tea,0,Not rated,1,NZ$,10,1,Forrest Hill,"Forrest Hill, Auckland",Auckland,,148,-36.7586851803,174.7553576902,0,0
ITi Espresso Bar,Coffee and Tea,0,Not rated,0,NZ$,15,1,Onehunga,"Onehunga, Auckland",Auckland,,148,-36.9160354345,174.7841931135,0,0
Sticky Cafe,"Coffee and Tea, Cafe Food",0,Not rated,0,NZ$,20,1,Henderson,"Henderson, Auckland",Auckland,,148,-36.8580086680,174.6285307780,0,0
N's Sweet's,Cafe Food,0,Not rated,0,NZ$,20,1,Glen Innes,"Glen Innes, Auckland",Auckland,,148,-36.8704440438,174.8658506200,0,0
Aunty Cafe,Coffee and Tea,0,Not rated,0,NZ$,10,1,Glenfield,"Glenfield, Auckland",Auckland,,148,-36.7718586058,174.7055061534,0,0
The Coffee Guy,Coffee and Tea,0,Not rated,0,NZ$,10,1,Sandringham,"Sandringham, Auckland",Auckland,,148,-36.8883104343,174.7374686971,0,0
Cafe M&S,Coffee and Tea,0,Not rated,0,NZ$,0,1,Queen Street,"Queen Street, Auckland",Auckland,,148,-36.8543704035,174.7644329444,0,0
The Coffee Guy,Coffee and Tea,0,Not rated,0,NZ$,10,1,East Tamaki,"East Tamaki, Auckland",Auckland,,148,-36.9329580000,174.8957820000,0,0
The Coffee Guy,Coffee and Tea,0,Not rated,0,NZ$,10,1,Hillcrest,"Hillcrest, Auckland",Auckland,,148,-36.7818300340,174.7384014353,0,0
The Coffee Guy,Coffee and Tea,0,Not rated,0,NZ$,10,1,Manukau,"Manukau, Auckland",Auckland,,148,-36.9893440000,174.9150340000,0,0
The Tinman,Coffee and Tea,0,Not rated,0,NZ$,10,1,Orakei,"Orakei, Auckland",Auckland,,148,-36.8564052454,174.8146931827,0,0
The Coffee Guy,Coffee and Tea,0,Not rated,0,NZ$,10,1,Pukekohe,"Pukekohe, Auckland",Auckland,,148,-37.1558774594,174.8923706263,0,0
Dairy Beanz Coffee Roasters,Coffee and Tea,0,Not rated,0,NZ$,0,1,Pukekohe,"Pukekohe, Auckland",Auckland,,148,-37.2007907130,174.9060884491,0,0
The Coffee Guy,Coffee and Tea,0,Not rated,0,NZ$,10,1,Remuera,"Remuera, Auckland",Auckland,,148,-36.8652149357,174.7920285165,0,0
The Coffee Guy,Coffee and Tea,0,Not rated,0,NZ$,10,1,Rothesay Bay,"Rothesay Bay, Auckland",Auckland,,148,-36.7307184992,174.7333632410,0,0
The Coffee Guy,Coffee and Tea,0,Not rated,0,NZ$,10,1,Penrose,"Penrose, Auckland",Auckland,,148,-36.9078390000,174.8293270000,0,0
Espresso Alley,Coffee and Tea,0,Not rated,0,NZ$,0,1,Milford,"Milford, Auckland",Auckland,,148,-36.7818517849,174.7574266791,0,0
Slam,Coffee and Tea,0,Not rated,0,NZ$,10,1,Waiheke Island,"Waiheke Island, Auckland",Auckland,,148,-36.7849556570,175.0187660381,0,0
Streetwise Coffee Pukekohe,"Coffee and Tea, Finger Food",0,Not rated,0,NZ$,0,1,Pukekohe,"Pukekohe, Auckland",Auckland,,148,-37.2074179177,174.9093292281,0,0
Best Ugly Bagels,"American, Deli",4.6,Excellent,311,NZ$,30,2,"City Works Depot, Auckland CBD","City Works Depot, Auckland CBD, Auckland",Auckland,1010,148,-36.8498590000,174.7585400000,0,0
Best Ugly Bagels,"American, Deli",4.6,Excellent,294,NZ$,30,2,Newmarket,"Newmarket, Auckland",Auckland,1050,148,-36.8679629779,174.7765602171,0,0
Big J's Takeaways,Fast Food,4.5,Excellent,477,NZ$,25,1,Mt Wellington,"Mt Wellington, Auckland",Auckland,,148,-36.9126800684,174.8261277750,0,0
Eden Noodles Cafe 四川担担面,"Chinese, Hot Pot",4.4,Very Good,501,NZ$,50,3,Mt Eden,"Mt Eden, Auckland",Auckland,1024,148,-36.8722453812,174.7523961961,0,0
Kai Eatery,"Asian, Asian Fusion",4.4,Very Good,89,NZ$,25,1,Queen Street,"Queen Street, Auckland",Auckland,,148,-36.8522217556,174.7646401450,0,0
Popa's Pretzel,"American, Fast Food",4.3,Very Good,180,NZ$,25,1,Queen Street,"Queen Street, Auckland",Auckland,,148,-36.8520983453,174.7641663998,0,0
No. 1 Pancake,Korean,4.3,Very Good,311,NZ$,20,1,Wellesley Street East,"Wellesley Street East, Auckland",Auckland,1010,148,-36.8509897904,174.7651524469,0,0
Gong Cha 贡茶,"Taiwanese, Bubble Tea",4.2,Very Good,192,NZ$,20,1,Lorne Street,"Lorne Street, Auckland",Auckland,1010,148,-36.8509404255,174.7652751580,0,0
Better Burger,Burger,4.2,Very Good,230,NZ$,25,1,Vulcan Lane,"Vulcan Lane, Auckland",Auckland,1010,148,-36.8473136298,174.7666206211,0,0
Revive Cafe,Healthy Food,4.2,Very Good,174,NZ$,30,2,Lorne Street,"Lorne Street, Auckland",Auckland,1010,148,-36.8506890397,174.7655782476,0,0
Whoopi,Bakery,4.2,Very Good,137,NZ$,20,1,Newmarket,"Newmarket, Auckland",Auckland,1050,148,-36.8712041726,174.7781125456,0,0
The Pakuranga Pizza,Pizza,4.2,Very Good,146,NZ$,35,2,Pakuranga,"Pakuranga, Auckland",Auckland,,148,-36.9153741305,174.8895543069,0,0
Better Burger,Burger,4.1,Very Good,534,NZ$,25,1,Britomart,"Britomart, Auckland",Auckland,,148,-36.8450311661,174.7688897699,0,0
Bird On A Wire,"Healthy Food, Fast Food, Salad",4.1,Very Good,206,NZ$,40,2,"Ponsonby Central, Ponsonby","Ponsonby Central, Ponsonby, Auckland",Auckland,,148,-36.8561828507,174.7464681789,0,0
Crepes A Go Go,"French, Desserts",4.1,Very Good,91,NZ$,35,2,"Ponsonby Central, Ponsonby","Ponsonby Central, Ponsonby, Auckland",Auckland,,148,-36.8562654775,174.7462180629,0,0
Pizza Club,Pizza,4.1,Very Good,124,NZ$,50,3,Elliott Street,"Elliott Street, Auckland",Auckland,,148,-36.8490438780,174.7634663433,0,0
Harlan Pepper Food Co.,Cafe Food,4.1,Very Good,24,NZ$,40,2,Kingsland,"Kingsland, Auckland",Auckland,1021,148,-36.8681378622,174.7514406591,0,0
Little & Kitchen,Korean,4.1,Very Good,50,NZ$,25,1,Glen Innes,"Glen Innes, Auckland",Auckland,,148,-36.8791652226,174.8556300625,0,0
Fish Smith,"Fish and Chips, Fast Food",4.1,Very Good,78,NZ$,35,2,Herne Bay,"Herne Bay, Auckland",Auckland,1011,148,-36.8454070650,174.7355160490,0,0
Moustache Milk & Cookie Bar,"Desserts, Coffee and Tea",4.1,Very Good,53,NZ$,30,2,"University Of Auckland, Auckland CBD","University Of Auckland, Auckland CBD, Auckland",Auckland,,148,-36.8521063938,174.7688357905,0,0
Goodlife Juice Co.,"Healthy Food, Juices",4.1,Very Good,49,NZ$,30,2,Fort Street,"Fort Street, Auckland",Auckland,1010,148,-36.8456700052,174.7683345527,0,0
Basu Lounge 巴蜀风,"Chinese, Dumplings",4.0,Very Good,120,NZ$,40,2,Takapuna,"Takapuna, Auckland",Auckland,0622,148,-36.7898369055,174.7728869319,0,0
Mexican Specialities,Mexican,4.0,Very Good,142,NZ$,30,2,Ellerslie,"Ellerslie, Auckland",Auckland,1051,148,-36.8909737157,174.8220293596,0,0
Renkon,Japanese,4.0,Very Good,149,NZ$,40,2,Parnell,"Parnell, Auckland",Auckland,,148,-36.8554397418,174.7802395374,0,0
NZ Kebabs / Sensational Chicken,Fast Food,4.0,Very Good,101,NZ$,25,1,Symonds Street,"Symonds Street, Auckland",Auckland,1010,148,-36.8550684529,174.7668744251,0,0
Revive Cafe,"Healthy Food, Salad",4.0,Very Good,109,NZ$,30,2,Wyndham Street,"Wyndham Street, Auckland",Auckland,1010,148,-36.8475027811,174.7648607567,0,0
Gong Cha 贡茶,"Taiwanese, Bubble Tea",4.0,Very Good,54,NZ$,20,1,Queen Street,"Queen Street, Auckland",Auckland,,148,-36.8480820376,174.7657871246,0,0
Sushi Pac,"Sushi, Japanese",4.0,Very Good,66,NZ$,30,2,High Street,"High Street, Auckland",Auckland,1010,148,-36.8483379930,174.7663802281,0,0
Burgz Burger,Fast Food,4.0,Very Good,64,NZ$,50,3,"Elliott Stables, Auckland CBD","Elliott Stables, Auckland CBD, Auckland",Auckland,,148,-36.8525630107,174.7624018416,0,0
Happy Boy Eatery,Burger,3.9,Good,184,NZ$,50,3,Royal Oak,"Royal Oak, Auckland",Auckland,,148,-36.9115447809,174.7759976238,0,0
Al's Deli,American,3.9,Good,530,NZ$,60,3,Queen Street,"Queen Street, Auckland",Auckland,1010,148,-36.8566748545,174.7624380514,0,0
Velvet Burger,Burger,3.9,Good,271,NZ$,50,3,Fort Street,"Fort Street, Auckland",Auckland,,148,-36.8463914765,174.7672687098,0,0
7 Siri - Taste of Sri Lanka,Sri Lankan,3.9,Good,118,NZ$,40,2,Sandringham,"Sandringham, Auckland",Auckland,,148,-36.8921859981,174.7362674028,0,0
The White Lady,"Burger, Fast Food",3.9,Good,175,NZ$,35,2,Commerce Street,"Commerce Street, Auckland",Auckland,1010,148,-36.8456268080,174.7677562013,0,0
Ensalada Cafe,"Filipino, International",3.9,Good,98,NZ$,35,2,Karangahape Road,"Karangahape Road, Auckland",Auckland,,148,-36.8580735875,174.7582296655,0,0
Texas Chicken,Fast Food,3.9,Good,125,NZ$,40,2,Henderson,"Henderson, Auckland",Auckland,,148,-36.8531532283,174.6307241544,0,0
Bird On A Wire,"Healthy Food, Fast Food, Salad",3.9,Good,150,NZ$,40,2,Takapuna,"Takapuna, Auckland",Auckland,,148,-36.7877049721,174.7725023702,0,0
Texas Chicken,Fast Food,3.9,Good,137,NZ$,40,2,"Westfield Manukau City, Manukau","Westfield Manukau City, Manukau, Auckland",Auckland,,148,-36.9915790360,174.8821856082,0,0
Hello Mister,"Asian, Vietnamese, Pho",3.9,Good,88,NZ$,40,2,Victoria Street West,"Victoria Street West, Auckland",Auckland,,148,-36.8475569776,174.7583869100,0,0
The Ancient Mariner,"Fish and Chips, Seafood",3.9,Good,120,NZ$,25,1,Mt Eden,"Mt Eden, Auckland",Auckland,1024,148,-36.8710204442,174.7611458972,0,0
Renkon,Japanese,3.9,Good,124,NZ$,40,2,Durham Street East,"Durham Street East, Auckland",Auckland,1010,148,-36.8485306297,174.7660234943,0,0
Wang Wang Spring Pancake Restaurant 旺旺春饼,Chinese,3.9,Good,56,NZ$,30,2,Balmoral,"Balmoral, Auckland",Auckland,1024,148,-36.8905243001,174.7463246808,0,0
KS Chicken,Korean,3.9,Good,82,NZ$,30,2,Rosedale,"Rosedale, Auckland",Auckland,,148,-36.7430531217,174.7253719345,0,0
Top Cafe 一品居,"Chinese, Dumplings",3.9,Good,76,NZ$,30,2,Karangahape Road,"Karangahape Road, Auckland",Auckland,1010,148,-36.8585132684,174.7603516281,0,0
BurgerFuel,Burger,3.9,Good,91,NZ$,40,2,Queen Street,"Queen Street, Auckland",Auckland,,148,-36.8515590938,174.7640198842,0,0
Bruce Lee Sushi & Roll,"Sushi, Japanese",3.9,Good,130,NZ$,30,2,Newmarket,"Newmarket, Auckland",Auckland,1050,148,-36.8701605358,174.7776746750,0,0
Sim's Kitchen,Malaysian,3.9,Good,34,NZ$,30,2,Hillsborough,"Hillsborough, Auckland",Auckland,,148,-36.9293902959,174.7405341268,0,0
Sushi Pac,"Sushi, Japanese",3.9,Good,67,NZ$,30,2,Queen Street,"Queen Street, Auckland",Auckland,,148,-36.8493754888,174.7646947950,0,0
Dimsum & Dumpling House 点心饺子馆,"Asian, Chinese, Fusion",3.9,Good,42,NZ$,40,2,Balmoral,"Balmoral, Auckland",Auckland,,148,-36.8886922879,174.7483108565,0,0
Spicy House,Chinese,3.8,Good,400,NZ$,40,2,Balmoral,"Balmoral, Auckland",Auckland,1041,148,-36.8884008029,174.7471729294,0,0
The Flaming Onion,Fast Food,3.8,Good,109,NZ$,30,2,Northcote,"Northcote, Auckland",Auckland,0627,148,-36.8018873895,174.7345769405,0,0
NZ Kebabs Sensational Chicken,Fast Food,3.8,Good,68,NZ$,25,1,Mt Roskill,"Mt Roskill, Auckland",Auckland,,148,-36.9212254129,174.7359649837,0,0
Lime Thai,Thai,3.8,Good,79,NZ$,40,2,"Sky City Metro, Auckland CBD","Sky City Metro, Auckland CBD, Auckland",Auckland,,148,-36.8515556061,174.7633758187,0,0
Golden Barbeque Noodle House 千里香,"Chinese, BBQ",3.8,Good,69,NZ$,50,3,Mt Eden,"Mt Eden, Auckland",Auckland,1024,148,-36.8778548430,174.7509893775,0,0
Burger Geek,Fast Food,3.8,Good,56,NZ$,40,2,Eden Terrace,"Eden Terrace, Auckland",Auckland,,148,-36.8633147188,174.7614027187,0,0
Royal Horse 骏马快餐,Chinese,3.8,Good,49,NZ$,35,2,Three Kings,"Three Kings, Auckland",Auckland,1042,148,-36.9093154399,174.7571071610,0,0
Gong Cha 贡茶,"Taiwanese, Bubble Tea",3.8,Good,46,NZ$,20,1,Newmarket,"Newmarket, Auckland",Auckland,1023,148,-36.8670947199,174.7785671800,0,0
Sprout,Vietnamese,3.8,Good,42,NZ$,30,2,"Westfield Manukau City, Manukau","Westfield Manukau City, Manukau, Auckland",Auckland,2104,148,-36.9916516079,174.8818774894,0,0
District 5,"Vietnamese, Coffee and Tea",3.8,Good,46,NZ$,40,2,Shortland Street,"Shortland Street, Auckland",Auckland,1010,148,-36.8467595879,174.7674953565,0,0
Shubh,"North Indian, Indian",3.8,Good,59,NZ$,30,2,Sandringham,"Sandringham, Auckland",Auckland,,148,-36.8916784024,174.7366093844,0,0
Pastrami & Rye,"Deli, American, Sandwich",3.8,Good,27,NZ$,30,2,Ellerslie,"Ellerslie, Auckland",Auckland,,148,-36.8976441142,174.8088117689,0,0
Umi & Umiya Sushi,"Sushi, Japanese",3.8,Good,60,NZ$,40,2,Wellesley Street East,"Wellesley Street East, Auckland",Auckland,1010,148,-36.8509490000,174.7651850000,0,0
Basu Lounge 巴蜀风,"Chinese, Dumplings",3.8,Good,35,NZ$,40,2,Browns Bay,"Browns Bay, Auckland",Auckland,,148,-36.7160058223,174.7482783347,0,0
The Loaded Dog,American,3.8,Good,46,NZ$,25,1,Windsor Park,"Windsor Park, Auckland",Auckland,0630,148,-36.7389327555,174.7414045036,0,0
BurgerFuel,Burger,3.8,Good,53,NZ$,40,2,Ponsonby,"Ponsonby, Auckland",Auckland,,148,-36.8572352629,174.7479330003,0,0
Yummy King BBQ & Takeaway,"Chinese, Fast Food, BBQ",3.8,Good,57,NZ$,35,2,"Southmall, Manurewa","Southmall, Manurewa, Auckland",Auckland,2102,148,-37.0226262485,174.8976304382,0,0
Bird On A Wire,"Healthy Food, Fast Food",3.8,Good,32,NZ$,40,2,Orakei,"Orakei, Auckland",Auckland,,148,-36.8629281782,174.8099175096,0,0
Sushi Bar Salmon,Japanese,3.8,Good,47,NZ$,35,2,"Mercury Plaza, Newton","Mercury Plaza, Newton, Auckland",Auckland,1010,148,-36.8592088656,174.7591949254,0,0
Vulcan Lane Coffee & Sandwich House,"American, Coffee and Tea",3.8,Good,33,NZ$,25,1,Vulcan Lane,"Vulcan Lane, Auckland",Auckland,1010,148,-36.8471050000,174.7666100000,0,0
BurgerFuel,Burger,3.8,Good,42,NZ$,40,2,Customs Street East,"Customs Street East, Auckland",Auckland,1010,148,-36.8449482588,174.7671778500,0,0
Chongqing Hot Noodles 重庆小面,Chinese,3.8,Good,32,NZ$,30,2,Mt Eden,"Mt Eden, Auckland",Auckland,,148,-36.8789466487,174.7500472516,0,0
The Takashi Japanese Takeaway,"Japanese, Sushi",3.8,Good,34,NZ$,30,2,Royal Oak,"Royal Oak, Auckland",Auckland,,148,-36.9112067380,174.7761169821,0,0
The Smoothie Bowl,"Healthy Food, Desserts",3.8,Good,28,NZ$,25,1,Takapuna,"Takapuna, Auckland",Auckland,,148,-36.7881705657,174.7732302547,0,0
BurgerFuel,Burger,3.8,Good,41,NZ$,40,2,Parnell,"Parnell, Auckland",Auckland,,148,-36.8550877686,174.7798797861,0,0
Suzie's Dumplings,"Dumplings, Chinese",3.8,Good,44,NZ$,40,2,Pakuranga,"Pakuranga, Auckland",Auckland,,148,-36.8989659514,174.9077021331,0,0
Bakehouse Cafe Grill and Roast,"Bakery, Fast Food",3.8,Good,29,NZ$,30,2,"Glenmall Place Shops, Glen Eden","Glenmall Place Shops, Glen Eden, Auckland",Auckland,,148,-36.9109375895,174.6507227048,0,0
McDonald's,"Fast Food, Burger",3.8,Good,41,NZ$,30,2,Pt Chevalier,"Pt Chevalier, Auckland",Auckland,,148,-36.8699054581,174.7121348977,0,0
Jemima's Kitchen ,"Street Food, Burger",3.8,Good,23,NZ$,35,2,Glen Eden,"Glen Eden, Auckland",Auckland,,148,-36.9087650646,174.6283725277,0,0
Ika Bowl,"Poké, Healthy Food",3.8,Good,27,NZ$,35,2,Customs Street West,"Customs Street West, Auckland",Auckland,1010,148,-36.8457212517,174.7675168142,0,0
Muzza's Pies,"Bakery, Fast Food",3.8,Good,30,NZ$,20,1,Mt Albert,"Mt Albert, Auckland",Auckland,,148,-36.8927104833,174.7131434083,0,0
Goodness Gracious,American,3.8,Good,17,NZ$,30,2,Parnell,"Parnell, Auckland",Auckland,1051,148,-36.8515526550,174.7825066745,0,0
Salash Delicatessan,Deli,3.8,Good,15,NZ$,30,2,"Victoria Park Market, Freemans Bay","Victoria Park Market, Freemans Bay, Auckland",Auckland,,148,-36.8487742420,174.7548349947,0,0
Mr Zhou's Dumplings Mt Eden 周记饺子馆,"Chinese, Dumplings",3.7,Good,77,NZ$,50,3,Mt Eden,"Mt Eden, Auckland",Auckland,,148,-36.8952647496,174.7581565753,0,0
Murder Burger,Burger,3.7,Good,174,NZ$,40,2,Mt Eden,"Mt Eden, Auckland",Auckland,1024,148,-36.8759109557,174.7509444505,0,0
Mexicali Fresh,"Mexican, Salad",3.7,Good,103,NZ$,40,2,Princes Wharf,"Princes Wharf, Auckland",Auckland,1010,148,-36.8421623612,174.7651571408,0,0
I-Press,Healthy Food,3.7,Good,37,NZ$,30,2,Mt Eden,"Mt Eden, Auckland",Auckland,,148,-36.8815729797,174.7618335486,0,0
Lord Of The Fries,"Fast Food, Vegan",3.7,Good,89,NZ$,30,2,Queen Street,"Queen Street, Auckland",Auckland,,148,-36.8439318996,174.7669223696,0,0
The Burger Bach,Burger,3.7,Good,94,NZ$,30,2,Takapuna,"Takapuna, Auckland",Auckland,0622,148,-36.7891876656,174.7729187831,0,1
Pho Viet,"Vietnamese, Pho",3.7,Good,62,NZ$,35,2,"Sky City Metro, Auckland CBD","Sky City Metro, Auckland CBD, Auckland",Auckland,1010,148,-36.8515687521,174.7634261102,0,0
Lil Abner's Takeaway,"Turkish, Fast Food, Kebab",3.7,Good,83,NZ$,30,2,Papatoetoe,"Papatoetoe, Auckland",Auckland,2025,148,-36.9728054965,174.8636190221,0,0
Renkon,Japanese,3.7,Good,85,NZ$,40,2,Takapuna,"Takapuna, Auckland",Auckland,,148,-36.7862252036,174.7724658251,0,0
Diamond Takeaway,"Fast Food, Chinese, Asian",3.7,Good,84,NZ$,40,2,Epsom,"Epsom, Auckland",Auckland,1051,148,-36.8829790340,174.7851043940,0,0
Yummy Kitchen,"Chinese, Malaysian",3.7,Good,65,NZ$,40,2,Manukau,"Manukau, Auckland",Auckland,2104,148,-36.9928010000,174.8858120000,0,0
Kingston Noodles 轩成面家,Chinese,3.7,Good,42,NZ$,35,2,"Somerville Shopping Court, Somerville","Somerville Shopping Court, Somerville, Auckland",Auckland,,148,-36.9126330000,174.9293590000,0,0
Kampung Malaysia,Malaysian,3.7,Good,49,NZ$,40,2,"Ponsonby International Food Court, Ponsonby","Ponsonby International Food Court, Ponsonby, Auckland",Auckland,,148,-36.8575813244,174.7484419495,0,0
Welfare BBQ Noodle Bar 华轩,"Chinese, BBQ",3.7,Good,53,NZ$,30,2,"Aviemore Star Village, Highland Park","Aviemore Star Village, Highland Park, Auckland",Auckland,,148,-36.9021865266,174.9047701433,0,0
Mint Leaf Indian Takeaway,"North Indian, Indian",3.7,Good,67,NZ$,50,3,Birkdale,"Birkdale, Auckland",Auckland,0626,148,-36.8061227578,174.7046019137,0,0
Green Jade Takeaways,"Chinese, Fish and Chips, Fast Food",3.7,Good,50,NZ$,30,2,Avondale,"Avondale, Auckland",Auckland,,148,-36.8938146790,174.6964221820,0,0
Fatima's,"Mediterranean, Middle Eastern",3.7,Good,61,NZ$,45,3,Ponsonby,"Ponsonby, Auckland",Auckland,,148,-36.8519397897,174.7448189557,0,0
Dumpling Ace 刀削面馆,"Chinese, Dumplings",3.7,Good,46,NZ$,30,2,Northcote Town Centre,"Northcote Town Centre, Auckland",Auckland,,148,-36.8011056314,174.7465345636,0,0
Amano Restaurant,Italian,4.8,Excellent,322,NZ$,90,4,Britomart,"Britomart, Auckland",Auckland,,148,-36.8449259892,174.7703743726,0,0
Depot Eatery and Oyster Bar,"Seafood, Kiwi",4.8,Excellent,757,NZ$,90,4,Federal Street,"Federal Street, Auckland",Auckland,1010,148,-36.8492198787,174.7622948885,0,0
Azabu,"Japanese, Asian",4.7,Excellent,149,NZ$,95,4,Ponsonby,"Ponsonby, Auckland",Auckland,,148,-36.8592850510,174.7515238076,0,0
Cassia Restaurant,Indian,4.7,Excellent,245,NZ$,130,4,Fort Street,"Fort Street, Auckland",Auckland,,148,-36.8459498478,174.7673200071,0,0
Federal Delicatessen,American,4.6,Excellent,933,NZ$,60,3,Federal Street,"Federal Street, Auckland",Auckland,1010,148,-36.8487004608,174.7623535618,0,0
"Eight - Cordis, Auckland Hotel","European, Seafood, Grill",4.6,Excellent,614,NZ$,190,4,"Cordis, Auckland Hotel, Auckland CBD","Cordis, Auckland Hotel, Auckland CBD, Auckland",Auckland,,148,-36.8577304791,174.7634807602,0,0
Mekong Baby,Asian Fusion,4.6,Excellent,489,NZ$,110,4,Ponsonby,"Ponsonby, Auckland",Auckland,,148,-36.8507542338,174.7444082424,0,0
Baduzzi,Italian,4.6,Excellent,529,NZ$,120,4,Wynyard Quarter,"Wynyard Quarter, Auckland",Auckland,1010,148,-36.8413533774,174.7571859509,0,0
Saan,Thai,4.6,Excellent,264,NZ$,70,4,Ponsonby,"Ponsonby, Auckland",Auckland,,148,-36.8556162644,174.7458308190,0,0
Chuffed,Cafe Food,4.5,Excellent,510,NZ$,50,3,High Street,"High Street, Auckland",Auckland,1010,148,-36.8479988653,174.7663108259,0,0
Big Fish Eatery,"Asian, Sushi, Seafood",4.5,Excellent,386,NZ$,70,4,Penrose,"Penrose, Auckland",Auckland,1061,148,-36.9056506649,174.8106909916,0,1
Ebisu,Japanese,4.5,Excellent,371,NZ$,100,4,Britomart,"Britomart, Auckland",Auckland,,148,-36.8445342578,174.7699274495,0,0
MASU by Nic Watt - SKYCITY Grand Hotel,"Japanese, Asian, Sushi",4.5,Excellent,444,NZ$,150,4,"SKYCITY Grand Hotel, Auckland CBD","SKYCITY Grand Hotel, Auckland CBD, Auckland",Auckland,1010,148,-36.8490020241,174.7621852532,0,0
Odettes Eatery,"European, Kiwi",4.5,Excellent,397,NZ$,80,4,"City Works Depot, Auckland CBD","City Works Depot, Auckland CBD, Auckland",Auckland,1010,148,-36.8500827057,174.7585716471,0,0
Chikos Restaurant & Cafe,"Kiwi, Asian, Pacific",4.5,Excellent,273,NZ$,85,4,Henderson,"Henderson, Auckland",Auckland,0610,148,-36.8560562276,174.6304338053,0,0
&Sushi,"Japanese, Sushi, Healthy Food",4.5,Excellent,210,NZ$,45,3,Newmarket,"Newmarket, Auckland",Auckland,,148,-36.8688422232,174.7760821134,0,0
Woodpecker Hill,"Asian, BBQ",4.5,Excellent,297,NZ$,100,4,Parnell,"Parnell, Auckland",Auckland,,148,-36.8549327067,174.7801215202,0,0
Tiger Burger,"Korean, Asian Fusion",4.5,Excellent,195,NZ$,35,2,Grey Lynn,"Grey Lynn, Auckland",Auckland,1021,148,-36.8651465352,174.7376447171,0,0
Lucky Buddha,Asian Fusion,4.5,Excellent,193,NZ$,50,3,Fort Street,"Fort Street, Auckland",Auckland,,148,-36.8468575181,174.7692890838,0,0
Chinoiserie,"Taiwanese, Street Food",4.4,Very Good,374,NZ$,50,3,Mt Albert,"Mt Albert, Auckland",Auckland,,148,-36.8942967877,174.7269795835,0,0
Rosie,European,4.4,Very Good,316,NZ$,70,4,Parnell,"Parnell, Auckland",Auckland,,148,-36.8525101592,174.7862175107,0,0
El Humero,Latin American,4.4,Very Good,274,NZ$,70,4,Takapuna,"Takapuna, Auckland",Auckland,,148,-36.7876915466,174.7723112628,0,1
Kushi Japanese Kitchen & Bar,Japanese,4.4,Very Good,276,NZ$,60,3,Durham Street West,"Durham Street West, Auckland",Auckland,1010,148,-36.8480645983,174.7651430592,0,0
Ostro Brasserie & Bar,"Kiwi, Seafood, Pacific",4.4,Very Good,309,NZ$,120,4,Britomart,"Britomart, Auckland",Auckland,1010,148,-36.8448677663,174.7700384259,0,0
Musashi,"Japanese, Hot Pot",4.4,Very Good,210,NZ$,70,4,St Heliers,"St Heliers, Auckland",Auckland,,148,-36.8503566298,174.8693773896,0,0
Gemmayze St,Lebanese,4.4,Very Good,79,NZ$,80,4,Karangahape Road,"Karangahape Road, Auckland",Auckland,,148,-36.8576381964,174.7601028532,0,0
The Tasting Shed,European,4.4,Very Good,104,NZ$,90,4,Kumeu,"Kumeu, Auckland",Auckland,,148,-36.7681732721,174.5237891749,0,0
Poké Poké,"Hawaiian, Poké, Healthy Food",4.4,Very Good,91,NZ$,35,2,Takapuna,"Takapuna, Auckland",Auckland,,148,-36.7876872505,174.7721882165,0,0
The Garden Shed,"Kiwi, European",4.3,Very Good,430,NZ$,90,4,Mt Eden,"Mt Eden, Auckland",Auckland,1024,148,-36.8825700661,174.7622258216,0,0
Kiss Kiss,Thai,4.3,Very Good,344,NZ$,40,2,Balmoral,"Balmoral, Auckland",Auckland,,148,-36.8888789234,174.7475082055,0,0
Archies Pizzeria,"Pizza, Italian",4.3,Very Good,462,NZ$,85,4,Newmarket,"Newmarket, Auckland",Auckland,1023,148,-36.8669359271,174.7775522992,0,0
Burger Burger,Burger,4.3,Very Good,447,NZ$,50,3,Newmarket,"Newmarket, Auckland",Auckland,1050,148,-36.8679855090,174.7765803337,0,0
Cali - All Day Eatery,"European, Asian, Pizza, Cafe Food",4.3,Very Good,265,NZ$,80,4,Newmarket,"Newmarket, Auckland",Auckland,,148,-36.8706183859,174.7781561315,0,0
Mamak Malaysian Street Food,Malaysian,4.3,Very Good,228,NZ$,50,3,Takapuna,"Takapuna, Auckland",Auckland,0622,148,-36.7893871638,174.7713624314,0,0
White & Wongs Bar & Restaurant,"Asian, Chinese, Thai, Indian, Malaysian",4.3,Very Good,196,NZ$,120,4,Viaduct Harbour,"Viaduct Harbour, Auckland",Auckland,,148,-36.8427593670,174.7639367357,0,0
Uncle Man's Restaurant & Takeaway,Malaysian,4.3,Very Good,253,NZ$,35,2,Karangahape Road,"Karangahape Road, Auckland",Auckland,1010,148,-36.8578278588,174.7583610937,0,0
The Kimchi Project,"Asian Fusion, Cafe Food",4.3,Very Good,250,NZ$,90,4,Lorne Street,"Lorne Street, Auckland",Auckland,,148,-36.8501860000,174.7656740000,0,0
Ortolana,"European, Kiwi",4.3,Very Good,480,NZ$,100,4,Britomart,"Britomart, Auckland",Auckland,1010,148,-36.8448358375,174.7687476128,0,0
Burger Burger,Burger,4.3,Very Good,545,NZ$,50,3,"Ponsonby Central, Ponsonby","Ponsonby Central, Ponsonby, Auckland",Auckland,1011,148,-36.8561570969,174.7461959347,0,0
Cafe Hanoi,"Vietnamese, Salad",4.3,Very Good,416,NZ$,100,4,Britomart,"Britomart, Auckland",Auckland,,148,-36.8451269521,174.7684378177,0,0
Musashi,Japanese,4.3,Very Good,229,NZ$,70,4,New Lynn,"New Lynn, Auckland",Auckland,,148,-36.9086805556,174.6817777778,0,0
Ramen Do,"Japanese, Ramen",4.3,Very Good,183,NZ$,40,2,Eden Terrace,"Eden Terrace, Auckland",Auckland,,148,-36.8628342922,174.7616166249,0,0
Xuxu Dumpling Bar,"Chinese, Dumplings",4.3,Very Good,212,NZ$,50,3,Britomart,"Britomart, Auckland",Auckland,,148,-36.8445393556,174.7683003545,0,0
Little Bird Unbakery,"Healthy Food, Deli",4.3,Very Good,304,NZ$,60,3,Ponsonby,"Ponsonby, Auckland",Auckland,,148,-36.8518437440,174.7444012016,0,0
Deco Eatery,"Mediterranean, Cafe Food",4.3,Very Good,223,NZ$,90,4,Titirangi,"Titirangi, Auckland",Auckland,,148,-36.9381500288,174.6554611623,0,0
Petit Bocal,"French, Cafe Food",4.3,Very Good,224,NZ$,60,3,Sandringham,"Sandringham, Auckland",Auckland,,148,-36.8782354078,174.7406223044,0,0
Gusto at the Grand - SKYCITY Grand Hotel,Italian,4.3,Very Good,164,NZ$,90,4,"SKYCITY Grand Hotel, Auckland CBD","SKYCITY Grand Hotel, Auckland CBD, Auckland",Auckland,1010,148,-36.8492649520,174.7624528036,0,0
Culprit,Fusion,4.3,Very Good,58,NZ$,100,4,Wyndham Street,"Wyndham Street, Auckland",Auckland,,148,-36.8473935832,174.7651390359,0,0
Farang,Thai,4.3,Very Good,104,NZ$,85,4,Kingsland,"Kingsland, Auckland",Auckland,,148,-36.8727332585,174.7437812761,0,0
Paris Butter,French,4.3,Very Good,64,NZ$,110,4,Herne Bay,"Herne Bay, Auckland",Auckland,,148,-36.8453179870,174.7370083630,0,0
Paradise,Indian,4.2,Very Good,1019,NZ$,50,3,Sandringham,"Sandringham, Auckland",Auckland,,148,-36.8928893330,174.7363428399,0,0
1947 Eatery,Indian,4.2,Very Good,201,NZ$,60,3,Federal Street,"Federal Street, Auckland",Auckland,1010,148,-36.8485617520,174.7622858360,0,0
Pocha,Korean,4.2,Very Good,317,NZ$,60,3,Chancery Square,"Chancery Square, Auckland",Auckland,1010,148,-36.8483180000,174.7676650000,0,1
BannSang,Korean,4.2,Very Good,425,NZ$,50,3,High Street,"High Street, Auckland",Auckland,1010,148,-36.8482199424,174.7666300088,0,0
The Don,Japanese,4.2,Very Good,232,NZ$,50,3,High Street,"High Street, Auckland",Auckland,1010,148,-36.8488684135,174.7661626339,0,0
Ramen Takara,"Japanese, Ramen",4.2,Very Good,333,NZ$,40,2,Browns Bay,"Browns Bay, Auckland",Auckland,0632,148,-36.7168540250,174.7485673428,0,0
Crave,Cafe Food,4.2,Very Good,116,NZ$,50,3,Morningside,"Morningside, Auckland",Auckland,1025,148,-36.8756293454,174.7363287583,0,0
Takapuna Beach Cafe and Store,"Cafe Food, Ice Cream, Salad",4.2,Very Good,453,NZ$,70,4,Takapuna,"Takapuna, Auckland",Auckland,,148,-36.7842542826,174.7753917798,0,0
The Blue Breeze Inn,"Asian, Pacific",4.2,Very Good,497,NZ$,95,4,Ponsonby,"Ponsonby, Auckland",Auckland,,148,-36.8560916392,174.7464789078,0,0
Chop Chop,"Japanese, Chinese, Korean, Asian, Ramen",4.2,Very Good,254,NZ$,70,4,Ponsonby,"Ponsonby, Auckland",Auckland,,148,-36.8562558198,174.7463789955,0,0
Musashi,Japanese,4.2,Very Good,231,NZ$,70,4,Milford,"Milford, Auckland",Auckland,,148,-36.7728952586,174.7644751892,0,0
Prego,Italian,4.2,Very Good,325,NZ$,90,4,Ponsonby,"Ponsonby, Auckland",Auckland,,148,-36.8527567099,174.7449768707,0,0
Tok Tok,Asian Fusion,4.2,Very Good,214,NZ$,100,4,Takapuna,"Takapuna, Auckland",Auckland,,148,-36.7856677657,174.7733013332,0,0
Bedford Soda & Liquor,"American, Italian",4.2,Very Good,302,NZ$,70,4,"Ponsonby Central, Ponsonby","Ponsonby Central, Ponsonby, Auckland",Auckland,,148,-36.8564921643,174.7463022173,0,0
Sen Vietnamese Restaurant & Bar,Vietnamese,4.2,Very Good,180,NZ$,70,4,Mt Eden,"Mt Eden, Auckland",Auckland,1010,148,-36.8687684614,174.7640483826,0,1
Raja's Indian Restaurant & Bar,"North Indian, Indian",4.2,Very Good,292,NZ$,50,3,Botany Downs,"Botany Downs, Auckland",Auckland,,148,-36.9261952593,174.9127949774,0,0
Industry Zen,Japanese,4.2,Very Good,217,NZ$,100,4,Viaduct Harbour,"Viaduct Harbour, Auckland",Auckland,1010,148,-36.8440590794,174.7627934441,0,0
Bushman's Grill,Steak,4.2,Very Good,284,NZ$,100,4,Hillcrest,"Hillcrest, Auckland",Auckland,0627,148,-36.7913101604,174.7490437701,0,0
Vivace,"Mediterranean, Italian",4.2,Very Good,178,NZ$,110,4,High Street,"High Street, Auckland",Auckland,1010,148,-36.8485078245,174.7664761171,0,0
Bunga Raya,"Malaysian, Seafood, Asian",4.2,Very Good,193,NZ$,75,4,New Lynn,"New Lynn, Auckland",Auckland,,148,-36.9078333333,174.6836666667,0,0
The Store,"Bakery, French, Desserts",4.2,Very Good,244,NZ$,55,3,Britomart,"Britomart, Auckland",Auckland,1010,148,-36.8449324286,174.7688156739,0,0
Ramen Lab,"Japanese, Ramen",4.2,Very Good,106,NZ$,35,2,Takapuna,"Takapuna, Auckland",Auckland,,148,-36.7891425569,174.7711180151,0,1
St Heliers Bay Cafe & Bistro,"European, Cafe Food",4.2,Very Good,221,NZ$,90,4,St Heliers,"St Heliers, Auckland",Auckland,,148,-36.8509852295,174.8568085581,0,0
Coco's Cantina,"Italian, Mediterranean",4.2,Very Good,163,NZ$,90,4,Karangahape Road,"Karangahape Road, Auckland",Auckland,1010,148,-36.8585374118,174.7567608208,0,0
Blue Elephant Thai Restaurant,Thai,4.2,Very Good,176,NZ$,90,4,Parnell,"Parnell, Auckland",Auckland,,148,-36.8560784940,174.7801255435,0,0
Hansik Restaurant & Bar,Korean,4.2,Very Good,142,NZ$,80,4,"Victoria Park Market, Freemans Bay","Victoria Park Market, Freemans Bay, Auckland",Auckland,1010,148,-36.8488729745,174.7546891496,0,0
Boy & Bird,Kiwi,4.2,Very Good,148,NZ$,50,3,Ponsonby,"Ponsonby, Auckland",Auckland,,148,-36.8528661685,174.7451099753,0,0
The Lab Eatery,European,4.2,Very Good,75,NZ$,80,4,Takapuna,"Takapuna, Auckland",Auckland,,148,-36.7853648787,174.7729962319,0,0
Simon & Lee,"Asian, Contemporary, Korean",4.2,Very Good,59,NZ$,75,4,Parnell,"Parnell, Auckland",Auckland,,148,-36.8513238073,174.7826337442,0,1
Vodka Room,European,4.2,Very Good,50,NZ$,60,3,Ponsonby,"Ponsonby, Auckland",Auckland,1021,148,-36.8581226795,174.7483926639,0,0
Gerome,Greek,4.2,Very Good,46,NZ$,55,3,Parnell,"Parnell, Auckland",Auckland,,148,-36.8565404525,174.7807981074,0,0
Selera,Malaysian,4.1,Very Good,449,NZ$,50,3,Newmarket,"Newmarket, Auckland",Auckland,1023,148,-36.8676561248,174.7773410752,0,0
Oyster & Chop,"European, Steak, Seafood",4.1,Very Good,147,NZ$,120,4,Viaduct Harbour,"Viaduct Harbour, Auckland",Auckland,,148,-36.8433308783,174.7627220303,0,0
Genzui Ramen Bar,"Japanese, Ramen",4.1,Very Good,252,NZ$,40,2,Elliott Street,"Elliott Street, Auckland",Auckland,1010,148,-36.8498350000,174.7637070000,0,0
El Sizzling Chorizo,"Latin American, Argentine, Steak",4.1,Very Good,388,NZ$,85,4,"Ponsonby Central, Ponsonby","Ponsonby Central, Ponsonby, Auckland",Auckland,,148,-36.8561316113,174.7462837771,0,0
Mezze Bar,"Spanish, Mediterranean, Middle Eastern",4.1,Very Good,254,NZ$,80,4,Durham Street East,"Durham Street East, Auckland",Auckland,1010,148,-36.8485563861,174.7659118474,0,0
Tanpopo Ramen,"Japanese, Ramen",4.1,Very Good,236,NZ$,35,2,Anzac Avenue,"Anzac Avenue, Auckland",Auckland,1010,148,-36.8463627680,174.7714794427,0,0
Orleans,American,4.1,Very Good,544,NZ$,80,4,Britomart,"Britomart, Auckland",Auckland,1010,148,-36.8456863719,174.7695687041,0,0
Red Pig,"Korean, BBQ, Korean BBQ",4.1,Very Good,135,NZ$,50,3,Lorne Street,"Lorne Street, Auckland",Auckland,1010,148,-36.8506863568,174.7659138590,0,0
Tombo,"Korean, Japanese, Hot Pot",4.1,Very Good,176,NZ$,60,3,Newmarket,"Newmarket, Auckland",Auckland,1023,148,-36.8666494556,174.7770644724,0,0
Kampung Style,Malaysian,4.1,Very Good,109,NZ$,45,3,Glen Eden,"Glen Eden, Auckland",Auckland,,148,-36.9105630853,174.6528976411,0,0
L'assiette,"French, Cafe Food",4.1,Very Good,152,NZ$,55,3,Britomart,"Britomart, Auckland",Auckland,,148,-36.8446590218,174.7706828266,0,0
Faro,"Korean, BBQ, Korean BBQ",4.1,Very Good,165,NZ$,80,4,Newmarket,"Newmarket, Auckland",Auckland,1050,148,-36.8721445332,174.7779140621,0,0
Scarlett Slimms and Lucky,"American, Kiwi",4.1,Very Good,163,NZ$,55,3,Mt Eden,"Mt Eden, Auckland",Auckland,1024,148,-36.8827368716,174.7621128336,0,0
Aroy Thai Eatery,Thai,4.1,Very Good,148,NZ$,40,2,Commerce Street,"Commerce Street, Auckland",Auckland,,148,-36.8460217535,174.7678121924,0,0
Tokyo Bay,"Japanese, Sushi",4.1,Very Good,187,NZ$,75,4,Takapuna,"Takapuna, Auckland",Auckland,,148,-36.7869842900,174.7740017250,0,0
Sushi Train,"Sushi, Japanese",4.1,Very Good,231,NZ$,40,2,Chancery Square,"Chancery Square, Auckland",Auckland,1010,148,-36.8480120000,174.7671080000,0,0
Try It Out Vietnamese Restaurant,"Vietnamese, Pho",4.1,Very Good,207,NZ$,50,3,Otahuhu,"Otahuhu, Auckland",Auckland,,148,-36.9413183032,174.8435886204,0,0
Imperial Palace 皇庭大酒店,"Chinese, Yum Cha",4.1,Very Good,145,NZ$,70,4,Mt Wellington,"Mt Wellington, Auckland",Auckland,,148,-36.8983843995,174.8464220390,0,0
The Zing,Indian,4.1,Very Good,93,NZ$,60,3,Kingsland,"Kingsland, Auckland",Auckland,1021,148,-36.8726699607,174.7438433021,0,1
Federal Delicatessen,American,4.6,Excellent,933,NZ$,60,3,Federal Street,"Federal Street, Auckland",Auckland,1010,148,-36.8487004608,174.7623535618,0,0
Chuffed,Cafe Food,4.5,Excellent,510,NZ$,50,3,High Street,"High Street, Auckland",Auckland,1010,148,-36.8479988653,174.7663108259,0,0
Major Sprout,Cafe Food,4.5,Excellent,351,NZ$,55,3,Victoria Street West,"Victoria Street West, Auckland",Auckland,,148,-36.8470869158,174.7594266012,0,0
Between Cafe & Eatery,Cafe Food,4.5,Excellent,120,NZ$,50,3,Karangahape Road,"Karangahape Road, Auckland",Auckland,1010,148,-36.8584094513,174.7617594525,0,0
The Return of Rad Cafe,Cafe Food,4.4,Very Good,400,NZ$,50,3,Mt Eden,"Mt Eden, Auckland",Auckland,1024,148,-36.8808861679,174.7621255741,0,0
Dear Jervois,Cafe Food,4.4,Very Good,429,NZ$,50,3,Herne Bay,"Herne Bay, Auckland",Auckland,1011,148,-36.8456997872,174.7341477871,0,0
Geeks On Sainsbury,"Healthy Food, Cafe Food",4.4,Very Good,326,NZ$,50,3,Morningside,"Morningside, Auckland",Auckland,,148,-36.8798297904,174.7341598570,0,0
L'oeuf,"Salad, Cafe Food",4.4,Very Good,321,NZ$,50,3,Mt Albert,"Mt Albert, Auckland",Auckland,1025,148,-36.8943273551,174.7270781547,0,0
Rosie,European,4.4,Very Good,316,NZ$,70,4,Parnell,"Parnell, Auckland",Auckland,,148,-36.8525101592,174.7862175107,0,0
Little and Friday Cafe,"Bakery, Desserts",4.4,Very Good,378,NZ$,45,3,Newmarket,"Newmarket, Auckland",Auckland,0622,148,-36.8677945307,174.7737006471,0,0
Goodness Gracious,Cafe Food,4.4,Very Good,184,NZ$,40,2,Eden Terrace,"Eden Terrace, Auckland",Auckland,1021,148,-36.8657095638,174.7604156658,0,0
The Shelf,Cafe Food,4.3,Very Good,561,NZ$,50,3,High Street,"High Street, Auckland",Auckland,1010,148,-36.8487629736,174.7661039606,0,0
Little Sister Cafe,Cafe Food,4.3,Very Good,346,NZ$,45,3,Henderson,"Henderson, Auckland",Auckland,,148,-36.8579297988,174.6369428560,0,0
House of Chocolate Dessert Cafe & Cakery,"Desserts, Cafe Food",4.3,Very Good,224,NZ$,35,2,Takapuna,"Takapuna, Auckland",Auckland,0622,148,-36.7870675286,174.7724229097,0,0
Cali - All Day Eatery,"European, Asian, Pizza, Cafe Food",4.3,Very Good,265,NZ$,80,4,Newmarket,"Newmarket, Auckland",Auckland,,148,-36.8706183859,174.7781561315,0,0
Winona Forever,Cafe Food,4.3,Very Good,312,NZ$,50,3,Parnell,"Parnell, Auckland",Auckland,,148,-36.8529970894,174.7787559405,0,0
Little Bird Unbakery,"Healthy Food, Deli",4.3,Very Good,304,NZ$,60,3,Ponsonby,"Ponsonby, Auckland",Auckland,,148,-36.8518437440,174.7444012016,0,0
Deco Eatery,"Mediterranean, Cafe Food",4.3,Very Good,223,NZ$,90,4,Titirangi,"Titirangi, Auckland",Auckland,,148,-36.9381500288,174.6554611623,0,0
Petit Bocal,"French, Cafe Food",4.3,Very Good,224,NZ$,60,3,Sandringham,"Sandringham, Auckland",Auckland,,148,-36.8782354078,174.7406223044,0,0
Fukurou Patisserie,"Cafe Food, Desserts",4.3,Very Good,139,NZ$,20,1,Newmarket,"Newmarket, Auckland",Auckland,1050,148,-36.8700422507,174.7786898911,0,0
Oak Eatery,"Desserts, Healthy Food, Cafe Food",4.3,Very Good,85,NZ$,50,3,Royal Oak,"Royal Oak, Auckland",Auckland,,148,-36.9110046086,174.7749767080,0,1
Crave,Cafe Food,4.2,Very Good,116,NZ$,50,3,Morningside,"Morningside, Auckland",Auckland,1025,148,-36.8756293454,174.7363287583,0,0
Takapuna Beach Cafe and Store,"Cafe Food, Ice Cream, Salad",4.2,Very Good,453,NZ$,70,4,Takapuna,"Takapuna, Auckland",Auckland,,148,-36.7842542826,174.7753917798,0,0
Duck Duck Goose Eatery,Cafe Food,4.2,Very Good,92,NZ$,50,3,Rosedale,"Rosedale, Auckland",Auckland,,148,-36.7425662981,174.7284085304,0,0
The Tannery,"Ice Cream, Cafe Food",4.2,Very Good,139,NZ$,40,2,New Lynn,"New Lynn, Auckland",Auckland,0604,148,-36.9133890000,174.6908430000,0,0
The Store,"Bakery, French, Desserts",4.2,Very Good,244,NZ$,55,3,Britomart,"Britomart, Auckland",Auckland,1010,148,-36.8449324286,174.7688156739,0,0
St Heliers Bay Cafe & Bistro,"European, Cafe Food",4.2,Very Good,221,NZ$,90,4,St Heliers,"St Heliers, Auckland",Auckland,,148,-36.8509852295,174.8568085581,0,0
Revive Cafe,Healthy Food,4.2,Very Good,174,NZ$,30,2,Lorne Street,"Lorne Street, Auckland",Auckland,1010,148,-36.8506890397,174.7655782476,0,0
Raw Power Cafe,"Healthy Food, Cafe Food, Vegan",4.2,Very Good,134,NZ$,35,2,Vulcan Lane,"Vulcan Lane, Auckland",Auckland,1010,148,-36.8470100000,174.7665050000,0,0
Bestie,Cafe Food,4.2,Very Good,89,NZ$,55,3,Karangahape Road,"Karangahape Road, Auckland",Auckland,,148,-36.8576186131,174.7603067011,0,0
Little Bird Unbakery,"Healthy Food, Cafe Food, Vegan",4.2,Very Good,118,NZ$,50,3,Britomart,"Britomart, Auckland",Auckland,,148,-36.8454950696,174.7675349191,0,0
Remedy Coffee,Cafe Food,4.2,Very Good,107,NZ$,40,2,Wellesley Street West,"Wellesley Street West, Auckland",Auckland,1010,148,-36.8511652500,174.7643591836,0,0
Misters,International,4.2,Very Good,118,NZ$,40,2,Wyndham Street,"Wyndham Street, Auckland",Auckland,1010,148,-36.8472638889,174.7655333333,0,0
Rosebank Coffee & Kitchen,Cafe Food,4.2,Very Good,79,NZ$,60,3,Avondale,"Avondale, Auckland",Auckland,,148,-36.8838730000,174.6821060000,0,0
Fact-Tree Cafe,Cafe Food,4.1,Very Good,279,NZ$,50,3,Sunnynook,"Sunnynook, Auckland",Auckland,,148,-36.7548850483,174.7406943888,0,0
MELBA,Cafe Food,4.1,Very Good,258,NZ$,45,3,Manukau,"Manukau, Auckland",Auckland,,148,-36.9899722606,174.8803811520,0,0
Bambina,"Healthy Food, Cafe Food",4.1,Very Good,187,NZ$,50,3,Newmarket,"Newmarket, Auckland",Auckland,1023,148,-36.8689602419,174.7756643593,0,0
Mezze Bar,"Spanish, Mediterranean, Middle Eastern",4.1,Very Good,254,NZ$,80,4,Durham Street East,"Durham Street East, Auckland",Auckland,1010,148,-36.8485563861,174.7659118474,0,0
Hello Friends + Allies,Cafe Food,4.1,Very Good,269,NZ$,50,3,Epsom,"Epsom, Auckland",Auckland,,148,-36.8834317120,174.7854899615,0,1
Mondays Wholefoods,"Healthy Food, Desserts, Cafe Food",4.1,Very Good,226,NZ$,40,2,Kingsland,"Kingsland, Auckland",Auckland,1021,148,-36.8724272292,174.7436139733,0,0
L'assiette,"French, Cafe Food",4.1,Very Good,152,NZ$,55,3,Britomart,"Britomart, Auckland",Auckland,,148,-36.8446590218,174.7706828266,0,0
Little King Cafe,Cafe Food,4.1,Very Good,224,NZ$,50,3,Milford,"Milford, Auckland",Auckland,,148,-36.7736329924,174.7667802125,0,0
Black & Gold - Coffee and Eatery,Cafe Food,4.1,Very Good,165,NZ$,45,3,Rosedale,"Rosedale, Auckland",Auckland,,148,-36.7430974515,174.7252539173,0,0
The Candy Shop,"European, Cafe Food",4.1,Very Good,76,NZ$,60,3,Newmarket,"Newmarket, Auckland",Auckland,,148,-36.8679020000,174.7769480000,0,0
Twisted Tomato,"European, Salad, Cafe Food",4.1,Very Good,159,NZ$,55,3,Pt Chevalier,"Pt Chevalier, Auckland",Auckland,,148,-36.8662425461,174.7070698813,0,0
Orphan's Kitchen,"Cafe Food, European",4.1,Very Good,162,NZ$,80,4,Ponsonby,"Ponsonby, Auckland",Auckland,,148,-36.8571837559,174.7477211058,0,0
Honey Cafe,Cafe Food,4.1,Very Good,140,NZ$,55,3,Takapuna,"Takapuna, Auckland",Auckland,,148,-36.7893906544,174.7706539929,0,0
Meadow,"Cafe Food, European, Pizza",4.1,Very Good,156,NZ$,100,4,Meadowbank,"Meadowbank, Auckland",Auckland,,148,-36.8763288098,174.8262347281,0,0
Fresh,"Desserts, Healthy Food, Salad, Cafe Food",4.1,Very Good,157,NZ$,45,3,High Street,"High Street, Auckland",Auckland,1010,148,-36.8488721696,174.7660620511,0,0
Kokako,Cafe Food,4.1,Very Good,137,NZ$,45,3,Grey Lynn,"Grey Lynn, Auckland",Auckland,1021,148,-36.8655303822,174.7378425300,0,0
Villa Maria Vineyard Cafe,"European, Cafe Food",4.1,Very Good,93,NZ$,100,4,Auckland Airport,"Auckland Airport, Auckland",Auckland,,148,-36.9810896615,174.7824097797,0,0
Little and Friday Cafe,"Bakery, Cafe Food, Desserts",4.1,Very Good,183,NZ$,45,3,Belmont,"Belmont, Auckland",Auckland,,148,-36.8039314128,174.7835463658,0,0
Scarecrow,"European, Mediterranean",4.1,Very Good,136,NZ$,90,4,Victoria Street East,"Victoria Street East, Auckland",Auckland,1010,148,-36.8497755125,174.7669032589,0,0
Fika With Me,Cafe Food,4.1,Very Good,106,NZ$,40,2,Birkenhead,"Birkenhead, Auckland",Auckland,0626,148,-36.8126022006,174.7264247015,0,0
Howick Village Cafe,Cafe Food,4.1,Very Good,88,NZ$,60,3,Howick,"Howick, Auckland",Auckland,2014,148,-36.8950092196,174.9303922802,0,0
Okra Espresso Lounge,"European, Asian, Cafe Food",4.1,Very Good,108,NZ$,45,3,Sandringham,"Sandringham, Auckland",Auckland,1025,148,-36.8778875625,174.7408181056,0,0
La Cigale Bistro & Cafe,"French, Cafe Food",4.1,Very Good,72,NZ$,50,3,Parnell,"Parnell, Auckland",Auckland,,148,-36.8540854945,174.7837746888,0,0
L'Atelier Du Fromage,"French, Bakery, Cafe Food",4.1,Very Good,46,NZ$,45,3,Newmarket,"Newmarket, Auckland",Auckland,1023,148,-36.8673017938,174.7734998167,0,0
Harlan Pepper Food Co.,Cafe Food,4.1,Very Good,24,NZ$,40,2,Kingsland,"Kingsland, Auckland",Auckland,1021,148,-36.8681378622,174.7514406591,0,0
Mellow,"Ice Cream, Desserts, Cafe Food",4.0,Very Good,302,NZ$,35,2,High Street,"High Street, Auckland",Auckland,1010,148,-36.8481201358,174.7664479539,0,0
The Block Cafe,Cafe Food,4.0,Very Good,281,NZ$,60,3,Blockhouse Bay,"Blockhouse Bay, Auckland",Auckland,0600,148,-36.9234766525,174.7018482909,0,0
Tasca,"Spanish, Mediterranean, Cafe Food",4.0,Very Good,157,NZ$,45,3,Mt Eden,"Mt Eden, Auckland",Auckland,1024,148,-36.8789501352,174.7500747442,0,0
Corelli's,Kiwi,4.0,Very Good,189,NZ$,65,3,Devonport,"Devonport, Auckland",Auckland,0624,148,-36.8293807584,174.7979954258,0,0
The Butcher's Son,Cafe Food,4.0,Very Good,73,NZ$,50,3,Herne Bay,"Herne Bay, Auckland",Auckland,,148,-36.8456313000,174.7354352000,0,0
Red Shed Palazzo,"Kiwi, Cafe Food",4.0,Very Good,96,NZ$,40,2,Karaka,"Karaka, Auckland",Auckland,,148,-37.1181877625,174.9349242076,0,0
Bread & Butter,"Bakery, Cafe Food",4.0,Very Good,159,NZ$,45,3,Grey Lynn,"Grey Lynn, Auckland",Auckland,1021,148,-36.8559204831,174.7326370329,0,0
Wise Cicada,"Healthy Food, Cafe Food, Vegan",4.0,Very Good,158,NZ$,40,2,Newmarket,"Newmarket, Auckland",Auckland,1023,148,-36.8670531441,174.7788360715,0,0
Matakana Market Kitchen,"European, Cafe Food",4.0,Very Good,156,NZ$,100,4,Matakana,"Matakana, Auckland",Auckland,,148,-36.3517270245,174.7180213407,0,0
Humbug Cafe,Cafe Food,4.0,Very Good,178,NZ$,45,3,Glen Eden,"Glen Eden, Auckland",Auckland,,148,-36.9148967121,174.6647996083,0,0
The Lunchroom,"Cafe Food, Deli",4.0,Very Good,68,NZ$,0,1,Queen Street,"Queen Street, Auckland",Auckland,,148,-36.8450190923,174.7663882747,0,1
Atomic,Cafe Food,4.0,Very Good,84,NZ$,40,2,Kingsland,"Kingsland, Auckland",Auckland,,148,-36.8722134639,174.7462381795,0,0
The Botanist,"European, Cafe Food",4.0,Very Good,90,NZ$,50,3,"City Works Depot, Auckland CBD","City Works Depot, Auckland CBD, Auckland",Auckland,1010,148,-36.8498847071,174.7582849860,0,0
The Baker's Cottage,"Bakery, Cafe Food",4.0,Very Good,101,NZ$,20,1,Kingsland,"Kingsland, Auckland",Auckland,,148,-36.8704250002,174.7482937574,0,0
Remuera Local Cafe Bistro,"European, Cafe Food",4.0,Very Good,75,NZ$,90,4,Remuera,"Remuera, Auckland",Auckland,1050,148,-36.8809414134,174.7980279476,0,0
Revive Cafe,"Healthy Food, Salad",4.0,Very Good,109,NZ$,30,2,Wyndham Street,"Wyndham Street, Auckland",Auckland,1010,148,-36.8475027811,174.7648607567,0,0
Scullery,Cafe Food,4.0,Very Good,69,NZ$,50,3,Karangahape Road,"Karangahape Road, Auckland",Auckland,1010,148,-36.8583160964,174.7604552284,0,0
The Glasshouse Cafe,"Cafe Food, Asian",4.0,Very Good,60,NZ$,45,3,Northcote,"Northcote, Auckland",Auckland,0627,148,-36.7934207828,174.7484248504,0,0
Starbucks,Cafe Food,4.0,Very Good,61,NZ$,25,1,Symonds Street,"Symonds Street, Auckland",Auckland,1010,148,-36.8548962215,174.7675201669,0,0
Cafe Lincoln,Cafe Food,4.0,Very Good,45,NZ$,40,2,Henderson,"Henderson, Auckland",Auckland,0610,148,-36.8641081805,174.6294366941,0,0
Tart Bakery,"Bakery, Cafe Food",4.0,Very Good,68,NZ$,25,1,Grey Lynn,"Grey Lynn, Auckland",Auckland,1021,148,-36.8650032962,174.7376661748,0,0
Chocolate Brown - Chocolaterie & Cafeteria,"Desserts, Cafe Food",4.0,Very Good,42,NZ$,45,3,Warkworth,"Warkworth, Auckland",Auckland,,148,-36.3996761845,174.6635155007,0,0
Mojo,Cafe Food,4.0,Very Good,37,NZ$,45,3,Durham Street East,"Durham Street East, Auckland",Auckland,1010,148,-36.8486749727,174.7650123015,0,0
Circus Circus,"European, Cafe Food",3.9,Good,589,NZ$,85,4,Mt Eden,"Mt Eden, Auckland",Auckland,1024,148,-36.8822855304,174.7620109096,0,0
Al's Deli,American,3.9,Good,530,NZ$,60,3,Queen Street,"Queen Street, Auckland",Auckland,1010,148,-36.8566748545,174.7624380514,0,0
Cereal Killa Cafe,Cafe Food,3.9,Good,288,NZ$,40,2,Mt Eden,"Mt Eden, Auckland",Auckland,1024,148,-36.8798260358,174.7497025877,0,0
Olaf's Artisan Bakery Cafe,"Bakery, European, Pizza, Mediterranean, Cafe Food",3.9,Good,256,NZ$,50,3,Mt Eden,"Mt Eden, Auckland",Auckland,1024,148,-36.8816201793,174.7626294941,0,0
Major Tom,Cafe Food,3.9,Good,109,NZ$,45,3,Rosedale,"Rosedale, Auckland",Auckland,,148,-36.7382500365,174.7272350639,0,0
Zomer,"Cafe Food, European, Pacific",3.9,Good,152,NZ$,65,3,Takapuna,"Takapuna, Auckland",Auckland,,148,-36.7886818024,174.7730290890,0,0
Bodrum Kitchen,"Mediterranean, Turkish, Greek, Cafe Food",3.9,Good,197,NZ$,85,4,"Lynn Mall, New Lynn","Lynn Mall, New Lynn, Auckland",Auckland,0600,148,-36.9072000000,174.6844510000,0,0
Shaky Isles,Cafe Food,3.9,Good,195,NZ$,45,3,Customs Street East,"Customs Street East, Auckland",Auckland,,148,-36.8450354591,174.7681974247,0,0
Devon on the Wharf,"Mediterranean, Turkish",3.9,Good,81,NZ$,80,4,Devonport,"Devonport, Auckland",Auckland,,148,-36.8328986493,174.7962617129,0,0
Jam Organic Cafe,Cafe Food,3.9,Good,164,NZ$,40,2,Takapuna,"Takapuna, Auckland",Auckland,0622,148,-36.7881085404,174.7732346132,0,0
Kings Garden Cafe,Cafe Food,3.9,Good,102,NZ$,40,2,Henderson,"Henderson, Auckland",Auckland,,148,-36.8569034179,174.6357529610,0,0
Woodworks,"European, Pizza, Cafe Food",3.9,Good,91,NZ$,75,4,Avondale,"Avondale, Auckland",Auckland,,148,-36.8919210000,174.6961530000,0,0
Massimo,Cafe Food,3.9,Good,95,NZ$,50,3,Newmarket,"Newmarket, Auckland",Auckland,1050,148,-36.8710791837,174.7782664374,0,0
Foxtrot Parlour Cafe,Cafe Food,3.9,Good,148,NZ$,60,3,"Ponsonby Central, Ponsonby","Ponsonby Central, Ponsonby, Auckland",Auckland,,148,-36.8565474275,174.7461188212,0,0
La Fourchette,"French, Cafe Food",3.9,Good,97,NZ$,90,4,St Heliers,"St Heliers, Auckland",Auckland,1071,148,-36.8511081049,174.8585469648,0,1
Puhoi Valley Cafe & Cheese Store,"Bakery, Cafe Food",3.9,Good,104,NZ$,60,3,Puhoi,"Puhoi, Auckland",Auckland,,148,-36.5042056659,174.6380660310,0,0
Bluebell's Cakery,Desserts,3.9,Good,110,NZ$,40,2,Hillsborough,"Hillsborough, Auckland",Auckland,1042,148,-36.9193906530,174.7580070421,0,0
Orvieto,Cafe Food,3.9,Good,138,NZ$,50,3,Three Kings,"Three Kings, Auckland",Auckland,1042,148,-36.8999483324,174.7570632398,0,0
The Sugar Club,"European, Fusion",4.9,Excellent,387,NZ$,120,4,"SKYCITY, Auckland CBD","SKYCITY, Auckland CBD, Auckland",Auckland,1010,148,-36.8483840000,174.7622410000,0,0
Sidart,"European, Contemporary, Kiwi",4.7,Excellent,223,NZ$,200,4,Ponsonby,"Ponsonby, Auckland",Auckland,,148,-36.8482236985,174.7441728786,0,0
The French Cafe,French,4.6,Excellent,279,NZ$,200,4,Eden Terrace,"Eden Terrace, Auckland",Auckland,,148,-36.8648380613,174.7608833760,0,0
The Grove,European,4.6,Excellent,224,NZ$,150,4,Wyndham Street,"Wyndham Street, Auckland",Auckland,1010,148,-36.8468239804,174.7636893019,0,0
Jervois Steak House,Steak,4.5,Excellent,281,NZ$,125,4,Herne Bay,"Herne Bay, Auckland",Auckland,1011,148,-36.8461207579,174.7420133650,0,0
The Grill by Sean Connolly - SKYCITY Grand Hotel,"Steak, Seafood, European",4.4,Very Good,369,NZ$,125,4,"SKYCITY Grand Hotel, Auckland CBD","SKYCITY Grand Hotel, Auckland CBD, Auckland",Auckland,1010,148,-36.8497044152,174.7615767270,0,0
One Tree Grill,"European, Kiwi, Steak",4.4,Very Good,233,NZ$,160,4,Epsom,"Epsom, Auckland",Auckland,1023,148,-36.9001255565,174.7727511451,0,0
Clooney,European,4.4,Very Good,184,NZ$,200,4,Freemans Bay,"Freemans Bay, Auckland",Auckland,1010,148,-36.8496478056,174.7547709569,0,0
Soul Bar & Bistro,"European, Seafood",4.3,Very Good,335,NZ$,150,4,Viaduct Harbour,"Viaduct Harbour, Auckland",Auckland,1010,148,-36.8432705076,174.7633030638,0,0
Euro Bar and Restaurant,European,4.3,Very Good,376,NZ$,110,4,Princes Wharf,"Princes Wharf, Auckland",Auckland,1010,148,-36.8410144871,174.7635860369,0,0
Lava Dining - Sofitel Auckland,"European, French, Kiwi",4.3,Very Good,87,NZ$,150,4,"Sofitel Hotel, Auckland CBD","Sofitel Hotel, Auckland CBD, Auckland",Auckland,1010,148,-36.8453976742,174.7578789666,0,0
Casita Miro,"Spanish, Mediterranean",4.3,Very Good,103,NZ$,95,4,Waiheke Island,"Waiheke Island, Auckland",Auckland,,148,-36.7892190806,175.0676737726,0,0
Mudbrick Vineyard & Restaurant,European,4.3,Very Good,136,NZ$,160,4,Waiheke Island,"Waiheke Island, Auckland",Auckland,,148,-36.7919757605,175.0004763901,0,0
Cocoro,Japanese,4.3,Very Good,142,NZ$,120,4,Ponsonby,"Ponsonby, Auckland",Auckland,,148,-36.8565074555,174.7428518906,0,0
FISH Restaurant,"Seafood, European",4.2,Very Good,218,NZ$,100,4,"Hilton Hotel, Auckland CBD","Hilton Hotel, Auckland CBD, Auckland",Auckland,,148,-36.8402521797,174.7653958574,0,0
Sails Restaurant,"Seafood, Kiwi",4.2,Very Good,191,NZ$,150,4,Westhaven,"Westhaven, Auckland",Auckland,1011,148,-36.8386969525,174.7428730130,0,0
Cibo,"European, Kiwi",4.2,Very Good,147,NZ$,160,4,Parnell,"Parnell, Auckland",Auckland,1052,148,-36.8525168663,174.7825717181,0,0
Kazuya,"Japanese, European",4.2,Very Good,93,NZ$,200,4,Eden Terrace,"Eden Terrace, Auckland",Auckland,,148,-36.8636143468,174.7609584779,0,0
Bracu,"European, Mediterranean",4.1,Very Good,123,NZ$,140,4,Bombay,"Bombay, Auckland",Auckland,,148,-37.1837020000,175.0191440000,0,0
DeBretts Kitchen - Hotel DeBrett,"Contemporary, Kiwi",4.1,Very Good,115,NZ$,90,4,"Hotel DeBrett, Auckland CBD","Hotel DeBrett, Auckland CBD, Auckland",Auckland,1010,148,-36.8467950038,174.7669595852,0,0
"The Lobby Lounge - Cordis, Auckland Hotel","European, Coffee and Tea",4.1,Very Good,57,NZ$,150,4,"Cordis, Auckland Hotel, Auckland CBD","Cordis, Auckland Hotel, Auckland CBD, Auckland",Auckland,,148,-36.8573881740,174.7636249289,0,0
Orbit 360° Dining,British,4.0,Very Good,427,NZ$,150,4,"SKYCITY, Auckland CBD","SKYCITY, Auckland CBD, Auckland",Auckland,1010,148,-36.8483840000,174.7622410000,0,0
Non Solo Pizza,Italian,4.0,Very Good,225,NZ$,90,4,Parnell,"Parnell, Auckland",Auckland,,148,-36.8562952553,174.7808929905,0,0
Mikano,European,4.0,Very Good,209,NZ$,140,4,Quay Street East,"Quay Street East, Auckland",Auckland,,148,-36.8473480000,174.7880840000,0,0
Aria Restaurant & Bar - Crowne Plaza,"European, Kiwi, Steak",4.0,Very Good,46,NZ$,120,4,Albert Street,"Albert Street, Auckland",Auckland,1010,148,-36.8498530000,174.7633260000,0,0
Wine Chambers,"Mediterranean, European",4.0,Very Good,75,NZ$,100,4,Shortland Street,"Shortland Street, Auckland",Auckland,1010,148,-36.8468805921,174.7672794387,0,0
Poderi Crisci Restaurant,Italian,4.0,Very Good,46,NZ$,110,4,Waiheke Island,"Waiheke Island, Auckland",Auckland,,148,-36.8165410000,175.1097610000,0,0
Grasshopper - Stamford Hotel,Thai,3.9,Good,152,NZ$,95,4,"Stamford Hotel, Auckland CBD","Stamford Hotel, Auckland CBD, Auckland",Auckland,1010,148,-36.8458410000,174.7649240000,0,1
Number 5,"Kiwi, French",3.9,Good,97,NZ$,140,4,Symonds Street,"Symonds Street, Auckland",Auckland,,148,-36.8574933337,174.7639843449,0,0
Harbourside Ocean Bar Grill Restaurant,Seafood,3.9,Good,87,NZ$,130,4,"Ferry Building, Auckland CBD","Ferry Building, Auckland CBD, Auckland",Auckland,1010,148,-36.8429520000,174.7669220000,0,0
Wellingtons Restaurant & Bar - Waipuna Hotel,"European, Continental",3.9,Good,51,NZ$,110,4,Mt Wellington,"Mt Wellington, Auckland",Auckland,,148,-36.9087524647,174.8462533951,0,0
Archive Bar and Bistro,European,3.8,Good,21,NZ$,110,4,Waiheke Island,"Waiheke Island, Auckland",Auckland,,148,-36.7920015359,175.0005028769,0,0
Parnell 149,"Kiwi, European, Grill",3.8,Good,49,NZ$,100,4,Parnell,"Parnell, Auckland",Auckland,,148,-36.8543207726,174.7796397284,0,0
Auckland's Waitakere Estate,European,3.8,Good,19,NZ$,140,4,Waiatarua,"Waiatarua, Auckland",Auckland,,148,-36.9227220000,174.5637550000,0,0
Botswana Butchery,Steak,3.7,Good,221,NZ$,120,4,"Ferry Building, Auckland CBD","Ferry Building, Auckland CBD, Auckland",Auckland,1010,148,-36.8435082337,174.7666588426,0,0
Vue Restaurant,European,3.7,Good,70,NZ$,130,4,"Mercure Hotel, Auckland CBD","Mercure Hotel, Auckland CBD, Auckland",Auckland,,148,-36.8446560704,174.7671091184,0,0
Hector's Restaurant - Heritage Auckland,"European, Continental",3.7,Good,69,NZ$,100,4,Hobson Street,"Hobson Street, Auckland",Auckland,1010,148,-36.8466541451,174.7618104145,0,0
Antoine's,"Kiwi, French",3.7,Good,54,NZ$,165,4,Parnell,"Parnell, Auckland",Auckland,,148,-36.8575311590,174.7815373913,0,0
Tapestry Dining - Pullman Auckland Hotel,"European, Kiwi",3.7,Good,31,NZ$,110,4,"Pullman Auckland Hotel, Auckland CBD","Pullman Auckland Hotel, Auckland CBD, Auckland",Auckland,1010,148,-36.8484072134,174.7701158747,0,0
Cable Bay Dining Room,"European, Kiwi",3.7,Good,51,NZ$,160,4,"Cable Bay Vineyard, Waiheke Island","Cable Bay Vineyard, Waiheke Island, Auckland",Auckland,,148,-36.7876974539,175.0001836941,0,0
The CUT Restaurant & Bar,European,3.6,Good,50,NZ$,120,4,"Rydges Auckland Hotel, Auckland CBD","Rydges Auckland Hotel, Auckland CBD, Auckland",Auckland,1010,148,-36.8471670000,174.7624910000,0,0
The Esplanade,European,3.6,Good,53,NZ$,105,4,Devonport,"Devonport, Auckland",Auckland,0624,148,-36.8324011254,174.7966345400,0,0
Portofino Cucina Italiana,Italian,3.6,Good,51,NZ$,90,4,Howick,"Howick, Auckland",Auckland,,148,-36.8961420719,174.9334784970,0,0
Ascension Osteria,Italian,3.6,Good,33,NZ$,120,4,Warkworth,"Warkworth, Auckland",Auckland,,148,-36.3729913497,174.6800550073,0,0
Veranda Cafe,"European, Mediterranean, Kiwi",3.6,Good,23,NZ$,120,4,Waiheke Island,"Waiheke Island, Auckland",Auckland,,148,-36.7969596569,175.0660178438,0,0
Dans le Noir? - Rydges,International,3.6,Good,17,NZ$,60,3,"Rydges Auckland Hotel, Auckland CBD","Rydges Auckland Hotel, Auckland CBD, Auckland",Auckland,,148,-36.8476959566,174.7625108063,0,0
Moxie,"Asian Fusion, French, British",3.6,Good,26,NZ$,80,4,Birkenhead,"Birkenhead, Auckland",Auckland,0626,148,-36.8179868236,174.7326343507,0,0
Thyme Restaurant - The Spencer on Byron Hotel,"European, Kiwi",3.5,Good,58,NZ$,120,4,Takapuna,"Takapuna, Auckland",Auckland,,148,-36.7907616199,174.7712749243,0,0
Tantalus Estate,European,3.5,Good,11,NZ$,120,4,Waiheke Island,"Waiheke Island, Auckland",Auckland,,148,-36.7995982011,175.0684841350,0,0
Pasture,Contemporary,3.5,Good,16,NZ$,360,4,Parnell,"Parnell, Auckland",Auckland,,148,-36.8561200757,174.7803699598,0,0
Monzù,Italian,3.4,Average,17,NZ$,85,4,Mt Eden,"Mt Eden, Auckland",Auckland,,148,-36.8799690000,174.7497060000,0,0
Portofino Cucina Italiana,Italian,3.3,Average,25,NZ$,90,4,Meadowbank,"Meadowbank, Auckland",Auckland,,148,-36.8726471627,174.8324376717,0,0
The Game Keepers Restaurant & Bar,European,3.3,Average,15,NZ$,120,4,Waimauku,"Waimauku, Auckland",Auckland,,148,-36.7644490000,174.4917690000,0,0
Acacia Restaurant & Garden Bar,"International, Kiwi",3.2,Average,44,NZ$,100,4,Ellerslie,"Ellerslie, Auckland",Auckland,1051,148,-36.8885145010,174.7991970554,0,0
Knights On Albert - Stamford Hotel,"European, Asian, Kiwi",3.2,Average,78,NZ$,110,4,"Stamford Hotel, Auckland CBD","Stamford Hotel, Auckland CBD, Auckland",Auckland,1010,148,-36.8457830000,174.7651100000,0,0
Vino Vino,"Steak, Seafood, European",3.1,Average,36,NZ$,90,4,Waiheke Island,"Waiheke Island, Auckland",Auckland,,148,-36.7827057047,175.0101108849,0,0
Faridas,"European, Cafe Food",3.1,Average,10,NZ$,100,4,Orewa,"Orewa, Auckland",Auckland,,148,-36.5942985522,174.6992381662,0,0
The Square Restaurant,"Kiwi, European",3.1,Average,10,NZ$,130,4,Auckland Airport,"Auckland Airport, Auckland",Auckland,,148,-37.0041500000,174.7832800000,0,0
The Grill - The Amora Hotel,"European, Seafood",3.1,Average,8,NZ$,120,4,Pitt Street,"Pitt Street, Auckland",Auckland,1010,148,-36.8554343764,174.7602118179,0,0
Lillius,European,3.0,Average,6,NZ$,200,4,Grafton,"Grafton, Auckland",Auckland,,148,-36.8640561416,174.7616229951,0,0
Te Maroro Restaurant,"Kiwi, European",3.0,Average,6,NZ$,110,4,"Jet Park Airport Hotel, Mangere","Jet Park Airport Hotel, Mangere, Auckland",Auckland,,148,-36.9789989518,174.7866459936,0,0
Seafood Paradise Restaurant And Bar,"Chinese, Seafood",2.7,Average,6,NZ$,95,4,Wynyard Quarter,"Wynyard Quarter, Auckland",Auckland,1010,148,-36.8411561612,174.7566022351,0,0
Grace Dining,"European, Contemporary",0,Not rated,2,NZ$,0,1,"Queen's Rise, Auckland CBD","Queen's Rise, Auckland CBD, Auckland",Auckland,,148,-36.8465400000,174.7657360000,0,0
Earthsong Lodge,"Mediterranean, Pacific",0,Not rated,1,NZ$,110,4,Great Barrier Island,"Great Barrier Island, Auckland",Auckland,,148,-36.2962800000,175.4939440000,0,0
Patisserie Vaniyé,"Desserts, Bakery, French",4.4,Very Good,177,NZ$,30,2,Parnell,"Parnell, Auckland",Auckland,,148,-36.8533930700,174.7796648741,0,0
Amano Bakery,Bakery,4.4,Very Good,93,NZ$,80,4,Britomart,"Britomart, Auckland",Auckland,1010,148,-36.8448481797,174.7706878558,0,0
La Voie Francaise,"Bakery, French",4.2,Very Good,103,NZ$,25,1,Balmoral,"Balmoral, Auckland",Auckland,1024,148,-36.8979615718,174.7439381853,0,0
La Couronne 皇家蛋糕工坊,"Bakery, Desserts, Coffee and Tea",4.1,Very Good,154,NZ$,25,1,Lorne Street,"Lorne Street, Auckland",Auckland,1010,148,-36.8497832930,174.7658655793,0,0
L'Atelier Du Fromage,"French, Bakery, Cafe Food",4.1,Very Good,46,NZ$,45,3,Newmarket,"Newmarket, Auckland",Auckland,1023,148,-36.8673017938,174.7734998167,0,0
The Baker's Cottage,"Bakery, Cafe Food",4.0,Very Good,101,NZ$,20,1,Kingsland,"Kingsland, Auckland",Auckland,,148,-36.8704250002,174.7482937574,0,0
Puhoi Valley Cafe & Cheese Store,"Bakery, Cafe Food",3.9,Good,104,NZ$,60,3,Puhoi,"Puhoi, Auckland",Auckland,,148,-36.5042056659,174.6380660310,0,0
Bread & Butter,"Cafe Food, Bakery",3.9,Good,83,NZ$,45,3,Milford,"Milford, Auckland",Auckland,0620,148,-36.7737363874,174.7673320770,0,0
Scratch Bakers Headquarters,"Bakery, Cafe Food",3.9,Good,60,NZ$,50,3,Victoria Street West,"Victoria Street West, Auckland",Auckland,1010,148,-36.8472124805,174.7594758868,0,0
Ed's Cake and Coffee House,"Bakery, Desserts",3.9,Good,69,NZ$,20,1,Mt Wellington,"Mt Wellington, Auckland",Auckland,,148,-36.9090511101,174.8320433870,0,0
Heights Bakery & Coffee Lounge,"Cafe Food, Bakery",3.9,Good,35,NZ$,35,2,Pakuranga,"Pakuranga, Auckland",Auckland,,148,-36.9151677231,174.8897081986,0,0
Uncle Tetsu,Bakery,3.8,Good,110,NZ$,30,2,Queen Street,"Queen Street, Auckland",Auckland,1010,148,-36.8511443237,174.7641043738,0,0
Bake & Beans,"Bakery, Indian",3.8,Good,69,NZ$,20,1,Mt Roskill,"Mt Roskill, Auckland",Auckland,,148,-36.9207474950,174.7366566584,0,0
Il Forno Bakery & Cafe,"Bakery, Cafe Food",3.8,Good,50,NZ$,40,2,Ponsonby,"Ponsonby, Auckland",Auckland,,148,-36.8573302288,174.7469764575,0,0
Wild Wheat,"Bakery, Cafe Food",3.8,Good,42,NZ$,25,1,Mt Eden,"Mt Eden, Auckland",Auckland,1024,148,-36.8883868588,174.7603157535,0,0
Richoux Patisserie,Bakery,3.8,Good,33,NZ$,30,2,Ellerslie,"Ellerslie, Auckland",Auckland,1051,148,-36.8980433490,174.8093502224,0,0
Muzza's Pies,"Bakery, Fast Food",3.8,Good,30,NZ$,20,1,Mt Albert,"Mt Albert, Auckland",Auckland,,148,-36.8927104833,174.7131434083,0,0
Voila,"Bakery, French, Cafe Food",3.7,Good,61,NZ$,40,2,Sandringham,"Sandringham, Auckland",Auckland,,148,-36.8927123603,174.7363998368,0,0
Pandoro Panetteria,Bakery,3.7,Good,42,NZ$,25,1,Queen Street,"Queen Street, Auckland",Auckland,1010,148,-36.8454537503,174.7662410885,0,0
Nata Portuguese Bakery,"Bakery, Portuguese",3.7,Good,41,NZ$,20,1,Symonds Street,"Symonds Street, Auckland",Auckland,,148,-36.8584293027,174.7633888945,0,0
OTT Patisserie,Bakery,3.7,Good,39,NZ$,30,2,Birkenhead,"Birkenhead, Auckland",Auckland,,148,-36.8124427578,174.7260300815,0,0
Hong Kong Bakery,Bakery,3.7,Good,29,NZ$,20,1,Mangere Bridge,"Mangere Bridge, Auckland",Auckland,2022,148,-36.9418370912,174.7867512703,0,0
Diehl's Bakery,Bakery,3.7,Good,21,NZ$,25,1,Glenfield,"Glenfield, Auckland",Auckland,,148,-36.7762094994,174.7356984392,0,0
Saigon Pasadena Bakery,"Bakery, Coffee and Tea",3.7,Good,21,NZ$,25,1,Pt Chevalier,"Pt Chevalier, Auckland",Auckland,,148,-36.8686989911,174.7163469717,0,0
Tasteful Bakehouse & Cafe,Bakery,3.7,Good,14,NZ$,25,1,Karangahape Road,"Karangahape Road, Auckland",Auckland,1010,148,-36.8582608345,174.7571728751,0,0
Bake & Beans,"Bakery, Indian",3.6,Good,38,NZ$,20,1,Hobson Street,"Hobson Street, Auckland",Auckland,1010,148,-36.8474837319,174.7620960698,0,0
Daily Bread,"Bakery, Cafe Food",3.6,Good,30,NZ$,40,2,Pt Chevalier,"Pt Chevalier, Auckland",Auckland,,148,-36.8706948281,174.7108313441,0,0
Paris Mt Eden Bakery,"Bakery, Coffee and Tea",3.6,Good,34,NZ$,25,1,Mt Eden,"Mt Eden, Auckland",Auckland,1024,148,-36.8822581763,174.7621641308,0,0
Young's Bakery,Bakery,3.6,Good,24,NZ$,25,1,Birkenhead,"Birkenhead, Auckland",Auckland,0626,148,-36.8123944417,174.7242061794,0,0
Wild Wheat,Bakery,3.6,Good,16,NZ$,25,1,Howick,"Howick, Auckland",Auckland,,148,-36.8953854089,174.9331174046,0,0
Little Bread & Butter,"Cafe Food, Bakery",3.5,Good,67,NZ$,40,2,"Ponsonby Central, Ponsonby","Ponsonby Central, Ponsonby, Auckland",Auckland,,148,-36.8565350871,174.7461339086,0,0
Well-done Bakery,"Bakery, Desserts",3.5,Good,27,NZ$,30,2,Mt Eden,"Mt Eden, Auckland",Auckland,1024,148,-36.8775552709,174.7505307198,0,0
Mr Bread,Bakery,3.5,Good,37,NZ$,15,1,Glenfield,"Glenfield, Auckland",Auckland,,148,-36.7809634835,174.7215994075,0,0
My Little Bakery,"Bakery, Desserts",3.5,Good,23,NZ$,30,2,Mt Albert,"Mt Albert, Auckland",Auckland,,148,-36.8843359872,174.7161565349,0,0
Greenwoods Kitchen,"Cafe Food, Bakery",3.5,Good,29,NZ$,40,2,Epsom,"Epsom, Auckland",Auckland,1023,148,-36.9002550558,174.7733365372,0,0
4&20,"Bakery, Coffee and Tea, Cafe Food",3.5,Good,24,NZ$,30,2,Remuera,"Remuera, Auckland",Auckland,1050,148,-36.8814834075,174.7976232693,0,0
Calum's Bakery Ltd,"Bakery, Coffee and Tea",3.5,Good,25,NZ$,20,1,Papakura,"Papakura, Auckland",Auckland,2110,148,-37.0538761751,174.9643185362,0,0
Pandoro Panetteria,Bakery,3.5,Good,17,NZ$,25,1,Parnell,"Parnell, Auckland",Auckland,,148,-36.8592547378,174.7828580439,0,0
Clendon Bakery,Bakery,3.5,Good,19,NZ$,25,1,"Clendon Shopping Centre, Clendon","Clendon Shopping Centre, Clendon, Auckland",Auckland,2103,148,-37.0329340000,174.8691680000,0,0
Devonport Stone Oven Bakery & Cafe,Bakery,3.4,Average,88,NZ$,50,3,Devonport,"Devonport, Auckland",Auckland,0624,148,-36.8310574727,174.7970633581,0,0
Classic Bakehouse,"Bakery, Desserts",3.4,Average,22,NZ$,40,2,Elliott Street,"Elliott Street, Auckland",Auckland,1010,148,-36.8497156835,174.7639347240,0,0
Classic Bakehouse,"Bakery, Coffee and Tea",3.4,Average,12,NZ$,30,2,Greenlane,"Greenlane, Auckland",Auckland,1050,148,-36.8889403307,174.7952874005,0,0
Paneton Bakery,"Bakery, French, Desserts, Cafe Food",3.4,Average,20,NZ$,30,2,Victoria Street West,"Victoria Street West, Auckland",Auckland,1010,148,-36.8477823487,174.7565516084,0,0
Brotzeit,"Bakery, German",3.4,Average,16,NZ$,20,1,Ponsonby,"Ponsonby, Auckland",Auckland,,148,-36.8474112910,174.7440957651,0,0
Meadowbank Bakery,Bakery,3.4,Average,16,NZ$,20,1,Meadowbank,"Meadowbank, Auckland",Auckland,,148,-36.8765012611,174.8258280382,0,0
Red Beach Bakehouse,Bakery,3.4,Average,16,NZ$,25,1,Red Beach,"Red Beach, Auckland",Auckland,,148,-36.6062540349,174.6985474974,0,0
Crafty Baker,Bakery,3.4,Average,15,NZ$,25,1,Glen Eden,"Glen Eden, Auckland",Auckland,,148,-36.9114616777,174.6549696475,0,0
Bondie Designer Cupcakes,"Bakery, Desserts",3.3,Average,24,NZ$,25,1,Rosedale,"Rosedale, Auckland",Auckland,,148,-36.7427009003,174.7278268263,0,0
Eves Pantry,"Bakery, Fast Food",3.3,Average,25,NZ$,35,2,Epsom,"Epsom, Auckland",Auckland,1023,148,-36.8925992048,174.7748147696,0,0
Swiss Cafe & Bakery,"Cafe Food, Bakery",3.3,Average,18,NZ$,45,3,Milford,"Milford, Auckland",Auckland,,148,-36.7729519250,174.7668415681,0,0
Bake & Beans,"Bakery, Indian",3.3,Average,12,NZ$,20,1,Papatoetoe,"Papatoetoe, Auckland",Auckland,,148,-36.9677792213,174.8616724089,0,0
La Noisette Chocolats & Patisseries,"Bakery, Desserts, French",3.3,Average,13,NZ$,30,2,Karangahape Road,"Karangahape Road, Auckland",Auckland,1010,148,-36.8591718460,174.7540906817,0,0
Mint Cakery,Bakery,3.3,Average,12,NZ$,30,2,Pt Chevalier,"Pt Chevalier, Auckland",Auckland,,148,-36.8648785654,174.7059339657,0,0
Sylvias' Bakery,"Bakery, German, Coffee and Tea",3.3,Average,11,NZ$,25,1,Remuera,"Remuera, Auckland",Auckland,1050,148,-36.8810047044,174.8116391525,0,0
Hill Park Bakery,"Bakery, Fast Food",3.3,Average,13,NZ$,25,1,Manurewa,"Manurewa, Auckland",Auckland,2102,148,-37.0134270083,174.9004678801,0,0
Ranui Bakery,Bakery,3.3,Average,10,NZ$,20,1,Ranui,"Ranui, Auckland",Auckland,,148,-36.8638702501,174.6017660201,0,0
Lime,"Bakery, Cafe Food",3.3,Average,9,NZ$,35,2,Otahuhu,"Otahuhu, Auckland",Auckland,1062,148,-36.9466453593,174.8453960940,0,0
Herne Bay Bakery,"Bakery, Coffee and Tea",3.3,Average,9,NZ$,20,1,Herne Bay,"Herne Bay, Auckland",Auckland,1011,148,-36.8454945329,174.7359522432,0,0
Pukeko's,"Bakery, Cafe Food",3.3,Average,8,NZ$,30,2,Mairangi Bay,"Mairangi Bay, Auckland",Auckland,,148,-36.7389306061,174.7532625496,0,0
Green Bay Bakery,Bakery,3.3,Average,7,NZ$,25,1,Green Bay,"Green Bay, Auckland",Auckland,,148,-36.9309522531,174.6797887981,0,0
La Petite Fourchette,"Bakery, French, Desserts",3.2,Average,9,NZ$,20,1,Wynyard Quarter,"Wynyard Quarter, Auckland",Auckland,,148,-36.8422950000,174.7553270000,0,0
Hollywood Bakery & Espresso,"Bakery, Cafe Food",3.2,Average,15,NZ$,40,2,Mt Wellington,"Mt Wellington, Auckland",Auckland,,148,-36.8907321149,174.8346082494,0,0
Ouya Kitchen,"Bakery, Desserts",3.2,Average,10,NZ$,25,1,"Aviemore Star Village, Highland Park","Aviemore Star Village, Highland Park, Auckland",Auckland,,148,-36.9022197719,174.9044697359,0,0
Kolhen's Kitchen,"Bakery, Desserts",3.2,Average,16,NZ$,30,2,Kumeu,"Kumeu, Auckland",Auckland,,148,-36.7762296407,174.5563689619,0,0
The Bake Pod,Bakery,3.2,Average,10,NZ$,45,3,Karangahape Road,"Karangahape Road, Auckland",Auckland,1010,148,-36.8589494593,174.7543367744,0,0
Baker Express,Bakery,3.2,Average,11,NZ$,25,1,Panmure,"Panmure, Auckland",Auckland,1072,148,-36.9010339238,174.8568940535,0,0
Hollywood Bakery & Espresso,Bakery,3.2,Average,10,NZ$,40,2,Karangahape Road,"Karangahape Road, Auckland",Auckland,1010,148,-36.8577653534,174.7591087595,0,0
The Bakery,"Bakery, Coffee and Tea",3.2,Average,11,NZ$,25,1,"Highland Park Shopping Centre, Highland Park","Highland Park Shopping Centre, Highland Park, Auckland",Auckland,,148,-36.8987506517,174.9074744806,0,0
Ace Bakehouse,"Bakery, Coffee and Tea",3.2,Average,9,NZ$,20,1,Epsom,"Epsom, Auckland",Auckland,1023,148,-36.8832313862,174.7853799909,0,0
Pandoro Panetteria,"Bakery, Cafe Food",3.2,Average,10,NZ$,25,1,Mt Eden,"Mt Eden, Auckland",Auckland,1024,148,-36.8777818945,174.7511429340,0,0
Bucklands Beach Bakery,Bakery,3.2,Average,10,NZ$,20,1,Bucklands Beach,"Bucklands Beach, Auckland",Auckland,2014,148,-36.8803248602,174.9116738141,0,0
Baker & Co.,"Bakery, Desserts",3.2,Average,10,NZ$,40,2,Glen Innes,"Glen Innes, Auckland",Auckland,1072,148,-36.8695599889,174.8747066036,0,0
Mairangi Bay Bakery,"Bakery, Fast Food",3.2,Average,11,NZ$,15,1,Mairangi Bay,"Mairangi Bay, Auckland",Auckland,,148,-36.7394822042,174.7534741089,0,0
Hollywood Bakery & Espresso,"Bakery, Cafe Food",3.2,Average,10,NZ$,40,2,High Street,"High Street, Auckland",Auckland,1010,148,-36.8487830957,174.7662501410,0,0
Danny's Kiwi Bakery,"Bakery, Coffee and Tea",3.2,Average,11,NZ$,20,1,Pahurehure,"Pahurehure, Auckland",Auckland,2113,148,-37.0673230000,174.9308230000,0,0
Top Well Bakery,Bakery,3.2,Average,9,NZ$,20,1,"Glenmall Place Shops, Glen Eden","Glenmall Place Shops, Glen Eden, Auckland",Auckland,,148,-36.9111104988,174.6513604000,0,0
Parrs Bakery & Cafe,Bakery,3.2,Average,9,NZ$,25,1,Henderson,"Henderson, Auckland",Auckland,,148,-36.9062956995,174.6267068759,0,0
Wild Wheat,Bakery,3.2,Average,5,NZ$,25,1,Belmont,"Belmont, Auckland",Auckland,0622,148,-36.8128864589,174.7920539975,0,0
Danny's Kiwi Bakery,"Bakery, Coffee and Tea, Fast Food",3.2,Average,6,NZ$,25,1,Patumahoe,"Patumahoe, Auckland",Auckland,,148,-37.1874040000,174.8282480000,0,0
Whenuapai Bakehouse & Cafe,"Bakery, Cafe Food",3.2,Average,7,NZ$,20,1,Whenuapai,"Whenuapai, Auckland",Auckland,,148,-36.7932768725,174.6157785505,0,0
Mamata Bakehouse,Bakery,3.1,Average,22,NZ$,25,1,Grey Lynn,"Grey Lynn, Auckland",Auckland,1021,148,-36.8588426920,174.7303353623,0,0
Caffe Greco,"Bakery, Cafe Food",3.1,Average,8,NZ$,35,2,Parnell,"Parnell, Auckland",Auckland,,148,-36.8510995198,174.7823568061,0,0
Classic Bakehouse,"Bakery, Desserts",3.1,Average,7,NZ$,40,2,Manukau,"Manukau, Auckland",Auckland,2104,148,-36.9888552639,174.8818489909,0,0
BreadNButter Home Cookery,"Bakery, Filipino",3.1,Average,11,NZ$,15,1,Onehunga,"Onehunga, Auckland",Auckland,1061,148,-36.9212294335,174.7852210701,0,0
Target Bakehouse,"Bakery, Coffee and Tea",3.1,Average,8,NZ$,20,1,Te Atatu South,"Te Atatu South, Auckland",Auckland,,148,-36.8658721144,174.6458474547,0,0
Golden Steak Bakery,"Bakery, Fast Food",3.1,Average,7,NZ$,25,1,Panmure,"Panmure, Auckland",Auckland,1072,148,-36.8995461583,174.8524670675,0,0
Pecks Pantry & Patisserie,Bakery,3.1,Average,5,NZ$,25,1,Henderson,"Henderson, Auckland",Auckland,,148,-36.8832801939,174.6154020354,0,0
Top Well Bakery,Bakery,3.1,Average,7,NZ$,30,2,Te Atatu Peninsula,"Te Atatu Peninsula, Auckland",Auckland,,148,-36.8433147794,174.6524269134,0,0
Ceramco Park Bakery,"Bakery, Fast Food",3.1,Average,8,NZ$,15,1,Glen Eden,"Glen Eden, Auckland",Auckland,,148,-36.9217178018,174.6478312835,0,0
Magnolia Kitchen Sweet Cafe,Bakery,3.1,Average,5,NZ$,30,2,Silverdale,"Silverdale, Auckland",Auckland,,148,-36.6168516478,174.6771686152,0,0
Mt Richmond Bakery & Takeaways,"Bakery, Fast Food, Coffee and Tea",3.1,Average,7,NZ$,25,1,Mt Wellington,"Mt Wellington, Auckland",Auckland,,148,-36.9298215258,174.8423953727,0,0
Hollywood Bakery & Espresso,Bakery,3.1,Average,10,NZ$,40,2,Albany,"Albany, Auckland",Auckland,,148,-36.7303197343,174.7046019137,0,0
Bakehouse Cafe,"Bakery, Ice Cream, Cafe Food",3.1,Average,11,NZ$,30,2,Kumeu,"Kumeu, Auckland",Auckland,,148,-36.7730593493,174.5500282198,0,0
La Patisserie,Bakery,3.1,Average,5,NZ$,20,1,Matakana,"Matakana, Auckland",Auckland,,148,-36.3512644631,174.7163724527,0,0
Classic Bakehouse,"Bakery, Desserts",3.1,Average,8,NZ$,40,2,New Lynn,"New Lynn, Auckland",Auckland,,148,-36.9088780000,174.6793160000,0,0
Busy Oven Bakery,Bakery,3.1,Average,7,NZ$,20,1,Grey Lynn,"Grey Lynn, Auckland",Auckland,1021,148,-36.8553705277,174.7388436645,0,0
Gourmet Gannet Kitchen,"Bakery, Fast Food",3.1,Average,5,NZ$,20,1,Huapai,"Huapai, Auckland",Auckland,,148,-36.7724019103,174.5460005477,0,0
Union Bakery,"Bakery, Coffee and Tea",3.1,Average,11,NZ$,20,1,Howick,"Howick, Auckland",Auckland,2014,148,-36.9063302835,174.9272017926,0,0
St Heliers Home Cookery,"Bakery, Coffee and Tea",3.1,Average,10,NZ$,25,1,St Heliers,"St Heliers, Auckland",Auckland,,148,-36.8515647278,174.8577775061,0,0
Point England Bakery,Bakery,3.1,Average,8,NZ$,25,1,Pt England,"Pt England, Auckland",Auckland,1072,148,-36.8826365738,174.8650959134,0,0
The Garden Shed,"Kiwi, European",4.3,Very Good,430,NZ$,90,4,Mt Eden,"Mt Eden, Auckland",Auckland,1024,148,-36.8825700661,174.7622258216,0,0
Scarlett Slimms and Lucky,"American, Kiwi",4.1,Very Good,163,NZ$,55,3,Mt Eden,"Mt Eden, Auckland",Auckland,1024,148,-36.8827368716,174.7621128336,0,0
The Occidental Belgian Beer Cafe,"European, Kiwi, Seafood",3.9,Good,217,NZ$,100,4,Vulcan Lane,"Vulcan Lane, Auckland",Auckland,1010,148,-36.8475290745,174.7664670646,0,0
The Elephant Wrestler,European,3.9,Good,199,NZ$,90,4,Takapuna,"Takapuna, Auckland",Auckland,,148,-36.7847037860,174.7732191905,0,0
Der Metz,German,3.9,Good,132,NZ$,90,4,Kohimarama,"Kohimarama, Auckland",Auckland,,148,-36.8505927242,174.8422059417,0,0
Deep Creek Brews & Eats,"American, European",3.9,Good,182,NZ$,80,4,Browns Bay,"Browns Bay, Auckland",Auckland,,148,-36.7171187504,174.7431455925,0,0
Little Easy,"American, Fast Food",3.9,Good,117,NZ$,85,4,Ponsonby,"Ponsonby, Auckland",Auckland,,148,-36.8537450510,174.7453812137,0,0
Goode Brothers,Italian,3.8,Good,242,NZ$,80,4,"Lynn Mall, New Lynn","Lynn Mall, New Lynn, Auckland",Auckland,,148,-36.9078600000,174.6852190000,0,0
The Bluestone Room,European,3.8,Good,87,NZ$,80,4,Durham Street West,"Durham Street West, Auckland",Auckland,1010,148,-36.8472980683,174.7648319230,0,0
The Landing - By The Riverhead,Kiwi,3.8,Good,135,NZ$,90,4,Riverhead,"Riverhead, Auckland",Auckland,0820,148,-36.7592410000,174.5974190000,0,0
Goode Brothers,Italian,3.8,Good,71,NZ$,90,4,NorthWest Shopping Centre,"NorthWest Shopping Centre, Auckland",Auckland,,148,-36.8183770806,174.6107504144,0,0
The Hangar,"European, Grill, Pizza",3.8,Good,74,NZ$,100,4,Henderson,"Henderson, Auckland",Auckland,,148,-36.8573114502,174.6368312091,0,0
46 & York,"European, Pub Food, Kiwi, Finger Food",3.8,Good,70,NZ$,70,4,Parnell,"Parnell, Auckland",Auckland,,148,-36.8517718438,174.7781987116,0,0
Mayfield Sportshouse,European,3.8,Good,49,NZ$,60,3,Wairau Valley,"Wairau Valley, Auckland",Auckland,,148,-36.7701333266,174.7365054488,0,1
Jack Tar,European,3.7,Good,411,NZ$,80,4,Wynyard Quarter,"Wynyard Quarter, Auckland",Auckland,1010,148,-36.8410426610,174.7575929761,0,0
Sweat Shop Brew Kitchen,"American, Steak, Pizza, Finger Food",3.7,Good,127,NZ$,80,4,Freemans Bay,"Freemans Bay, Auckland",Auckland,1010,148,-36.8497092445,174.7566555440,0,0
The Empire,"European, Pizza",3.7,Good,70,NZ$,100,4,Victoria Street West,"Victoria Street West, Auckland",Auckland,1010,148,-36.8479001317,174.7600656375,0,0
Galbraith's Alehouse,European,3.7,Good,78,NZ$,80,4,Eden Terrace,"Eden Terrace, Auckland",Auckland,,148,-36.8659786036,174.7611502558,0,0
16 Tun,"European, American",3.7,Good,61,NZ$,70,4,Wynyard Quarter,"Wynyard Quarter, Auckland",Auckland,1010,148,-36.8414942459,174.7575098276,0,0
Brothers Beer,"Finger Food, Pizza",3.7,Good,53,NZ$,60,3,"City Works Depot, Auckland CBD","City Works Depot, Auckland CBD, Auckland",Auckland,1010,148,-36.8504875549,174.7588241100,0,0
Father Ted's Irish Bar,"Steak, Irish",3.7,Good,55,NZ$,70,4,Wellesley Street West,"Wellesley Street West, Auckland",Auckland,1010,148,-36.8506970884,174.7640208900,0,0
De Post Belgian Beer Cafe,"European, Finger Food",3.6,Good,181,NZ$,90,4,Mt Eden,"Mt Eden, Auckland",Auckland,1024,148,-36.8824306142,174.7622204572,0,0
The Zookeeper's Son,"Kiwi, European",3.6,Good,143,NZ$,100,4,Royal Oak,"Royal Oak, Auckland",Auckland,1023,148,-36.9120500998,174.7752419114,0,0
The Paddington,"European, Pizza",3.6,Good,76,NZ$,100,4,Parnell,"Parnell, Auckland",Auckland,,148,-36.8509084993,174.7822136432,0,0
Hurstmere Road - Mac's Brewbar,"European, Finger Food, International",3.6,Good,89,NZ$,100,4,Takapuna,"Takapuna, Auckland",Auckland,,148,-36.7852126291,174.7730991617,0,0
Brew On Quay,"Finger Food, Kiwi, Fish and Chips",3.6,Good,74,NZ$,85,4,Britomart,"Britomart, Auckland",Auckland,,148,-36.8449026464,174.7708655521,0,0
Revelry,European,3.6,Good,66,NZ$,80,4,Ponsonby,"Ponsonby, Auckland",Auckland,,148,-36.8573833452,174.7482598946,0,0
Vultures' Lane,"Kiwi, American",3.6,Good,33,NZ$,90,4,Vulcan Lane,"Vulcan Lane, Auckland",Auckland,1010,148,-36.8474515359,174.7664117441,0,0
The Oakroom,Finger Food,3.6,Good,26,NZ$,75,4,"Victoria Park Market, Freemans Bay","Victoria Park Market, Freemans Bay, Auckland",Auckland,,148,-36.8488818282,174.7551005334,0,0
The Flying Moa,"European, Kiwi",3.5,Good,171,NZ$,100,4,Mt Wellington,"Mt Wellington, Auckland",Auckland,1072,148,-36.8901011607,174.8337606713,0,0
The Lumsden Freehouse,"American, Pizza",3.5,Good,127,NZ$,80,4,Newmarket,"Newmarket, Auckland",Auckland,1023,148,-36.8674664868,174.7776659578,0,0
Neighbourhood Brewbar - Mac's Brewbar,"European, Mediterranean",3.5,Good,76,NZ$,100,4,Kingsland,"Kingsland, Auckland",Auckland,,148,-36.8729974458,174.7432146594,0,0
The Cav,"European, Finger Food",3.5,Good,65,NZ$,80,4,Freemans Bay,"Freemans Bay, Auckland",Auckland,1010,148,-36.8484512140,174.7467679158,0,0
Chapel Bar & Bistro,"European, Steak",3.5,Good,72,NZ$,90,4,Ponsonby,"Ponsonby, Auckland",Auckland,,148,-36.8550413574,174.7462790832,0,0
Doolan Brothers,"American, Pub Food",3.5,Good,52,NZ$,80,4,Newmarket,"Newmarket, Auckland",Auckland,1023,148,-36.8673484658,174.7755346075,0,0
Dark Horse Bar & Grill,"Grill, Kiwi",3.5,Good,59,NZ$,90,4,Mairangi Bay,"Mairangi Bay, Auckland",Auckland,0635,148,-36.7504894250,174.7290639952,0,0
The Good Home,"European, Grill, Kiwi, Pizza",3.5,Good,40,NZ$,85,4,Stanmore Bay,"Stanmore Bay, Auckland",Auckland,,148,-36.6283596763,174.7317042947,0,0
Master & Apprentice,Kiwi,3.5,Good,21,NZ$,90,4,Takapuna,"Takapuna, Auckland",Auckland,,148,-36.7849105459,174.7731658816,0,0
Doolan Brothers,"American, Pub Food",3.5,Good,39,NZ$,80,4,Ellerslie,"Ellerslie, Auckland",Auckland,1051,148,-36.8972392468,174.8086562008,0,0
British Isles Inn,"British, Kiwi",3.5,Good,32,NZ$,75,4,Rothesay Bay,"Rothesay Bay, Auckland",Auckland,,148,-36.7264378492,174.7483537719,0,0
Puhoi Pub Hotel & Stables,Kiwi,3.5,Good,19,NZ$,70,4,Puhoi,"Puhoi, Auckland",Auckland,,148,-36.5122457622,174.6606629714,0,0
The Malt,"Kiwi, Pizza",3.5,Good,17,NZ$,65,3,Greenhithe,"Greenhithe, Auckland",Auckland,0632,148,-36.7753686664,174.6702377871,0,0
Danny Doolans,"Irish, American, Finger Food",3.4,Average,74,NZ$,100,4,Viaduct Harbour,"Viaduct Harbour, Auckland",Auckland,1010,148,-36.8430078273,174.7634998709,0,0
Mad Dogs & Englishmen,British,3.4,Average,50,NZ$,45,3,Wairau Valley,"Wairau Valley, Auckland",Auckland,,148,-36.7637504767,174.7369942814,0,0
The Backyard Bar,"European, Pizza, Kiwi",3.4,Average,47,NZ$,70,4,Hillcrest,"Hillcrest, Auckland",Auckland,0627,148,-36.7906751634,174.7490588576,0,0
The Matakana Village Pub,"European, Kiwi",3.4,Average,49,NZ$,60,3,Matakana,"Matakana, Auckland",Auckland,,148,-36.3521223462,174.7170825675,0,0
The Good Home,Kiwi,3.4,Average,46,NZ$,80,4,Onehunga,"Onehunga, Auckland",Auckland,,148,-36.9254606045,174.7849075869,0,0
The Good Home,"American, Pub Food",3.4,Average,31,NZ$,60,3,Mt Eden,"Mt Eden, Auckland",Auckland,,148,-36.8690959633,174.7644141689,0,0
Malt Public House,"European, Finger Food",3.4,Average,47,NZ$,80,4,Grey Lynn,"Grey Lynn, Auckland",Auckland,1021,148,-36.8591302659,174.7313039750,0,0
The Albany,"European, Finger Food",3.4,Average,33,NZ$,100,4,Albany,"Albany, Auckland",Auckland,,148,-36.7220809075,174.6918252111,0,0
New Brew Bar & Restaurant,"European, Finger Food",3.4,Average,28,NZ$,100,4,Albany,"Albany, Auckland",Auckland,,148,-36.7431476919,174.6972201392,0,0
The Station Freehouse,"American, Pizza, Deli",3.4,Average,21,NZ$,60,3,Pitt Street,"Pitt Street, Auckland",Auckland,1010,148,-36.8573820039,174.7586578131,0,0
Florrie McGreal's Irish Pub,"Irish, Finger Food",3.4,Average,25,NZ$,50,3,Takapuna,"Takapuna, Auckland",Auckland,,148,-36.7847983048,174.7732124850,0,0
Pocket Bar & Kitchen,"Asian, European",3.4,Average,18,NZ$,70,4,Grey Lynn,"Grey Lynn, Auckland",Auckland,,148,-36.8653694403,174.7372534499,0,0
The Surrey Pub - The Surrey Hotel,"Pizza, Continental",3.4,Average,12,NZ$,100,4,Grey Lynn,"Grey Lynn, Auckland",Auckland,1021,148,-36.8666406039,174.7391658649,0,0
Goode Brothers,Italian,3.3,Average,285,NZ$,80,4,"Botany Town Centre, Botany Downs","Botany Town Centre, Botany Downs, Auckland",Auckland,,148,-36.9343941814,174.9133565649,0,0
The Good Home,"European, Pizza",3.3,Average,108,NZ$,90,4,Howick,"Howick, Auckland",Auckland,,148,-36.8946214987,174.9323137477,0,0
Union Post Brewbar,"European, Finger Food, Pizza",3.3,Average,77,NZ$,90,4,Ellerslie,"Ellerslie, Auckland",Auckland,1051,148,-36.8979141141,174.8096989095,0,0
JAC's Trading Co.,"European, Pizza",3.3,Average,60,NZ$,60,3,"The Plaza, Whangaparaoa","The Plaza, Whangaparaoa, Auckland",Auckland,,148,-36.6358353279,174.7467632219,0,0
O' Hagans Irish Pub,Irish,3.3,Average,61,NZ$,90,4,Viaduct Harbour,"Viaduct Harbour, Auckland",Auckland,1010,148,-36.8435127950,174.7622107342,0,0
The Fox,"European, Steak, Tapas",3.3,Average,42,NZ$,80,4,Viaduct Harbour,"Viaduct Harbour, Auckland",Auckland,1010,148,-36.8434572541,174.7632846236,0,0
Barrel Inn,"Irish, European",3.3,Average,29,NZ$,70,4,Howick,"Howick, Auckland",Auckland,,148,-36.8961804143,174.9335660040,0,0
Provedor,Finger Food,3.3,Average,25,NZ$,50,3,Princes Wharf,"Princes Wharf, Auckland",Auckland,1010,148,-36.8425844247,174.7651782632,0,0
The Right Track Sports Cafe,"European, Kiwi",3.3,Average,14,NZ$,65,3,Fort Street,"Fort Street, Auckland",Auckland,,148,-36.8463595484,174.7666618601,0,0
Broncos Steak House,"Steak, American",3.2,Average,182,NZ$,85,4,Manukau,"Manukau, Auckland",Auckland,,148,-36.9918406694,174.8851172626,0,0
Fatboys Tavern,"Chinese, Korean, Finger Food",3.2,Average,35,NZ$,50,3,Albany,"Albany, Auckland",Auckland,,148,-36.7417643220,174.7143178806,0,0
Doolan Brothers,"American, Pub Food",3.2,Average,43,NZ$,80,4,Lynfield,"Lynfield, Auckland",Auckland,1041,148,-36.9252963045,174.7224238515,0,0
The Roundabout Bar,"American, Pizza",3.2,Average,25,NZ$,70,4,Royal Oak,"Royal Oak, Auckland",Auckland,1023,148,-36.9114442528,174.7771754488,0,0
The Beer Spot,Finger Food,3.2,Average,10,NZ$,60,3,Northcote,"Northcote, Auckland",Auckland,,148,-36.7940168265,174.7462418675,0,0
Garrison Public House,"European, Kiwi, Pizza",3.1,Average,264,NZ$,90,4,"Sylvia Park, Mount Wellington","Sylvia Park, Mount Wellington, Auckland",Auckland,,148,-36.9148985885,174.8406532779,0,0
Ed Street,"European, Finger Food, Pizza",3.1,Average,45,NZ$,100,4,Pukekohe,"Pukekohe, Auckland",Auckland,,148,-37.2018453045,174.9037140235,0,0
The Harlequin,European,3.1,Average,17,NZ$,50,3,Pt Chevalier,"Pt Chevalier, Auckland",Auckland,,148,-36.8699127001,174.7132141516,0,0
The Portage Neighbourhood Bar - By The Riverhead,"European, Pizza",3.1,Average,6,NZ$,50,3,Riverhead,"Riverhead, Auckland",Auckland,,148,-36.7591930000,174.5974530000,0,0
The Elbow Room,Finger Food,3.1,Average,5,NZ$,60,3,Herne Bay,"Herne Bay, Auckland",Auckland,1011,148,-36.8455259248,174.7356679291,0,0
The Fiddler,"Finger Food, Irish",3.0,Average,10,NZ$,55,3,Victoria Street West,"Victoria Street West, Auckland",Auckland,1010,148,-36.8488630476,174.7628752515,0,0
The Landmark/RSA,"Finger Food, Beverages",3.0,Average,4,NZ$,50,3,Panmure,"Panmure, Auckland",Auckland,1072,148,-36.9010400903,174.8565711826,0,0
The Chamberlain,Kiwi,2.9,Average,13,NZ$,60,3,Britomart,"Britomart, Auckland",Auckland,,148,-36.8450131895,174.7699100152,0,0
Westside Grille,American,2.9,Average,10,NZ$,70,4,Glendene,"Glendene, Auckland",Auckland,,148,-36.8877204883,174.6443973854,0,0
Brothers Beer,"Finger Food, Pizza",2.9,Average,9,NZ$,60,3,Orakei,"Orakei, Auckland",Auckland,,148,-36.8634941738,174.8095185310,0,0
Barb's Bar & Diner,"European, Kiwi",2.9,Average,6,NZ$,80,4,Waiuku,"Waiuku, Auckland",Auckland,2123,148,-37.2508316401,174.7310260311,0,0
Crow's Nest Bar & Brasserie,Finger Food,2.9,Average,4,NZ$,45,3,Whangaparaoa,"Whangaparaoa, Auckland",Auckland,,148,-36.6352533912,174.7415516898,0,0
Ye Olde Bailey,"Finger Food, European",2.9,Average,4,NZ$,70,4,Burswood,"Burswood, Auckland",Auckland,,148,-36.9264091415,174.8940979689,0,0
Vinos,Finger Food,2.9,Average,4,NZ$,55,3,Albany,"Albany, Auckland",Auckland,,148,-36.7433164135,174.6972627193,0,0
Western Lights Inn,Finger Food,2.9,Average,4,NZ$,45,3,Massey,"Massey, Auckland",Auckland,,148,-36.8410610000,174.6207080000,0,0
The Fat Camel,Finger Food,2.9,Average,1,NZ$,45,3,Fort Street,"Fort Street, Auckland",Auckland,,148,-36.8465921672,174.7684693337,0,0
Richardson's Tavern,Finger Food,2.9,Average,1,NZ$,40,2,Mt Roskill,"Mt Roskill, Auckland",Auckland,,148,-36.9007148704,174.7196745873,0,0
Salty Dog Inn,"Pizza, European",2.8,Average,16,NZ$,110,4,Snells Beach,"Snells Beach, Auckland",Auckland,,148,-36.4179550000,174.7236500000,0,0
Thirsty Dog,Kiwi,2.8,Average,6,NZ$,80,4,Karangahape Road,"Karangahape Road, Auckland",Auckland,1010,148,-36.8585046840,174.7550535947,0,0
Malones Irish Pub,Irish,2.8,Average,3,NZ$,70,4,Waiheke Island,"Waiheke Island, Auckland",Auckland,,148,-36.7936511462,175.0257166475,0,0
Jax Munster Inn,"European, Kiwi, Finger Food",2.8,Average,2,NZ$,75,4,Wellesley Street West,"Wellesley Street West, Auckland",Auckland,1010,148,-36.8511011295,174.7645911947,0,0
Hops n Hooves,Finger Food,2.8,Average,1,NZ$,50,3,Mt Albert,"Mt Albert, Auckland",Auckland,,148,-36.8858800956,174.7139876336,0,0
Papakura Tavern,Finger Food,2.8,Average,4,NZ$,50,3,Papakura,"Papakura, Auckland",Auckland,2110,148,-37.0629723285,174.9418962747,0,0
The Postman's Leg,"American, European, Kiwi",2.7,Average,142,NZ$,85,4,Glenfield,"Glenfield, Auckland",Auckland,,148,-36.7843249037,174.7227725387,0,0
The Patriot,European,2.7,Average,35,NZ$,85,4,Devonport,"Devonport, Auckland",Auckland,0624,148,-36.8304928470,174.7980460525,0,0
Spitting Feathers,"European, Finger Food",2.7,Average,25,NZ$,60,3,Wyndham Street,"Wyndham Street, Auckland",Auckland,1010,148,-36.8474088763,174.7647678852,0,0
Lenin,Finger Food,2.7,Average,9,NZ$,60,3,Princes Wharf,"Princes Wharf, Auckland",Auckland,1010,148,-36.8420314218,174.7646126524,0,0
The Kentish Hotel Sports Bar,"Finger Food, European",2.7,Average,8,NZ$,60,3,"The Kentish Hotel, Waiuku","The Kentish Hotel, Waiuku, Auckland",Auckland,,148,-37.2486925864,174.7301727533,0,0
Grand Central,"Finger Food, Beverages",2.7,Average,9,NZ$,0,1,Ponsonby,"Ponsonby, Auckland",Auckland,,148,-36.8567961113,174.7470870987,0,0
Papatoetoe Clubrooms,Finger Food,2.7,Average,5,NZ$,45,3,Papatoetoe,"Papatoetoe, Auckland",Auckland,2025,148,-36.9697180892,174.8610189557,0,0
Doolan Brothers,"American, Pub Food",2.6,Average,88,NZ$,80,4,"Botany Town Centre, Botany Downs","Botany Town Centre, Botany Downs, Auckland",Auckland,,148,-36.9344477803,174.9135050923,0,0
Chinoiserie,"Taiwanese, Street Food",4.4,Very Good,374,NZ$,50,3,Mt Albert,"Mt Albert, Auckland",Auckland,,148,-36.8942967877,174.7269795835,0,0
1947 Eatery,Indian,4.2,Very Good,201,NZ$,60,3,Federal Street,"Federal Street, Auckland",Auckland,1010,148,-36.8485617520,174.7622858360,0,0
Pocha,Korean,4.2,Very Good,317,NZ$,60,3,Chancery Square,"Chancery Square, Auckland",Auckland,1010,148,-36.8483180000,174.7676650000,0,1
Bedford Soda & Liquor,"American, Italian",4.2,Very Good,302,NZ$,70,4,"Ponsonby Central, Ponsonby","Ponsonby Central, Ponsonby, Auckland",Auckland,,148,-36.8564921643,174.7463022173,0,0
Dr Rudi's Rooftop Brewing Co.,"Pub Food, Pizza, European",4.2,Very Good,131,NZ$,70,4,Viaduct Harbour,"Viaduct Harbour, Auckland",Auckland,,148,-36.8430542459,174.7634177283,0,0
Blue Elephant Thai Restaurant,Thai,4.2,Very Good,176,NZ$,90,4,Parnell,"Parnell, Auckland",Auckland,,148,-36.8560784940,174.7801255435,0,0
Vodka Room,European,4.2,Very Good,50,NZ$,60,3,Ponsonby,"Ponsonby, Auckland",Auckland,1021,148,-36.8581226795,174.7483926639,0,0
Orleans,American,4.1,Very Good,544,NZ$,80,4,Britomart,"Britomart, Auckland",Auckland,1010,148,-36.8456863719,174.7695687041,0,0
Satya Spice And Chai Shop,"Beverages, Indian",4.1,Very Good,87,NZ$,40,2,Sandringham,"Sandringham, Auckland",Auckland,,148,-36.8917853920,174.7364025191,0,0
DeBretts Kitchen - Hotel DeBrett,"Contemporary, Kiwi",4.1,Very Good,115,NZ$,90,4,"Hotel DeBrett, Auckland CBD","Hotel DeBrett, Auckland CBD, Auckland",Auckland,1010,148,-36.8467950038,174.7669595852,0,0
El Limon,Spanish,4.1,Very Good,60,NZ$,95,4,Princes Wharf,"Princes Wharf, Auckland",Auckland,,148,-36.8407174538,174.7647769377,0,0
"The Lobby Lounge - Cordis, Auckland Hotel","European, Coffee and Tea",4.1,Very Good,57,NZ$,150,4,"Cordis, Auckland Hotel, Auckland CBD","Cordis, Auckland Hotel, Auckland CBD, Auckland",Auckland,,148,-36.8573881740,174.7636249289,0,0
Clare Inn,"European, Irish",4.1,Very Good,71,NZ$,70,4,Mt Eden,"Mt Eden, Auckland",Auckland,1024,148,-36.8773045090,174.7506222501,0,0
The Glass Goose,European,4.0,Very Good,169,NZ$,80,4,Federal Street,"Federal Street, Auckland",Auckland,1010,148,-36.8489561458,174.7626807913,0,0
Monsoon Poon,"Asian, Indian",4.0,Very Good,354,NZ$,70,4,Viaduct Harbour,"Viaduct Harbour, Auckland",Auckland,1010,148,-36.8440668604,174.7637640685,0,0
Pilkingtons,European,4.0,Very Good,117,NZ$,100,4,Shortland Street,"Shortland Street, Auckland",Auckland,1010,148,-36.8471016723,174.7679338977,0,0
