name,cuisines,aggregate_rating,rating_text,votes,currency,average_cost_for_two,price_range,locality,locality_verbose,city,zipcode,country_id,latitude,longitude,has_online_delivery,has_table_booking
Urbanologi,Tapas,4.9,Excellent,328,R,700,4,Marshalltown,"Marshalltown, Inner City",Inner City,,189,-26.2070910000,28.0318630000,0,0
Gemelli Cucina Bar,"Contemporary, Italian",4.8,Excellent,856,R,450,4,Bryanston,"Bryanston, Sandton",Sandton,2191,189,-26.0519822877,28.0230287835,0,0
Cafe Del Sol Classico,"Italian, Pizza, Beverages, Desserts, Grill, Seafood",4.7,Excellent,675,R,400,4,North Riding,"North Riding, Randburg",Randburg,,189,-26.0629450000,27.9697480000,0,0
Licorish Bistro,"European, South African",4.7,Excellent,983,R,545,4,"Nicolway Shopping Centre, Bryanston","Nicolway Shopping Centre, Bryanston, Sandton",Sandton,,189,-26.0523333333,28.0210000000,0,0
Brian Lara Rum Eatery,Caribbean,4.6,Excellent,229,R,300,4,Linden,"Linden, Randburg",Randburg,,189,-26.1405970000,27.9926690000,0,0
Olives and Plates - Club & Conference,"Mediterranean, Greek",4.6,Excellent,144,R,0,1,Braamfontein,"Braamfontein, Inner City",Inner City,,189,-26.1933893007,28.0310271308,0,0
The Big Mouth,"Grill, Steak, Burger, Sushi, Tapas",4.5,Excellent,631,R,400,4,"Nelson Mandela Square, Sandown","Nelson Mandela Square, Sandown, Sandton",Sandton,,189,-26.1075000000,28.0546666667,0,0
Cafe Del Sol Botanico,"Italian, Pizza, Beverages, Desserts, Grill, Seafood",4.5,Excellent,596,R,400,4,"Bryanston Shopping Centre, Bryanston","Bryanston Shopping Centre, Bryanston, Sandton",Sandton,,189,-26.0748760000,28.0277250000,0,0
Momo Baohaus,"Asian, Sushi, Tapas",4.5,Excellent,431,R,300,4,Greenside,"Greenside, Johannesburg",Johannesburg,,189,-26.1465800000,28.0110590000,0,0
Escondido Tapas,Mediterranean,4.5,Excellent,821,R,450,4,"Post Office Center, Illovo","Post Office Center, Illovo, Sandton",Sandton,2196,189,-26.1290020000,28.0508450000,0,0
Pablo Eggs-Go-Bar,"Cafe, Contemporary, Beverages, Burger, Desserts, Juices, Grill, African",4.5,Excellent,341,R,300,4,Melville,"Melville, Johannesburg",Johannesburg,,189,-26.1775990000,28.0085090000,0,0
La Boqueria,International,4.4,Very Good,300,R,300,4,Parktown North,"Parktown North, Johannesburg",Johannesburg,2193,189,0.0000000000,0.0000000000,0,0
The Great Eastern Food Bar,Asian,4.4,Very Good,415,R,380,4,Melville,"Melville, Johannesburg",Johannesburg,,189,-26.1744250000,28.0135220000,0,0
Casa Bella,"Italian, Grill, Pizza",4.4,Very Good,206,R,350,4,"Mall of Africa, Midrand","Mall of Africa, Midrand, Midrand",Midrand,,189,-26.0166120000,28.1078970000,0,0
The Local Grill,"Grill, Steak",4.4,Very Good,408,R,450,4,Parktown North,"Parktown North, Johannesburg",Johannesburg,,189,-26.1448250000,28.0288880000,0,0
Salsa Mexican Grill,Mexican,4.3,Very Good,593,R,330,4,"Pineslopes Shopping Centre, Fourways","Pineslopes Shopping Centre, Fourways, Sandton",Sandton,,189,-26.0211110000,28.0143750000,0,0
Fireroom Sushi and Grill Montecasino,Sushi,4.3,Very Good,95,R,200,3,Magaliessig,"Magaliessig, Sandton",Sandton,,189,-26.0235630000,28.0176780000,0,0
Dukes Burgers,Burger,4.3,Very Good,891,R,250,3,Greenside,"Greenside, Johannesburg",Johannesburg,,189,-26.1463333333,28.0095000000,0,0
The Foundry,"Contemporary, Burger, Pizza",4.3,Very Good,827,R,450,4,"Parktown Quarter, Parktown North","Parktown Quarter, Parktown North, Johannesburg",Johannesburg,,189,-26.1451666667,28.0280000000,0,0
LBV,"Continental, Contemporary",4.3,Very Good,352,R,350,4,"Cramerview Village Shopping Centre, Bryanston","Cramerview Village Shopping Centre, Bryanston, Sandton",Sandton,,189,-26.0742875289,28.0124209821,0,0
Thava,Indian,4.3,Very Good,434,R,360,4,Norwood,"Norwood, Johannesburg",Johannesburg,,189,-26.1491666667,28.0776666667,0,0
Mezepoli Meze & Wine Bar,Mediterranean,4.3,Very Good,372,R,250,3,Melrose Arch,"Melrose Arch, Sandton",Sandton,,189,-26.1315000000,28.0685000000,0,1
The Schwarma Co.,Middle Eastern,4.3,Very Good,416,R,330,4,Norwood,"Norwood, Johannesburg",Johannesburg,,189,-26.1577870000,28.0760490000,0,0
Lupa Osteria,"Italian, Pizza, Seafood, Desserts, Beverages",4.3,Very Good,222,R,350,4,Fourways,"Fourways, Sandton",Sandton,,189,-26.0306030000,28.0112970000,0,0
Café Del Sol TRE,"Italian, Pizza, Beverages, Desserts, Grill, Seafood",4.4,Very Good,251,R,400,4,Parkhurst,"Parkhurst, Johannesburg",Johannesburg,,189,-26.1380840000,28.0179770000,0,0
The Smokehouse and Grill,Steak,4.3,Very Good,158,R,350,4,"Pineslopes Shopping Centre, Fourways","Pineslopes Shopping Centre, Fourways, Sandton",Sandton,,189,-26.0213620000,28.0147490000,0,0
Franco's,"Pizza, Italian",4.2,Very Good,219,R,250,3,Parkview,"Parkview, Johannesburg",Johannesburg,,189,-26.1605000000,28.0265000000,0,0
The Grillhouse,"Grill, Steak",4.3,Very Good,50,R,450,4,"Alice Lane Shopping Centre, Sandown","Alice Lane Shopping Centre, Sandown, Sandton",Sandton,2196,189,0.0000000000,0.0000000000,0,0
The Green Peppercorn,"African, Mediterranean, Contemporary",4.2,Very Good,685,R,480,4,Morningside,"Morningside, Sandton",Sandton,,189,-26.0818333333,28.0573333333,0,0
Bolton Road Collection,"European, Contemporary",4.2,Very Good,393,R,400,4,Rosebank,"Rosebank, Johannesburg",Johannesburg,2021,189,-26.1489620000,28.0347440000,0,0
PRON,Chinese,4.2,Very Good,312,R,200,3,Linden,"Linden, Randburg",Randburg,,189,-26.1374040000,27.9942210000,0,0
The Countess,"Burger, Juices, American, Finger Food, Grill",4.2,Very Good,311,R,380,4,"27 Boxes, Melville, ","27 Boxes, Melville, , Johannesburg",Johannesburg,,189,-26.1756163473,28.0074203387,0,0
Perron,Mexican,4.2,Very Good,648,R,250,3,Illovo,"Illovo, Sandton",Sandton,,189,-26.1349346350,28.0483381078,0,0
Rocomamas,"Burger, Fast Food, Grill",4.2,Very Good,468,R,220,3,"Appleton's Village, Ferndale","Appleton's Village, Ferndale, Randburg",Randburg,2160,189,-26.0937980000,27.9846530000,0,0
The Fishmonger,"Seafood, Sushi",4.2,Very Good,381,R,650,4,"Thrupps Illovo Centre, Illovo","Thrupps Illovo Centre, Illovo, Sandton",Sandton,,189,-26.1298333333,28.0498333333,0,0
Perron,Mexican,4.2,Very Good,243,R,250,3,"Hobart Grove Shopping Center, Bryanston","Hobart Grove Shopping Center, Bryanston, Sandton",Sandton,,189,-26.0620550000,28.0261200000,0,0
Ghazal,Indian,4.1,Very Good,362,R,400,4,"Coachman's Crossing, Lyme Park","Coachman's Crossing, Lyme Park, Sandton",Sandton,,189,-26.0810000000,28.0171666667,0,0
Wasabi,"Sushi, Asian",4.2,Very Good,176,R,400,4,"Mall of Africa, Midrand","Mall of Africa, Midrand, Midrand",Midrand,,189,-26.0132390000,28.1041250000,0,0
Banchan - Korean Restaurant,Korean,4.2,Very Good,132,R,250,3,Parkmore,"Parkmore, Sandton",Sandton,,189,-26.1005640000,28.0477950000,0,0
Plaka,Greek,4.2,Very Good,271,R,300,4,"Cresta Shopping Centre, Cresta","Cresta Shopping Centre, Cresta, Randburg",Randburg,,189,-26.1315000000,27.9770000000,0,1
Nonna's Italian Food Bar,"Italian, Healthy Food",4.2,Very Good,141,R,200,3,"Sandton City Shopping Centre, Sandown","Sandton City Shopping Centre, Sandown, Sandton",Sandton,,189,-26.1072910000,28.0529710000,0,0
Parreirinha,Portuguese,4.2,Very Good,358,R,400,4,La Rochelle,"La Rochelle, Johannesburg South",Johannesburg South,2190,189,-26.2395000000,28.0540000000,0,0
Mythos,"Mediterranean, Greek, International",4.2,Very Good,238,R,300,4,"Bedford Centre, Bedfordview","Bedford Centre, Bedfordview, East Rand",East Rand,,189,-26.1876130000,28.1224300000,0,0
Workshop 55,"Contemporary, Beverages, Desserts, Ethiopian, Healthy Food, International, Mediterranean, South African",4.2,Very Good,178,R,460,4,Parktown North,"Parktown North, Johannesburg",Johannesburg,,189,-26.1446490000,28.0318010000,0,0
Coalition,"Italian, Pizza, Contemporary",4.2,Very Good,128,R,260,3,Rosebank,"Rosebank, Johannesburg",Johannesburg,,189,-26.1489520000,28.0347760000,0,0
Momo Soko,"Sushi, Chinese",4.2,Very Good,117,R,460,4,Illovo,"Illovo, Sandton",Sandton,2196,189,-26.1305520000,28.0497100000,0,0
Panteli's Italian Kitchen,"Italian, Pizza",4.2,Very Good,98,R,250,3,Boskruin,"Boskruin, Randburg",Randburg,,189,-26.0856430000,27.9472580000,0,0
Mezepoli Meze & Wine Bar,Mediterranean,4.2,Very Good,80,R,250,3,Bryanston,"Bryanston, Sandton",Sandton,,189,-26.0512660000,28.0211130000,0,1
Yamitsuki,"Sushi, Grill, Asian, Japanese, Thai",4.1,Very Good,264,R,300,4,Bedfordview,"Bedfordview, East Rand",East Rand,,189,-26.1795000000,28.1366666667,0,0
KCC La Vie En Rose,"Contemporary, Cafe",4.1,Very Good,622,R,250,3,Houghton Estate,"Houghton Estate, Johannesburg",Johannesburg,,189,-26.1515560000,28.0543170000,0,0
Pronto,"Italian, Pizza",4.1,Very Good,349,R,400,4,"The Colony Shopping Centre, Craighall","The Colony Shopping Centre, Craighall, Johannesburg",Johannesburg,,189,-26.1226666667,28.0296666667,0,0
BBQ Workshop,"Mediterranean, Greek, International",4.1,Very Good,287,R,200,3,"Rivonia Village Shopping Centre, Rivoina","Rivonia Village Shopping Centre, Rivoina, Sandton",Sandton,,189,-26.0595860547,28.0605545940,0,0
Parea,Greek,4.1,Very Good,376,R,370,4,Illovo,"Illovo, Sandton",Sandton,,189,-26.1351666667,28.0488333333,0,0
Rocomamas,"Burger, Fast Food, Grill",4.1,Very Good,401,R,220,3,"Pineslopes Shopping Centre, Fourways","Pineslopes Shopping Centre, Fourways, Sandton",Sandton,,189,-26.0218000000,28.0138480000,0,0
La Rosa Mexican Grille and Tequileria,Mexican,4.1,Very Good,243,R,300,4,Weltevreden Park,"Weltevreden Park, Roodepoort",Roodepoort,1709,189,-26.1050010000,27.9255970000,0,0
Turn 'n Tender,Steak,4.1,Very Good,243,R,350,4,"Village View Shopping Center, Bedfordview","Village View Shopping Center, Bedfordview, East Rand",East Rand,,189,-26.1821666667,28.1353333333,0,0
Lima Tapas Bar,Latin American,4.1,Very Good,200,R,250,3,"Montecasino, Fourways","Montecasino, Fourways, Sandton",Sandton,,189,-26.0241640000,28.0132220000,0,0
Hello Tomato,"Italian, Pizza",4.1,Very Good,200,R,270,3,"Riverside Shopping Center, Bryanston","Riverside Shopping Center, Bryanston, Sandton",Sandton,,189,-26.0587160000,28.0469110000,0,0
Urban Angel Cafe,"Cafe, Bakery",4.1,Very Good,201,R,180,2,Boskruin,"Boskruin, Randburg",Randburg,,189,-26.0859610000,27.9580950000,0,0
The Diner,"Grill, American",4.1,Very Good,150,R,280,3,Krugersdorp,"Krugersdorp, West Rand",West Rand,,189,-26.1003800000,27.7967533333,0,0
Bistro Vine,French,4.1,Very Good,183,R,400,4,Parkhurst,"Parkhurst, Johannesburg",Johannesburg,,189,-26.1400000000,28.0175000000,0,0
Luca's Ristorante Italiano,"Italian, Pizza",4.1,Very Good,273,R,300,4,Sunninghill,"Sunninghill, Sandton",Sandton,,189,-26.0368100000,28.0591330000,0,0
love fish,"Seafood, Sushi",4.1,Very Good,166,R,480,4,"Morningside Shopping Centre, Morningside","Morningside Shopping Centre, Morningside, Sandton",Sandton,,189,-26.0827450000,28.0600620000,0,0
Plaka,Greek,4.1,Very Good,163,R,300,4,"Eastgate Shopping Centre, Bedford Gardens","Eastgate Shopping Centre, Bedford Gardens, East Rand",East Rand,,189,-26.1805000000,28.1168333333,0,1
1920 Restaurant,Portuguese,4.1,Very Good,170,R,340,4,"Randburg City Shopping Center, Randburg","Randburg City Shopping Center, Randburg, Randburg",Randburg,,189,-26.0812570000,27.9977540000,0,0
Rosto,Italian,4.1,Very Good,134,R,300,4,Kyalami,"Kyalami, Midrand",Midrand,1684,189,-25.9840823980,28.0754297599,0,0
47 On Grant - Turkish Fusion,Turkish,4.1,Very Good,96,R,350,4,Norwood,"Norwood, Johannesburg",Johannesburg,,189,-26.1598330000,28.0761870000,0,0
Conscious 108,"Cafe, Healthy Food",4.1,Very Good,156,R,250,3,Greenside,"Greenside, Johannesburg",Johannesburg,2193,189,-26.1470450000,28.0121850000,0,0
La Mama,"Italian, Pizza",4.1,Very Good,155,R,220,3,Ferndale,"Ferndale, Randburg",Randburg,2194,189,-26.0817631215,27.9850745201,0,0
Coachman's Inn,French,4.1,Very Good,136,R,350,4,Bryanston,"Bryanston, Sandton",Sandton,,189,-26.0813430000,28.0176120000,0,0
Sumting Fresh,"Contemporary, Continental, Asian, International",4.1,Very Good,56,R,250,3,Norwood,"Norwood, Johannesburg",Johannesburg,,189,-26.1570314582,28.0764885619,0,0
"The Terrace - Saxon Hotel, Villas and Spa","Finger Food, Continental",4.1,Very Good,29,R,400,4,Sandown,"Sandown, Sandton",Sandton,,189,-26.1118600000,28.0358520000,0,0
Craft,"European, Pizza",4.0,Very Good,1403,R,350,4,Parkhurst,"Parkhurst, Johannesburg",Johannesburg,,189,-26.1383960000,28.0175480000,0,0
Jamie's Italian,Italian,4.0,Very Good,610,R,400,4,"Melrose Arch, Melrose ","Melrose Arch, Melrose , Sandton",Sandton,,189,-26.1323300000,28.0680620000,0,0
"Flames Restaurant at Four Seasons Hotel, The Westcliff","African, Contemporary",4.0,Very Good,216,R,600,4,"The Four Seasons, Rosebank ","The Four Seasons, Rosebank , Johannesburg",Johannesburg,,189,-26.1710700000,28.0319870000,0,0
Koi,Asian,3.9,Good,408,R,480,4,"The Firs, Rosebank, Sandton","The Firs, Rosebank, Sandton, Johannesburg",Johannesburg,,189,-26.1438333333,28.0425000000,0,0
Pappas,Mediterranean,4.0,Very Good,280,R,400,4,"Nelson Mandela Square, Sandown","Nelson Mandela Square, Sandown, Sandton",Sandton,,189,-26.1076666667,28.0543333333,0,0
Wangthai,Thai,4.0,Very Good,336,R,350,4,"Nelson Mandela Square, Sandown","Nelson Mandela Square, Sandown, Sandton",Sandton,,189,-26.1076666667,28.0543333333,0,0
The Codfather - Sandton Skye,Seafood,4.1,Very Good,274,R,500,4,Sandown,"Sandown, Sandton",Sandton,,189,-26.0985490000,28.0531010000,0,0
CNR Cafe,"Cafe, Italian, Pizza",4.0,Very Good,371,R,220,3,Craighall,"Craighall, Johannesburg",Johannesburg,,189,-26.1240150000,28.0195170000,0,0
Doppio Zero,"Cafe, Italian, Bakery, Pizza",4.0,Very Good,379,R,300,4,Greenside,"Greenside, Johannesburg",Johannesburg,,189,-26.1461666667,28.0101666667,0,0
86 Public,Pizza,4.0,Very Good,194,R,300,4,Braamfontein,"Braamfontein, Inner City",Inner City,,189,-26.1941070000,28.0361310000,0,0
The National,American,4.0,Very Good,265,R,515,4,Parktown North,"Parktown North, Johannesburg",Johannesburg,,189,-26.1440716000,28.0251930000,0,1
Society Eatery & Craft Bar,European,4.0,Very Good,357,R,350,4,Fourways,"Fourways, Sandton",Sandton,,189,-26.0273880000,28.0210010000,0,0
Fahrenheit,"Seafood, Steak",4.0,Very Good,277,R,350,4,Edenvale,"Edenvale, East Rand",East Rand,,189,-26.1280560000,28.1502710000,0,0
Roxannes Rum Eatery,Continental,4.0,Very Good,86,R,0,1,Fourways,"Fourways, Sandton",Sandton,2194,189,-26.0216900000,28.0138390000,0,0
Salsa Mexican Grill,Mexican,4.0,Very Good,233,R,330,4,Parkhurst,"Parkhurst, Johannesburg",Johannesburg,,189,-26.1380300000,28.0178310000,0,0
So Yum,"Thai, Sushi, Asian",4.0,Very Good,310,R,370,4,"Hyde Park Corner, Hyde Park","Hyde Park Corner, Hyde Park, Sandton",Sandton,,189,-26.1251666667,28.0335000000,0,0
Pomodoro Ristorante,"Italian, Pizza",4.0,Very Good,282,R,300,4,"Morningside Shopping Centre, Morningside","Morningside Shopping Centre, Morningside, Sandton",Sandton,,189,-26.0827400000,28.0606780000,0,0
EB Social Kitchen & Bar,"Contemporary, Tapas",4.0,Very Good,187,R,550,4,"Hyde Park Corner, Hyde Park","Hyde Park Corner, Hyde Park, Sandton",Sandton,,189,-26.1252070000,28.0333130000,0,0
Red Chamber,Chinese,4.0,Very Good,250,R,300,4,"Hyde Park Corner, Hyde Park","Hyde Park Corner, Hyde Park, Sandton",Sandton,,189,-26.1253333333,28.0331666667,0,0
Cilantros,"European, Pizza, Seafood, Tapas, Grill",4.0,Very Good,156,R,350,4,"Nelson Mandela Square, Sandown","Nelson Mandela Square, Sandown, Sandton",Sandton,,189,-26.1068060000,28.0543960000,0,0
Rocomamas,"Burger, Fast Food, Grill",4.0,Very Good,272,R,220,3,"Rivonia Village Shopping Centre, Rivoina","Rivonia Village Shopping Centre, Rivoina, Sandton",Sandton,2128,189,-26.0586860000,28.0610510000,0,0
Potato Shed,South African,4.0,Very Good,188,R,380,4,"Newtown Junction, Newtown","Newtown Junction, Newtown, Inner City",Inner City,,189,-26.2006870000,28.0311120000,0,0
"Mythos, Design Quarter",Greek,4.0,Very Good,276,R,300,4,"Design Quarter, Fourways","Design Quarter, Fourways, Sandton",Sandton,,189,-26.0306666667,28.0111666667,0,0
Turn 'n Tender,Steak,4.0,Very Good,251,R,350,4,"Illovo Square, Illovo","Illovo Square, Illovo, Sandton",Sandton,,189,-26.1296666667,28.0496666667,0,0
The Smokehouse and Grill,Steak,4.0,Very Good,254,R,350,4,Braamfontein,"Braamfontein, Inner City",Inner City,,189,-26.1943810000,28.0349250000,0,0
Rocomamas,"Burger, Fast Food, Grill",4.0,Very Good,204,R,220,3,"Melrose Arch, Melrose ","Melrose Arch, Melrose , Sandton",Sandton,2196,189,-26.1318050000,28.0686730000,0,0
Red Chilli Spice,Indian,4.0,Very Good,197,R,300,4,Craighall,"Craighall, Johannesburg",Johannesburg,,189,-26.1228060000,28.0296420000,0,0
Sophia's Bistro,"Mediterranean, Seafood",4.0,Very Good,133,R,280,3,"Illovo Square, Illovo","Illovo Square, Illovo, Sandton",Sandton,2196,189,-26.1270419203,28.0489751324,0,0
Ristorante La Trinita,"Italian, Pizza",4.3,Very Good,186,R,0,1,"Kyalami Downs Shopping Centre, Kyalami Park","Kyalami Downs Shopping Centre, Kyalami Park, Midrand",Midrand,,189,-25.9932191321,28.0759165809,0,0
Paul's Homemade Ice Cream,Desserts,4.3,Very Good,58,R,90,1,Parkhurst,"Parkhurst, Johannesburg",Johannesburg,,189,-26.1401646455,28.0171279237,0,0
Tortellino D'Oro,Italian,4.2,Very Good,275,R,300,4,Oaklands,"Oaklands, Johannesburg",Johannesburg,,189,-26.1465000000,28.0635000000,0,0
BGR,Burger,4.1,Very Good,232,R,220,3,Rosebank,"Rosebank, Johannesburg",Johannesburg,2196,189,-26.1438790267,28.0366198719,0,0
Vikrams,Indian,4.1,Very Good,277,R,300,4,"Lonehill Shopping Centre, Lonehill","Lonehill Shopping Centre, Lonehill, Sandton",Sandton,,189,-26.0136670000,28.0269410000,0,0
Casta Luzzo,Pizza,4.1,Very Good,9,R,200,3,Rosettenville,"Rosettenville, Johannesburg South",Johannesburg South,,189,-26.2576050000,28.0679130000,0,0
Mon Petit Throbb,"Mediterranean, Italian, French, Pizza",4.0,Very Good,356,R,300,4,Fourways,"Fourways, Sandton",Sandton,,189,-26.0248900000,28.0177120000,0,0
Mama Mexicana,"Mexican, Beverages",4.0,Very Good,168,R,170,2,"Maboneng Precinct, City & Suburban ","Maboneng Precinct, City & Suburban , Inner City",Inner City,,189,-26.2042140000,28.0578990000,0,0
Haagen Dazs,"Desserts, Ice Cream",4.0,Very Good,102,R,100,2,"Sandton City Shopping Centre, Sandown","Sandton City Shopping Centre, Sandown, Sandton",Sandton,,189,-26.1063333333,28.0548333333,0,0
Krispy Kreme,"Bakery, Desserts",3.9,Good,283,R,120,2,"The Zone, Rosebank, Sandton","The Zone, Rosebank, Sandton, Johannesburg",Johannesburg,,189,-26.1450556000,28.0430056000,0,0
Baha Taco,"Mexican, Healthy Food",3.9,Good,158,R,130,2,Norwood,"Norwood, Johannesburg",Johannesburg,,189,-26.1623410000,28.0737910000,0,0
Patisserie de Paris,"Bakery, Desserts, Patisserie, Cafe",3.9,Good,116,R,80,1,Blairgowrie,"Blairgowrie, Randburg",Randburg,2194,189,-26.1131580000,28.0141680000,0,0
The Hussar Grill,South African,3.9,Good,23,R,100,2,Kyalami,"Kyalami, Midrand",Midrand,,189,-26.0220080000,28.0882650000,0,0
Maverick & Jane Gourmet Popcorn,"Desserts, Beverages, Fast Food",3.9,Good,49,R,115,2,"The Zone, Rosebank, Sandton","The Zone, Rosebank, Sandton, Johannesburg",Johannesburg,,189,-26.1462540000,28.0431020000,0,0
CHIAPAS eat mexican,"Mexican, Fast Food, Healthy Food",3.8,Good,96,R,166,2,"The Zone, Rosebank, Sandton","The Zone, Rosebank, Sandton, Johannesburg",Johannesburg,2196,189,-26.1456850000,28.0428440000,0,0
Cafe Picobella Trattoria,"Italian, Pizza",3.8,Good,146,R,300,4,Melville,"Melville, Johannesburg",Johannesburg,,189,-26.1753333333,28.0055000000,0,0
Taste of Punjab,Indian,3.8,Good,130,R,250,3,Parkview,"Parkview, Johannesburg",Johannesburg,2193,189,-26.1598333333,28.0261666667,0,0
Hudsons the Burger Joint,"Burger, Fast Food",3.8,Good,77,R,200,3,Bedfordview,"Bedfordview, East Rand",East Rand,,189,-26.1748260000,28.1348340000,0,0
Kota Joe Roadhouse,"Fast Food, South African, Pizza",3.8,Good,119,R,180,2,Edenvale,"Edenvale, East Rand",East Rand,1609,189,-26.1488401792,28.1573233008,0,0
Papa Pronto,"Italian, Pizza",3.8,Good,132,R,200,3,Fourways,"Fourways, Sandton",Sandton,,189,-26.0177280000,27.9967590000,0,0
Burgerack,Burger,3.8,Good,86,R,180,2,"Comaro View Shopping Centre, Bassonia","Comaro View Shopping Centre, Bassonia, Johannesburg South",Johannesburg South,,189,-26.2789970000,28.0667830000,0,0
The Canteen,"Cafe, French",3.8,Good,73,R,280,3,"Maboneng Precinct, City & Suburban ","Maboneng Precinct, City & Suburban , Inner City",Inner City,,189,-26.2042676989,28.0586793646,0,0
Westcliff Deli - Four Seasons Hotel The Westcliff,Deli,3.8,Good,38,R,150,2,"The Four Seasons, Rosebank ","The Four Seasons, Rosebank , Johannesburg",Johannesburg,,189,-26.1710800000,28.0318360000,0,0
Kakami Sushi Restaurant & Takeaway,"Asian, Chinese, Japanese, Sushi",3.8,Good,68,R,120,2,Kensington,"Kensington, Inner City",Inner City,,189,-26.1889760000,28.1084610000,0,0
Copper Bar,Drinks Only,3.8,Good,40,R,200,3,Bryanston,"Bryanston, Sandton",Sandton,,189,-26.0616790000,28.0213210000,0,0
Biryani Hut,Indian,3.9,Good,35,R,180,2,Kelvin,"Kelvin, Johannesburg",Johannesburg,,189,-26.0828740000,28.0856970000,0,0
The Counter,Deli,3.8,Good,33,R,80,1,Braamfontein,"Braamfontein, Inner City",Inner City,,189,-26.1257803489,27.9732329026,0,0
Baglios,Desserts,3.8,Good,31,R,200,3,"Montecasino, Fourways","Montecasino, Fourways, Sandton",Sandton,,189,-26.0238333333,28.0120000000,0,0
Taste Of Punjab,Indian,3.7,Good,144,R,300,4,"Sunhill Center, Sunninghill","Sunhill Center, Sunninghill, Sandton",Sandton,,189,-26.0260000000,28.0661666667,0,0
Kota Joe Roadhouse,"Fast Food, South African, Pizza",3.7,Good,97,R,180,2,Boksburg,"Boksburg, East Rand",East Rand,1459,189,-26.1789750000,28.2573910000,0,0
Akhalwaya's,"Fast Food, Pizza",3.7,Good,80,R,100,2,Fordsburg,"Fordsburg, Inner City",Inner City,,189,-26.2030000000,28.0221666667,0,0
Krispy Kreme,"Bakery, Desserts",3.7,Good,62,R,120,2,"Mall of Africa, Midrand","Mall of Africa, Midrand, Midrand",Midrand,,189,-26.0156010000,28.1065730000,0,0
Ottimo,"Pizza, Italian",3.7,Good,66,R,250,3,Kensington,"Kensington, Inner City",Inner City,,189,-26.1859140000,28.1063880000,0,0
World Of Samoosas,"Indian, Fast Food",3.7,Good,40,R,120,2,"Oriental Plaza, Fordsburg","Oriental Plaza, Fordsburg, Inner City",Inner City,,189,-26.2051666667,28.0246666667,0,0
Simply Divine Vegetarian,Fast Food,3.7,Good,48,R,200,3,Blairgowrie,"Blairgowrie, Randburg",Randburg,,189,-26.1155410000,28.0109730000,0,0
Kauai,Healthy Food,3.5,Good,61,R,200,3,"The Zone, Rosebank, Sandton","The Zone, Rosebank, Sandton, Johannesburg",Johannesburg,,189,-26.1460660000,28.0433380000,0,0
Istanbul Kebab,Turkish,3.6,Good,89,R,100,2,Rivonia,"Rivonia, Sandton",Sandton,,189,-26.0539950000,28.0597480000,0,0
Nando's,"African, Portuguese",3.5,Good,58,R,180,2,"Parktown Quarter, Parktown North","Parktown Quarter, Parktown North, Johannesburg",Johannesburg,,189,-26.1451666667,28.0281666667,0,0
Istanbul Kebab,Turkish,3.6,Good,46,R,100,2,Fordsburg,"Fordsburg, Inner City",Inner City,,189,-26.2046666667,28.0223333333,0,0
Philly Cheesesteak Co.,Fast Food,3.6,Good,45,R,150,2,"27 Boxes, Melville, ","27 Boxes, Melville, , Johannesburg",Johannesburg,,189,-26.1759110000,28.0081070000,0,0
Krispy Kreme,"Bakery, Desserts",3.6,Good,36,R,120,2,Sandown,"Sandown, Sandton",Sandton,,189,-26.1084570000,28.0568550000,0,0
Rockets Express,"Fast Food, Healthy Food",3.6,Good,51,R,100,2,Sandown,"Sandown, Sandton",Sandton,,189,-26.1032930000,28.0579240000,0,0
Tropical,"Fast Food, Greek, Beverages, Bakery, Burger, Continental, Desserts, European",3.6,Good,39,R,220,3,"The Square Shopping Centre, Sunninghill","The Square Shopping Centre, Sunninghill, Sandton",Sandton,,189,-26.0327620000,28.0630720000,0,0
Krispy Kreme,"Bakery, Desserts",3.5,Good,27,R,120,2,"Eastgate Shopping Centre, Bedford Gardens","Eastgate Shopping Centre, Bedford Gardens, East Rand",East Rand,,189,-26.1807879691,28.1166097149,0,0
Cinnabon,"Desserts, Bakery",3.7,Good,20,R,100,2,"Mall of Africa, Midrand","Mall of Africa, Midrand, Midrand",Midrand,,189,-26.0159970000,28.1050070000,0,0
Krispy Kreme,"Bakery, Desserts",3.6,Good,24,R,120,2,"Sandton City Shopping Centre, Sandown","Sandton City Shopping Centre, Sandown, Sandton",Sandton,,189,-26.1085430000,28.0528530000,0,0
Philly Cheesesteak Co.,"American, Grill",3.6,Good,36,R,160,2,Lonehill,"Lonehill, Sandton",Sandton,,189,-26.0135679867,28.0262382857,0,0
Cinnabon,"Desserts, Bakery",3.6,Good,25,R,100,2,Killarney,"Killarney, Sandton",Sandton,,189,-26.1663333333,28.0548333333,0,0
Rockets Express,"Fast Food, Healthy Food",3.6,Good,21,R,100,2,Sandown,"Sandown, Sandton",Sandton,,189,-26.1026520000,28.0573370000,0,0
Jose's Taverna and Oyster Bar,"Mediterranean, Greek, Seafood",3.5,Good,84,R,300,4,Kempton Park,"Kempton Park, East Rand",East Rand,,189,-26.0858870000,28.2530560000,0,0
Dae Jang Kum,Korean,3.5,Good,46,R,300,4,Rivonia,"Rivonia, Sandton",Sandton,,189,-26.0578333333,28.0595000000,0,0
Nonna Mia's Kitchen,"Pizza, Italian",3.5,Good,48,R,280,3,Parkhurst,"Parkhurst, Johannesburg",Johannesburg,,189,-26.1399330000,28.0236070000,0,0
Kara Nichha's,"Fast Food, Indian",3.5,Good,53,R,60,1,"Midway Mews Shopping Centre, Halfway Gardens","Midway Mews Shopping Centre, Halfway Gardens, Midrand",Midrand,,189,-25.9871960000,28.1134620000,0,0
Bembom,"Cafe, Bakery",3.4,Average,46,R,200,3,"Comaro Crossing Shopping Centre, Oakdene","Comaro Crossing Shopping Centre, Oakdene, Johannesburg South",Johannesburg South,,189,-26.2657900000,28.0591840000,0,0
Chilli Pickle,Indian,3.5,Good,41,R,180,2,Oakdene,"Oakdene, Johannesburg South",Johannesburg South,,189,-26.2693730000,28.0481820000,0,0
Jolly Pepper,Indian,3.5,Good,44,R,200,3,Kyalami Corner,"Kyalami Corner, Midrand",Midrand,,189,-25.9834920000,28.0751300000,0,0
Burger Box Roadhouse Grill,"Fast Food, Grill, Pizza, Burger, Desserts",3.5,Good,29,R,96,1,Krugersdorp,"Krugersdorp, West Rand",West Rand,,189,-26.1117866667,27.8049633333,0,0
The Fireplace Roadhouse,"Fast Food, Pizza",3.4,Average,16,R,150,2,Boksburg,"Boksburg, East Rand",East Rand,,189,-26.2086566667,28.2754300000,0,0
Haandi,Indian,3.5,Good,40,R,225,3,Kempton Park,"Kempton Park, East Rand",East Rand,,189,-26.0862970000,28.2524580000,0,0
The Baron,"Steak, Contemporary, Burger",3.5,Good,27,R,450,4,Kyalami Corner,"Kyalami Corner, Midrand",Midrand,,189,-25.9834920000,28.0751300000,0,0
Blacksteer Rib & Burger,"Burger, Grill",3.5,Good,23,R,220,3,Mulbarton,"Mulbarton, Johannesburg South",Johannesburg South,,189,-26.2965800000,28.0465740000,0,0
Cinnabon,"Desserts, Bakery",3.5,Good,28,R,100,2,"Clearwater Mall, Strubens Valley, Roodeport","Clearwater Mall, Strubens Valley, Roodeport, Roodepoort",Roodepoort,,189,-26.1276578006,27.9033405706,0,0
Anat,"Fast Food, Middle Eastern",3.6,Good,23,R,130,2,"Sandton City Shopping Centre, Sandown","Sandton City Shopping Centre, Sandown, Sandton",Sandton,,189,-26.1076666667,28.0543333333,0,0
Seemanns Butchery,"German, Deli",3.5,Good,15,R,150,2,Ferndale,"Ferndale, Randburg",Randburg,,189,-26.0830790000,27.9755860000,0,0
Bliss Juicery,Juices,3.5,Good,13,R,100,2,Craighall,"Craighall, Johannesburg",Johannesburg,,189,-26.1226520000,28.0299610000,0,0
Smokin Joe's Rib Shack,American,3.5,Good,15,R,310,4,"The Stables Village Market, Chartwell","The Stables Village Market, Chartwell, Sandton",Sandton,2055,189,-25.9947063421,27.9806860909,0,0
Coffee Exchange,"Cafe, Beverages",3.4,Average,18,R,0,1,Kyalami,"Kyalami, Midrand",Midrand,,189,-26.0026435362,28.0761100352,0,0
Akhalz,"Fast Food, Pizza",3.5,Good,15,R,180,2,Mayfair,"Mayfair, Inner City",Inner City,,189,-26.2011780000,28.0126860000,0,0
Bamboo Thai,"Thai, Japanese",3.5,Good,18,R,300,4,"The Square Shopping Centre, Sunninghill","The Square Shopping Centre, Sunninghill, Sandton",Sandton,,189,-26.0324330000,28.0631100000,0,0
Nando's,"African, Portuguese",3.4,Average,55,R,180,2,"Douglasdale Village Shopping Centre, Douglasdale","Douglasdale Village Shopping Centre, Douglasdale, Sandton",Sandton,,189,-26.0403333333,27.9940000000,0,0
Nando's,"African, Portuguese",3.2,Average,35,R,180,2,"Greenstone Crescent, Edenvale","Greenstone Crescent, Edenvale, East Rand",East Rand,,189,-26.1223830000,28.1429170000,0,0
Taste of Punjab,Indian,3.4,Average,36,R,250,3,Edenvale,"Edenvale, East Rand",East Rand,,189,-26.1385600000,28.1378590000,0,0
The Applebite Roadhouse & Pizzeria,"Fast Food, Grill, Pizza",3.4,Average,48,R,250,3,Edenvale,"Edenvale, East Rand",East Rand,,189,-26.1377883333,28.1515816667,0,0
Hunga Busta's,Fast Food,3.4,Average,25,R,100,2,Ormonde,"Ormonde, Johannesburg South",Johannesburg South,,189,-26.2324900000,28.0022290000,0,0
Kung-Fa Kitchen,"Chinese, Japanese, Sushi",3.4,Average,32,R,100,2,"Grosvenor Crossing, Bryanston","Grosvenor Crossing, Bryanston, Sandton",Sandton,,189,-26.0625000000,28.0236666667,0,0
Amigos Fast Food,Fast Food,3.4,Average,19,R,140,2,Krugersdorp,"Krugersdorp, West Rand",West Rand,,189,-26.1006010000,27.7970880000,0,0
Burger Box Roadhouse Grill,"Fast Food, Grill, Pizza, Burger, Desserts",3.4,Average,16,R,96,1,Kempton Park,"Kempton Park, East Rand",East Rand,,189,-26.0698692244,28.2084093243,0,0
Kung-Fu Kitchen,"Chinese, Japanese, Sushi",3.4,Average,27,R,100,2,Oakdene,"Oakdene, Johannesburg South",Johannesburg South,,189,-26.2653333333,28.0590000000,0,0
Milky Lane,Ice Cream,3.4,Average,16,R,50,1,"Sandton City Shopping Centre, Sandown","Sandton City Shopping Centre, Sandown, Sandton",Sandton,,189,-26.1091990000,28.0533440000,0,0
Le Petit Sel,"French, Italian",3.4,Average,13,R,300,4,Morningside,"Morningside, Sandton",Sandton,,189,-26.0854840000,28.0592210000,0,0
House Of Schwarma,"Arabian, Turkish",3.4,Average,15,R,100,2,Fordsburg,"Fordsburg, Inner City",Inner City,,189,-26.2055000000,28.0218333333,0,0
Saffron,"Indian, Beverages, Burger, Desserts, Fast Food, Ice Cream",3.4,Average,15,R,180,2,Marshalltown,"Marshalltown, Inner City",Inner City,,189,-26.2083080000,28.0400990000,0,0
Senhor Calistos,Fast Food,3.4,Average,23,R,150,2,Bassonia,"Bassonia, Johannesburg South",Johannesburg South,,189,-26.2789280000,28.0677810000,0,0
Emilios Gourmet Popcorn,Desserts,3.4,Average,11,R,100,2,"Montecasino, Fourways","Montecasino, Fourways, Sandton",Sandton,,189,-26.0222570000,28.0121360000,0,0
Nando's,"African, Portuguese",3.4,Average,14,R,180,2,"OR Tambo International Airport, Kempton Park","OR Tambo International Airport, Kempton Park, East Rand",East Rand,,189,-26.1355000000,28.2315000000,0,0
Domino's Pizza,"Fast Food, Pizza",3.4,Average,14,R,150,2,"The Square Shopping Centre, Sunninghill","The Square Shopping Centre, Sunninghill, Sandton",Sandton,,189,-26.0322590000,28.0632410000,0,0
Mr Pizza,"Italian, Pizza",3.4,Average,13,R,150,2,"Summerfield Shopping Centre, Atlasville, East Rand","Summerfield Shopping Centre, Atlasville, East Rand, East Rand",East Rand,,189,-26.1603360000,28.2799650000,0,0
Geet's Vegetarian Take Away,Indian,3.4,Average,19,R,100,2,Meredale,"Meredale, Johannesburg South",Johannesburg South,,189,-26.2692668928,28.0203435570,0,0
Chilli Express,Fast Food,3.4,Average,15,R,150,2,"Ridge Terrace Shopping Centre, Weltevreden Park, Roodepoort","Ridge Terrace Shopping Centre, Weltevreden Park, Roodepoort, Roodepoort",Roodepoort,,189,-26.1136404521,27.9472865537,0,0
Burger King,"Burger, Fast Food",3.4,Average,16,R,120,2,North Riding,"North Riding, Randburg",Randburg,,189,-26.0591740000,27.9778200000,0,0
Krispy Kreme,"Bakery, Desserts",3.4,Average,10,R,120,2,Strubens Valley,"Strubens Valley, Roodepoort",Roodepoort,,189,-26.1273637076,27.9044204950,0,0
Fish Hook,Fish and Chips,3.4,Average,12,R,80,1,Cresta,"Cresta, Randburg",Randburg,,189,-26.1304570000,27.9862710000,0,0
Fisherman's Deli Factory Shop,Sushi,3.4,Average,7,R,0,1,North Riding,"North Riding, Randburg",Randburg,,189,-26.0334320000,27.9559440000,0,0
Pregos Express,Portuguese,3.4,Average,17,R,180,2,"Sunward Park Lifestyle Centre, Boksburg","Sunward Park Lifestyle Centre, Boksburg, East Rand",East Rand,,189,-26.2570710000,28.2687870000,0,0
Asian Point,"Asian, Sushi",3.4,Average,14,R,150,2,"Ferndale Village Shopping Center, Randburg","Ferndale Village Shopping Center, Randburg, Randburg",Randburg,,189,-26.0816471848,27.9978857562,0,0
McDonald's,Fast Food,3.4,Average,12,R,100,2,"Sandton City Shopping Centre, Sandown","Sandton City Shopping Centre, Sandown, Sandton",Sandton,,189,-26.1076666667,28.0543333333,0,0
Bagel Zone,Deli,3.4,Average,6,R,80,1,Glenhazel,"Glenhazel, Johannesburg",Johannesburg,,189,-26.1500000000,28.1000000000,0,0
The Patisserie,"Cafe, Patisserie, Bakery, Desserts, Beverages, French, Healthy Food, Juices",3.3,Average,61,R,150,2,"The Zone, Rosebank, Sandton","The Zone, Rosebank, Sandton, Johannesburg",Johannesburg,,189,-26.1461666667,28.0425000000,0,0
The Baron,"Steak, Contemporary, Burger",3.3,Average,72,R,450,4,Woodmead,"Woodmead, Sandton",Sandton,,189,-26.0569290000,28.0894470000,0,0
Burger King,"Burger, Fast Food",3.3,Average,72,R,120,2,"The Zone, Rosebank, Sandton","The Zone, Rosebank, Sandton, Johannesburg",Johannesburg,,189,-26.1450556000,28.0430056000,0,0
Pablo Eggs-Go-Bar,"Cafe, Contemporary, Beverages, Burger, Desserts, Juices, Grill, African",4.5,Excellent,341,R,300,4,Melville,"Melville, Johannesburg",Johannesburg,,189,-26.1775990000,28.0085090000,0,0
Leafy Greens Café,"Cafe, Healthy Food",4.5,Excellent,176,R,220,3,Muldersdrift,"Muldersdrift, West Rand",West Rand,,189,-26.0447536100,27.8725290298,0,0
The Whippet,Cafe,4.4,Very Good,749,R,200,3,Linden,"Linden, Randburg",Randburg,2195,189,-26.1402600000,27.9917910000,0,0
The Fat Zebra,"Cafe, Pizza, Tapas",4.4,Very Good,372,R,300,4,Linden,"Linden, Randburg",Randburg,2104,189,-26.1370640000,27.9946010000,0,0
Cafe Billi Bi,Cafe,4.4,Very Good,175,R,220,3,"Stoneridge Shopping Centre, Edenvale","Stoneridge Shopping Centre, Edenvale, East Rand",East Rand,,189,-26.1148333333,28.1451666667,0,0
Coobs,"Cafe, European, Continental",4.3,Very Good,519,R,600,4,Parkhurst,"Parkhurst, Johannesburg",Johannesburg,,189,-26.1378333333,28.0180000000,0,1
Salvationcafe,Cafe,4.3,Very Good,453,R,250,3,"44 Stanley, Milpark","44 Stanley, Milpark, Inner City",Inner City,2092,189,-26.1848049345,28.0189125985,0,0
Arbour Cafe & Courtyard,"Cafe, French",4.3,Very Good,211,R,300,4,Illovo,"Illovo, Sandton",Sandton,,189,-26.1375870000,28.0573330000,0,0
Patachou Patisserie,"Cafe, Bakery, Desserts, Beverages",4.3,Very Good,101,R,100,2,"Rivonia Village Shopping Centre, Rivoina","Rivonia Village Shopping Centre, Rivoina, Sandton",Sandton,,189,-26.0606390000,28.0596140000,0,0
Nice on 4th,Cafe,4.2,Very Good,370,R,150,2,Parkhurst,"Parkhurst, Johannesburg",Johannesburg,,189,-26.1376910000,28.0176690000,0,0
tashas,Cafe,4.2,Very Good,238,R,350,4,Morningside,"Morningside, Sandton",Sandton,,189,-26.0830000000,28.0571666667,0,0
Bottega Cafe,"Cafe, Italian",4.2,Very Good,243,R,300,4,Parkhurst,"Parkhurst, Johannesburg",Johannesburg,,189,-26.1406666667,28.0171666667,0,0
Bean There Coffee Company,"Cafe, Beverages, Bakery, Deli",4.2,Very Good,123,R,80,1,"44 Stanley, Milpark","44 Stanley, Milpark, Inner City",Inner City,2092,189,-26.1855420000,28.0194420000,0,0
tashas,Cafe,4.1,Very Good,376,R,350,4,Melrose Arch,"Melrose Arch, Sandton",Sandton,,189,-26.1315000000,28.0685000000,0,0
Café Hemingway's,Cafe,4.1,Very Good,212,R,250,3,"Kyalami Downs Shopping Centre, Kyalami Park","Kyalami Downs Shopping Centre, Kyalami Park, Midrand",Midrand,,189,-25.9908386529,28.0759283155,0,0
Knead Bakery & Cafe,"Cafe, Bakery",4.1,Very Good,239,R,250,3,"Michelangelo Towers Mall, Sandown","Michelangelo Towers Mall, Sandown, Sandton",Sandton,,189,-26.1062457769,28.0543318391,0,0
tashas,Cafe,4.2,Very Good,267,R,300,4,"Hyde Park Corner, Hyde Park","Hyde Park Corner, Hyde Park, Sandton",Sandton,,189,-26.1251666667,28.0335000000,0,0
tashas,Cafe,4.1,Very Good,185,R,350,4,"Village View Shopping Center, Bedfordview","Village View Shopping Center, Bedfordview, East Rand",East Rand,,189,-26.1835000000,28.1355000000,0,0
Croft & Co,Cafe,4.1,Very Good,183,R,220,3,Parkview,"Parkview, Johannesburg",Johannesburg,,189,-26.1595000000,28.0256666667,0,0
The Patisserie,"Cafe, Patisserie, Bakery, Desserts, Beverages, French, Healthy Food, Juices",4.1,Very Good,169,R,150,2,"Post Office Center, Illovo","Post Office Center, Illovo, Sandton",Sandton,,189,-26.1289920000,28.0508830000,0,0
Conscious 108,"Cafe, Healthy Food",4.1,Very Good,156,R,250,3,Greenside,"Greenside, Johannesburg",Johannesburg,2193,189,-26.1470450000,28.0121850000,0,0
Fresh Earth Food Store,"Cafe, Ice Cream, Burger, Healthy Food, Desserts, Pizza, Deli",4.1,Very Good,136,R,200,3,Emmarentia,"Emmarentia, Johannesburg",Johannesburg,,189,-26.1623930000,28.0118970000,0,0
Dolci Cafe,"Cafe, Bakery, Deli, Italian",4.0,Very Good,91,R,200,3,Craighall,"Craighall, Johannesburg",Johannesburg,,189,-26.1303350000,28.0263350000,0,0
The Grind Coffee Company,Cafe,4.1,Very Good,161,R,100,2,Melrose Arch,"Melrose Arch, Sandton",Sandton,,189,-26.1316624484,28.0678233504,0,0
L8 Cafe,"Cafe, Burger",4.1,Very Good,118,R,250,3,"44 Stanley, Milpark","44 Stanley, Milpark, Inner City",Inner City,2195,189,-26.1852120000,28.0187530000,0,0
Naked Coffee,Cafe,4.1,Very Good,43,R,120,2,Morningside,"Morningside, Sandton",Sandton,,189,-26.0825710000,28.0600760000,0,0
Casa Marani,"Cafe, Deli, Italian",4.1,Very Good,26,R,200,3,Parkhurst,"Parkhurst, Johannesburg",Johannesburg,,189,-26.1374740000,28.0177440000,0,0
Paul,"Cafe, French, Patisserie",4.0,Very Good,322,R,300,4,"Melrose Arch, Melrose ","Melrose Arch, Melrose , Sandton",Sandton,,189,-26.1327010000,28.0679460000,0,0
Walnut Grove,"Cafe, Continental",4.0,Very Good,574,R,300,4,"Sandton City Shopping Centre, Sandown","Sandton City Shopping Centre, Sandown, Sandton",Sandton,2146,189,-26.1061666667,28.0548333333,0,0
tashas,Cafe,4.0,Very Good,384,R,350,4,Bryanston,"Bryanston, Sandton",Sandton,,189,-26.0530000000,28.0206666667,0,0
Roast Cafe,Cafe,4.0,Very Good,167,R,250,3,"Melrose Arch, Melrose ","Melrose Arch, Melrose , Sandton",Sandton,,189,-26.1319680000,28.0676920000,0,0
CNR Cafe,"Cafe, Italian, Pizza",4.0,Very Good,371,R,220,3,Craighall,"Craighall, Johannesburg",Johannesburg,,189,-26.1240150000,28.0195170000,0,0
Doppio Zero,"Cafe, Italian, Bakery, Pizza",4.0,Very Good,379,R,300,4,Greenside,"Greenside, Johannesburg",Johannesburg,,189,-26.1461666667,28.0101666667,0,0
Teta Mari,"Cafe, Deli, Mediterranean, Middle Eastern",4.1,Very Good,179,R,300,4,"Illovo Square, Illovo","Illovo Square, Illovo, Sandton",Sandton,,189,-26.1278333333,28.0486666667,0,0
Motherland Coffee Company,Cafe,4.0,Very Good,201,R,150,2,"The Zone, Rosebank, Sandton","The Zone, Rosebank, Sandton, Johannesburg",Johannesburg,,189,-26.1438333333,28.0423333333,0,0
MV Cafe,"Cafe, Italian, Mediterranean",4.0,Very Good,127,R,320,4,Northcliff,"Northcliff, Johannesburg",Johannesburg,,189,-26.1448390000,27.9532900000,0,0
The Greenside Cafe,"Cafe, Healthy Food",4.0,Very Good,125,R,200,3,Greenside,"Greenside, Johannesburg",Johannesburg,,189,-26.1463333333,28.0120000000,0,0
Krunch - Sandton City,"Cafe, Bakery, Healthy Food, Juices",4.0,Very Good,113,R,180,2,"Sandton City Shopping Centre, Sandown","Sandton City Shopping Centre, Sandown, Sandton",Sandton,,189,-26.1073333333,28.0545000000,0,0
Just Darling,Cafe,4.0,Very Good,66,R,200,3,"Mall of the South, Meyersdal","Mall of the South, Meyersdal, Johannesburg South",Johannesburg South,,189,-26.3149860000,28.0609760000,0,0
Father Coffee,Cafe,4.0,Very Good,48,R,0,1,"The Zone, Rosebank, Sandton","The Zone, Rosebank, Sandton, Johannesburg",Johannesburg,,189,-26.1458500000,28.0434560000,0,0
Fabb Cafe & Gelato,"Cafe, Ice Cream",4.0,Very Good,32,R,0,1,Parkhurst,"Parkhurst, Johannesburg",Johannesburg,,189,-26.1385980000,28.0177970000,0,0
tashas,Cafe,3.9,Good,420,R,350,4,"The Zone, Rosebank, Sandton","The Zone, Rosebank, Sandton, Johannesburg",Johannesburg,,189,-26.1450000000,28.0426666667,0,0
Espresso Caffe and Bistro,"Cafe, Grill, Seafood, Pizza",3.9,Good,336,R,320,4,Parkhurst,"Parkhurst, Johannesburg",Johannesburg,,189,-26.1393333333,28.0173333333,0,0
Thyme on Nicol,"Cafe, Sushi",3.9,Good,272,R,200,3,Parkmore,"Parkmore, Sandton",Sandton,,189,-26.0898470000,28.0250560000,0,0
Fournos Bakery,"Cafe, Bakery",3.9,Good,269,R,250,3,"Dunkeld West Shopping Centre, Dunkeld","Dunkeld West Shopping Centre, Dunkeld, Sandton",Sandton,,189,-26.1313420000,28.0349180000,0,0
The Artisan,Cafe,3.9,Good,238,R,350,4,Greenside,"Greenside, Johannesburg",Johannesburg,2193,189,-26.1463333333,28.0091666667,0,0
Starbucks Reserve,Cafe,3.8,Good,203,R,150,2,Rosebank,"Rosebank, Johannesburg",Johannesburg,,189,-26.1450080000,28.0420760000,0,0
Motherland Coffee Company,Cafe,3.9,Good,116,R,150,2,"Dunkeld West Shopping Centre, Dunkeld","Dunkeld West Shopping Centre, Dunkeld, Sandton",Sandton,,189,-26.1313420000,28.0349180000,0,0
The Living Room,"Cafe, Healthy Food",3.9,Good,144,R,250,3,"Maboneng Precinct, City & Suburban ","Maboneng Precinct, City & Suburban , Inner City",Inner City,,189,-26.2045710000,28.0594350000,0,0
Fournos Bakery,"Cafe, Bakery",3.9,Good,99,R,250,3,Rosebank,"Rosebank, Johannesburg",Johannesburg,,189,-26.1465000000,28.0428333333,0,0
Gravity Cafe,Cafe,3.9,Good,104,R,200,3,Linden,"Linden, Randburg",Randburg,,189,-26.1415295987,27.9935462773,0,0
Father Coffee,Cafe,3.9,Good,121,R,0,1,Braamfontein,"Braamfontein, Inner City",Inner City,,189,-26.1943760000,28.0349770000,0,0
tashas,Cafe,3.9,Good,99,R,350,4,Sandown,"Sandown, Sandton",Sandton,,189,-26.1063333333,28.0668333333,0,0
Paoletto,Cafe,3.9,Good,88,R,200,3,Edenvale,"Edenvale, East Rand",East Rand,1609,189,-26.1501122023,28.1572028895,0,0
The Clay Oven,"Cafe, Greek, Portuguese, Pizza",3.9,Good,78,R,180,2,Douglasdale,"Douglasdale, Sandton",Sandton,,189,-26.0339090000,27.9831470000,0,0
Lucky Bread Company,Cafe,3.9,Good,85,R,200,3,"Mall of Africa, Midrand","Mall of Africa, Midrand, Midrand",Midrand,,189,-26.0156010000,28.1065730000,0,0
Doubleshot Coffee & Tea,Cafe,3.9,Good,114,R,0,1,Braamfontein,"Braamfontein, Inner City",Inner City,,189,-26.1942800000,28.0360850000,0,0
Free Food Diner & Takeaway,"Cafe, Deli",3.9,Good,51,R,220,3,Birnam,"Birnam, Sandton",Sandton,,189,-26.1296550000,28.0679440000,0,0
Bread & Roses Cafe & Bistro,Cafe,3.9,Good,44,R,250,3,Melville,"Melville, Johannesburg",Johannesburg,,189,-26.1756680000,28.0088980000,0,0
Loof Coffee,Cafe,4.0,Very Good,45,R,80,1,Norwood,"Norwood, Johannesburg",Johannesburg,,189,-26.1601990000,28.0759280000,0,0
Origin Coffee,Cafe,3.9,Good,45,R,50,1,"Maboneng Precinct, City & Suburban ","Maboneng Precinct, City & Suburban , Inner City",Inner City,,189,-26.2043250000,28.0580970000,0,0
Harpers,"Cafe, Contemporary",3.8,Good,37,R,280,3,"Eastgate Shopping Centre, Bedford Gardens","Eastgate Shopping Centre, Bedford Gardens, East Rand",East Rand,,189,-26.1795000000,28.1175000000,0,0
Sticky Waffle,Cafe,3.9,Good,31,R,100,2,Bryanston,"Bryanston, Sandton",Sandton,2191,189,0.0000000000,0.0000000000,0,0
Brewtown Coffee Co.,"Cafe, Beverages",3.9,Good,51,R,120,2,Lonehill,"Lonehill, Sandton",Sandton,,189,-26.0136670000,28.0269410000,0,0
That Spot on 4th,Cafe,3.9,Good,26,R,300,4,Parktown North,"Parktown North, Johannesburg",Johannesburg,2193,189,-26.1452920000,28.0248990000,0,0
Doppio Zero,"Cafe, Italian, Bakery, Pizza",3.8,Good,384,R,300,4,Rosebank,"Rosebank, Johannesburg",Johannesburg,,189,-26.1438333333,28.0423333333,0,0
Doppio Zero,"Cafe, Italian, Bakery, Pizza",3.8,Good,273,R,300,4,"Sandton City Shopping Centre, Sandown","Sandton City Shopping Centre, Sandown, Sandton",Sandton,,189,-26.1095000000,28.0523333333,0,0
tashas,Cafe,3.8,Good,226,R,350,4,"Nelson Mandela Square, Sandown","Nelson Mandela Square, Sandown, Sandton",Sandton,,189,-26.1068060000,28.0543960000,0,0
Doppio Zero,"Cafe, Italian, Bakery, Pizza",3.8,Good,259,R,300,4,"Pineslopes Shopping Centre, Fourways","Pineslopes Shopping Centre, Fourways, Sandton",Sandton,,189,-26.0221666667,28.0158333333,0,0
Voodoo Lily Cafe,Cafe,3.8,Good,249,R,220,3,Illovo,"Illovo, Sandton",Sandton,2196,189,-26.1372210000,28.0573790000,0,0
Jacksons Real Food Market,"Healthy Food, Burger, Pizza",3.8,Good,201,R,150,2,Bryanston,"Bryanston, Sandton",Sandton,2014,189,-26.0589466750,28.0456471816,0,0
Belle's Patisserie,"Cafe, Patisserie, Desserts",3.8,Good,167,R,300,4,"BluBird Shopping Centre, Birnam","BluBird Shopping Centre, Birnam, Sandton",Sandton,,189,-26.1295000000,28.0651666667,0,0
Ant Cafe,"Cafe, Italian, Pizza",3.8,Good,231,R,200,3,Melville,"Melville, Johannesburg",Johannesburg,,189,-26.1758333333,28.0088333333,0,0
Carmella's On The Square,"Cafe, Beverages, Burger, Deli, Desserts, Juices, Healthy Food",3.9,Good,76,R,200,3,"Cedar Square, Fourways, Sandton","Cedar Square, Fourways, Sandton, Sandton",Sandton,,189,-26.0172390000,27.9997080000,0,0
Service Station,"Cafe, Beverages, Burger, Contemporary, Deli, Desserts, Healthy Food, Ice Cream",3.8,Good,145,R,150,2,Melville,"Melville, Johannesburg",Johannesburg,,189,-26.1743070000,28.0134760000,0,0
Red Door,"Cafe, Tapas",3.8,Good,87,R,300,4,Edenvale,"Edenvale, East Rand",East Rand,,189,0.0000000000,0.0000000000,0,0
Cafe De La Creme,Cafe,3.8,Good,121,R,180,2,Melville,"Melville, Johannesburg",Johannesburg,,189,-26.1758333333,28.0088333333,0,0
Post,Cafe,3.8,Good,115,R,0,1,Braamfontein,"Braamfontein, Inner City",Inner City,,189,-26.1945970000,28.0347440000,0,0
Park Cafe,"Juices, Cafe, Contemporary, Patisserie",3.9,Good,68,R,180,2,Parktown,"Parktown, Johannesburg",Johannesburg,,189,-26.1510510000,28.0336950000,0,0
The Silver Teaspoon,"Patisserie, Cafe, British",3.8,Good,47,R,180,2,Northcliff,"Northcliff, Johannesburg",Johannesburg,,189,-26.1347360000,27.9706290000,0,0
La Tazzina,"Cafe, Desserts",3.8,Good,67,R,250,3,Edenvale,"Edenvale, East Rand",East Rand,,189,-26.1508180000,28.1512310000,0,0
Cheese Cafe,Cafe,3.8,Good,78,R,150,2,Linden,"Linden, Randburg",Randburg,,189,-26.1372740000,27.9950280000,0,0
District Six Eatery,Cafe,3.8,Good,85,R,300,4,Emmarentia,"Emmarentia, Johannesburg",Johannesburg,,189,-26.1616666667,28.0125000000,0,0
The Perfect Cup,"Cafe, Beverages, Desserts, European, Healthy Food",3.8,Good,94,R,150,2,Parkview,"Parkview, Johannesburg",Johannesburg,,189,-26.1605000000,28.0265000000,0,0
Humble Harry's - The Buzz Shopping Centre,Cafe,3.8,Good,52,R,200,3,Fourways,"Fourways, Sandton",Sandton,,189,-26.0240270000,27.9908590000,0,0
Breezeblock,"Cafe, Contemporary",3.8,Good,22,R,300,4,Brixton,"Brixton, Inner City",Inner City,,189,-26.1934520000,28.0040350000,0,0
Chocoloza,"Cafe, Desserts",3.8,Good,18,R,160,2,"44 Stanley, Milpark","44 Stanley, Milpark, Inner City",Inner City,,189,-26.1856650000,28.0196270000,0,0
Vovo Telo,"Cafe, Bakery, Desserts",3.7,Good,378,R,290,3,Parkhurst,"Parkhurst, Johannesburg",Johannesburg,,189,-26.1376666667,28.0178333333,0,0
Glenda's,"Cafe, Contemporary",3.7,Good,169,R,520,4,Hyde Park,"Hyde Park, Sandton",Sandton,,189,-26.1296890000,28.0341980000,0,0
Doppio Zero,"Cafe, Italian, Bakery, Pizza",3.7,Good,163,R,300,4,"Bel-Air Shopping Centre, North Riding","Bel-Air Shopping Centre, North Riding, Randburg",Randburg,,189,-26.0605370000,27.9571970000,0,0
Deli One,"Cafe, Bakery, Deli",3.7,Good,147,R,250,3,"Sandton City Shopping Centre, Sandown","Sandton City Shopping Centre, Sandown, Sandton",Sandton,,189,-26.1061666667,28.0548333333,0,0
Mugg & Bean,Cafe,3.7,Good,139,R,300,4,"Sandton City Shopping Centre, Sandown","Sandton City Shopping Centre, Sandown, Sandton",Sandton,,189,-26.1076666667,28.0548333333,0,0
Gia's on Montrose,Cafe,3.7,Good,96,R,200,3,Morningside,"Morningside, Sandton",Sandton,,189,-26.0889130000,28.0673370000,0,0
Foood,"Cafe, Pizza",3.7,Good,95,R,200,3,"Cresta Shopping Centre, Cresta","Cresta Shopping Centre, Cresta, Randburg",Randburg,,189,-26.1306666667,27.9745000000,0,0
Humble Harry's - The Leaping Frog Shopping Centre,Cafe,3.8,Good,121,R,200,3,"The Leaping Frog Shopping Centre, Fourways, Sandton","The Leaping Frog Shopping Centre, Fourways, Sandton, Sandton",Sandton,,189,-26.0098333333,28.0128333333,0,0
Delta Cafe,Cafe,3.7,Good,77,R,260,3,Craighall,"Craighall, Johannesburg",Johannesburg,,189,-26.1274740000,28.0167180000,0,0
4th Avenue Coffee Roasters,Cafe,3.6,Good,86,R,150,2,Parkhurst,"Parkhurst, Johannesburg",Johannesburg,,189,-26.1393333333,28.0175000000,0,0
Love Food,Cafe,3.7,Good,102,R,0,1,Braamfontein,"Braamfontein, Inner City",Inner City,,189,-26.1913333333,28.0338333333,0,0
Doppio Zero,"Cafe, Italian, Bakery, Pizza",3.6,Good,55,R,300,4,"Mall of the South, Meyersdal","Mall of the South, Meyersdal, Johannesburg South",Johannesburg South,,189,-26.3156890000,28.0629280000,0,0
Fournos Bakery,"Cafe, Bakery",3.7,Good,59,R,250,3,"Bedford Centre, Bedfordview","Bedford Centre, Bedfordview, East Rand",East Rand,,189,-26.1886666667,28.1225000000,0,0
Bolton Road Collection,"European, Contemporary",4.2,Very Good,393,R,400,4,Rosebank,"Rosebank, Johannesburg",Johannesburg,2021,189,-26.1489620000,28.0347440000,0,0
The Countess,"Burger, Juices, American, Finger Food, Grill",4.2,Very Good,311,R,380,4,"27 Boxes, Melville, ","27 Boxes, Melville, , Johannesburg",Johannesburg,,189,-26.1756163473,28.0074203387,0,0
Tonic,"Finger Food, Tapas",4.1,Very Good,42,R,0,1,Linden,"Linden, Randburg",Randburg,2195,189,-26.1408360875,27.9915467205,0,0
86 Public,Pizza,4.0,Very Good,194,R,300,4,Braamfontein,"Braamfontein, Inner City",Inner City,,189,-26.1941070000,28.0361310000,0,0
The National,American,4.0,Very Good,265,R,515,4,Parktown North,"Parktown North, Johannesburg",Johannesburg,,189,-26.1440716000,28.0251930000,0,1
EB Social Kitchen & Bar,"Contemporary, Tapas",4.0,Very Good,187,R,550,4,"Hyde Park Corner, Hyde Park","Hyde Park Corner, Hyde Park, Sandton",Sandton,,189,-26.1252070000,28.0333130000,0,0
Nostimo by Mythos,"Greek, Pizza",4.0,Very Good,85,R,225,3,Woodmead,"Woodmead, Sandton",Sandton,,189,-26.0137092788,28.0994251671,0,0
The Landmark,"Finger Food, Pizza",4.0,Very Good,75,R,340,4,"Bryanston Shopping Centre, Bryanston","Bryanston Shopping Centre, Bryanston, Sandton",Sandton,,189,-26.0755270000,28.0278250000,0,0
Erawan Thai Restaurant and Bar,Thai,3.9,Good,259,R,300,4,"Riverside Shopping Center, Bryanston","Riverside Shopping Center, Bryanston, Sandton",Sandton,,189,-26.0586360000,28.0468290000,0,0
The Artisan,Cafe,3.9,Good,238,R,350,4,Greenside,"Greenside, Johannesburg",Johannesburg,2193,189,-26.1463333333,28.0091666667,0,0
011 Dainfern by The Baron,"Finger Food, Burger, Beverages, Grill, Italian, Mediterranean, Seafood, Steak",3.9,Good,88,R,175,2,"Dainfern Square, Dainfern","Dainfern Square, Dainfern, Midrand",Midrand,,189,-25.9940100000,28.0138950000,0,0
Lenin's Vodka Bar,American,3.9,Good,60,R,180,2,"Maboneng Precinct, City & Suburban ","Maboneng Precinct, City & Suburban , Inner City",Inner City,,189,-26.2035300000,28.0606440000,0,0
Mooteebar,"African, Finger Food",3.9,Good,26,R,250,3,Melville,"Melville, Johannesburg",Johannesburg,,189,-26.1757544060,28.0084017220,0,0
The Griffin,Contemporary,3.8,Good,378,R,350,4,Illovo,"Illovo, Sandton",Sandton,,189,-26.1346643392,28.0483273789,0,0
Olivias Coffee Bake,"Bakery, Cafe",3.9,Good,158,R,200,3,Northcliff,"Northcliff, Johannesburg",Johannesburg,,189,-26.1443333333,27.9811666667,0,0
Six Bar and Restaurant,"South African, Italian, European",3.8,Good,110,R,200,3,Melville,"Melville, Johannesburg",Johannesburg,,189,-26.1768333333,28.0086666667,0,0
Milk & Honey Bar,French,3.8,Good,46,R,500,4,"Montecasino, Fourways","Montecasino, Fourways, Sandton",Sandton,,189,-26.0240000000,28.0145000000,0,0
Copper Bar,Drinks Only,3.8,Good,40,R,200,3,Bryanston,"Bryanston, Sandton",Sandton,,189,-26.0616790000,28.0213210000,0,0
San Bar - Sandton Sun Hotel,"African, European",3.7,Good,180,R,450,4,"Sandton Sun Hotel, Sandown, Sandton","Sandton Sun Hotel, Sandown, Sandton, Sandton",Sandton,2196,189,-26.1071780000,28.0519040000,0,0
Great Dane,"Finger Food, South African, American",3.6,Good,93,R,0,1,Braamfontein,"Braamfontein, Inner City",Inner City,,189,-26.1943160000,28.0346710000,0,0
Island Bar at Southern Sun,Mediterranean,3.7,Good,57,R,250,3,Hyde Park,"Hyde Park, Sandton",Sandton,2024,189,-26.1244240000,28.0325710000,0,0
Jo'Anna Melt Bar,"European, Beverages, Desserts, Finger Food",3.7,Good,80,R,150,2,Melville,"Melville, Johannesburg",Johannesburg,,189,-26.1766800000,28.0085900000,0,0
Beerhouse Fourways,European,3.6,Good,379,R,300,4,Fourways,"Fourways, Sandton",Sandton,2191,189,-26.0215857805,28.0136180086,0,0
Murphy's Law Bar &  Grill,Grill,3.6,Good,62,R,600,4,North Riding,"North Riding, Randburg",Randburg,,189,-26.0541600209,27.9555628449,0,0
Crafters Bar,Drinks Only,3.6,Good,29,R,200,3,Norwood,"Norwood, Johannesburg",Johannesburg,,189,-26.1578430000,28.0766750000,0,0
The Deck @ Possums,European,3.6,Good,29,R,220,3,"Possums on Burnside, Craighall Park","Possums on Burnside, Craighall Park, Johannesburg",Johannesburg,,189,-26.1143090000,28.0225550000,0,0
86 Public,Pizza,3.5,Good,92,R,300,4,Illovo,"Illovo, Sandton",Sandton,,189,-26.1305190000,28.0495440000,0,0
Ratz Bar,"Mexican, Fast Food",3.5,Good,43,R,200,3,Melville,"Melville, Johannesburg",Johannesburg,,189,-26.1761666667,28.0088333333,0,0
The Green Room at Pirates East,"Cafe, Continental, Bakery, Burger, Desserts, Finger Food, Italian, Pizza",3.5,Good,24,R,260,3,Greenside,"Greenside, Johannesburg",Johannesburg,,189,-26.1466040149,28.0162548646,0,0
The VIP Room,"Finger Food, Beverages",3.5,Good,17,R,750,4,"Michelangelo Towers Mall, Sandown","Michelangelo Towers Mall, Sandown, Sandton",Sandton,,189,-26.1063333333,28.0540000000,0,0
Ridgeway Racebar,"Grill, Pizza",3.4,Average,37,R,200,3,"Stoneridge Shopping Centre, Edenvale","Stoneridge Shopping Centre, Edenvale, East Rand",East Rand,,189,-26.1138270000,28.1436600000,0,0
Sir James Van Der Merwe,Finger Food,3.4,Average,23,R,180,2,"Katy's Palace Bar, Morningside","Katy's Palace Bar, Morningside, Sandton",Sandton,,189,-26.0888880000,28.0807320000,0,0
The Good Luck Bar,"African, Finger Food",3.4,Average,16,R,150,2,Ferreirastown,"Ferreirastown, Inner City",Inner City,,189,-26.2071200000,28.0318200000,0,0
Poolside,"Contemporary, Beverages",3.4,Average,16,R,300,4,"Maboneng Precinct, City & Suburban ","Maboneng Precinct, City & Suburban , Inner City",Inner City,,189,-26.2032700000,28.0597770000,0,0
Casa De Amigos,Portuguese,3.4,Average,17,R,350,4,Kempton Park,"Kempton Park, East Rand",East Rand,,189,-26.0827640000,28.2331580000,0,0
Chicago's Piano Bar,"American, Steak",3.3,Average,121,R,300,4,Randpark Ridge,"Randpark Ridge, Randburg",Randburg,,189,-26.0930990000,27.9392240000,0,0
Nineteen69,"Pizza, Finger Food",3.3,Average,131,R,200,3,"Boskruin Village Shopping Centre, Boskruin","Boskruin Village Shopping Centre, Boskruin, Randburg",Randburg,,189,-26.0867540000,27.9589590000,0,0
Dingo's,"Finger Food, Burger, Grill",3.3,Average,18,R,380,4,"Lakefield Square, Lakefield","Lakefield Square, Lakefield, East Rand",East Rand,,189,-26.1785040000,28.2865170000,0,0
Hi-Flyerz Aviation Bar & Restaurant,"Grill, Pizza, International",3.3,Average,9,R,220,3,Boksburg,"Boksburg, East Rand",East Rand,,189,-26.1750250000,28.2483720000,0,0
Randlords,Contemporary,3.3,Average,11,R,0,1,Braamfontein,"Braamfontein, Inner City",Inner City,,189,-26.1938950000,28.0318470000,0,0
Republic of 94,"American, Pizza, Burger",3.3,Average,10,R,0,1,Braamfontein,"Braamfontein, Inner City",Inner City,,189,-26.1942700000,28.0368750000,0,0
Thief Restaurant,Continental,3.3,Average,21,R,450,4,Parkmore,"Parkmore, Sandton",Sandton,,189,0.0000000000,0.0000000000,0,0
Colonial Restaurant,"Portuguese, Pizza",3.2,Average,23,R,400,4,Magaliesburg,"Magaliesburg, West Rand",West Rand,,189,-25.9316640000,27.4674300000,0,0
Sphere Monk,"South African, Finger Food",3.2,Average,5,R,300,4,City and Suburban,"City and Suburban, Inner City",Inner City,,189,-26.2032300000,28.0603100000,0,0
Gem Bar & Grill,Grill,3.2,Average,4,R,150,2,Germiston,"Germiston, East Rand",East Rand,,189,-26.2417580000,28.1759750000,0,0
Roving Bantu Kitchen,African,3.2,Average,8,R,250,3,Mayfair,"Mayfair, Inner City",Inner City,,189,-26.1934340000,28.0009360000,0,0
Library Bar - African Pride Melrose Arch Hotel,"Contemporary, Grill",3.2,Average,8,R,400,4,"African Pride Hotel, Melrose Arch","African Pride Hotel, Melrose Arch, Sandton",Sandton,,189,-26.1318090000,28.0679050000,0,0
O Cantinho,Portuguese,3.2,Average,9,R,250,3,Germiston,"Germiston, East Rand",East Rand,,189,-26.2390570000,28.1758510000,0,0
Rhinos Pub And Grill,"Burger, Grill, Fast Food, Finger Food",3.2,Average,9,R,180,2,Wilropark,"Wilropark, Roodepoort",Roodepoort,,189,-26.1232427159,27.8751579300,0,0
The Nine Barrels,"Finger Food, Belgian, Grill, Seafood, Steak, Tapas",3.2,Average,4,R,200,3,City and Suburban,"City and Suburban, Inner City",Inner City,,189,-26.2016190000,28.0589720000,0,0
Dakota Lee - Rockabilly Bar & Tattoo Studio,Drinks Only,3.2,Average,5,R,240,3,Morningside,"Morningside, Sandton",Sandton,,189,-26.0885690000,28.0835610000,0,0
The Lacuna Bar - The Maslow Hotel,"African, Finger Food",3.1,Average,37,R,200,3,"The Maslow Hotel, Sandown, Sandton","The Maslow Hotel, Sandown, Sandton, Sandton",Sandton,,189,-26.0992640000,28.0590750000,0,0
The Green Craft Bar,"Italian, Finger Food",3.2,Average,6,R,270,3,Glenvista,"Glenvista, Johannesburg South",Johannesburg South,,189,0.0000000000,0.0000000000,0,0
Pizza Del Forno,"Italian, Pizza",3.1,Average,11,R,160,2,Florida Glen,"Florida Glen, West Rand",West Rand,,189,-26.1646250000,27.9432620000,0,0
Barnyard Theatre,"Grill, Pizza",3.1,Average,12,R,300,4,"Cresta Shopping Centre, Cresta","Cresta Shopping Centre, Cresta, Randburg",Randburg,,189,-26.1286170000,27.9735840000,0,0
Open at Eagle Canyon,"Contemporary, South African, Steak",3.1,Average,4,R,250,3,Honeydew,"Honeydew, Roodepoort",Roodepoort,,189,-26.0863120000,27.9264190000,0,0
Sundowners Pub,Drinks Only,3.1,Average,6,R,120,2,Mulbarton,"Mulbarton, Johannesburg South",Johannesburg South,,189,-26.3086130000,28.0571330000,0,0
The Terrace-Cigar & Wine Bar- The Hyatt Regency,Drinks Only,3.1,Average,4,R,400,4,"Hyatt Regency, Rosebank, Johannesburg","Hyatt Regency, Rosebank, Johannesburg, Johannesburg",Johannesburg,,189,-26.1434510000,28.0434600000,0,0
Pool Gazebo Bar - Hilton Hotel,Cafe,3.1,Average,2,R,350,4,"Hilton Hotel, Sandown","Hilton Hotel, Sandown, Sandton",Sandton,,189,-26.1017470000,28.0595860000,0,0
Grosky's Restaurant,"Seafood, Steak, American, Beverages, Burger, Desserts, Finger Food, Grill",3.0,Average,9,R,0,1,"Noordheuwel Shopping Centre, Krugersdorp","Noordheuwel Shopping Centre, Krugersdorp, West Rand",West Rand,,189,-26.0899050000,27.8185766667,0,0
Ballbreakers Pool Bar,Finger Food,3.0,Average,13,R,180,2,Fourways,"Fourways, Sandton",Sandton,,189,-26.0204410000,28.0137510000,0,0
Niche Lounge,"Finger Food, Beverages",3.0,Average,7,R,600,4,Rosebank,"Rosebank, Johannesburg",Johannesburg,,189,-26.1459640000,28.0371150000,0,0
Ballbreakers Pool Bar,Finger Food,3.0,Average,4,R,180,2,Blackheath,"Blackheath, Johannesburg",Johannesburg,,189,-26.1286050000,27.9698700000,0,0
Burg's Sports Bar,Finger Food,3.0,Average,2,R,200,3,"The Village Horizon Centre, Horizon View","The Village Horizon Centre, Horizon View, Roodepoort",Roodepoort,,189,-26.1433620000,27.8689760000,0,0
All Stars Sports Bar,Drinks Only,3.0,Average,1,R,200,3,"Trinity Shopping Centre, Randpark Ridge","Trinity Shopping Centre, Randpark Ridge, Randburg",Randburg,,189,-26.0919410000,27.9377020000,0,0
Chalk & Cue Sports Bar,Finger Food,3.0,Average,4,R,300,4,North Riding,"North Riding, Randburg",Randburg,,189,-26.0783200000,27.9460530000,0,0
Sankayi,Finger Food,2.9,Average,7,R,400,4,"90 Degrees On Rivonia, Rivonia","90 Degrees On Rivonia, Rivonia, Sandton",Sandton,,189,-26.0710500000,28.0642000000,0,0
Rockabilly's Pool Hall,Pizza,2.9,Average,9,R,180,2,Edenvale,"Edenvale, East Rand",East Rand,,189,-26.1254350000,28.1660730000,0,0
Las Vegas Tavern,"South African, African",2.9,Average,4,R,50,1,Newtown,"Newtown, Inner City",Inner City,,189,-26.2015000000,28.0371666667,0,0
Sports Cafe,Drinks Only,2.9,Average,1,R,100,2,Benoni,"Benoni, East Rand",East Rand,,189,-26.1934366667,28.3186366667,0,0
De Peak,South African,2.9,Average,4,R,150,2,Newtown,"Newtown, Inner City",Inner City,,189,-26.2018333333,28.0335000000,0,0
International Restaurant & Action Bar,"Beverages, Finger Food",2.9,Average,4,R,50,1,Newtown,"Newtown, Inner City",Inner City,,189,-26.2015140000,28.0351630000,0,0
JB's Corner,"Italian, American, Pizza, Burger, Desserts, Grill, Seafood",2.8,Average,97,R,0,1,"Clearwater Mall, Strubens Valley, Roodeport","Clearwater Mall, Strubens Valley, Roodeport, Roodepoort",Roodepoort,,189,-26.1273947123,27.9044473171,0,0
Harleys Grill and Pub,"South African, Burger, Pizza",2.8,Average,6,R,0,1,Bedfordview,"Bedfordview, East Rand",East Rand,,189,-26.1805720262,28.1364485926,0,0
Shikisha,Finger Food,2.8,Average,6,R,250,3,Newtown,"Newtown, Inner City",Inner City,,189,-26.2041666667,28.0335000000,0,0
Hard Rock Cafe,"American, Steak, Burger",2.7,Average,557,R,450,4,"Nelson Mandela Square, Sandown","Nelson Mandela Square, Sandown, Sandton",Sandton,,189,-26.1076666667,28.0543333333,0,0
Winesense,Mediterranean,2.7,Average,34,R,360,4,"Melrose Arch, Melrose ","Melrose Arch, Melrose , Sandton",Sandton,,189,-26.1336666667,28.0681666667,0,0
Tsunami Beach Restaurant,"Fast Food, Latin American",2.7,Average,7,R,200,3,Benoni,"Benoni, East Rand",East Rand,,189,-26.1494080000,28.2997890000,0,0
The Getty : Miami,Finger Food,2.6,Average,33,R,300,4,North Riding,"North Riding, Randburg",Randburg,,189,-26.0548370000,27.9643880000,0,0
Bru's,"South African, Pizza, Burger",2.6,Average,18,R,250,3,"Carnival City, Brakpan","Carnival City, Brakpan, East Rand",East Rand,,189,-26.2583500000,28.3139060000,0,0
Hashtag Kitchen & Bar,Contemporary,2.5,Average,10,R,400,4,"The Colony Shopping Centre, Craighall","The Colony Shopping Centre, Craighall, Johannesburg",Johannesburg,,189,0.0000000000,0.0000000000,0,0
Airport Craft Brewers,"Mediterranean, Seafood",2.4,Poor,61,R,300,4,"OR Tambo International Airport, Kempton Park","OR Tambo International Airport, Kempton Park, East Rand",East Rand,,189,-26.1367840000,28.2408030000,0,0
Hooters,American,2.5,Average,82,R,300,4,"Emperors Palace, Kempton Park","Emperors Palace, Kempton Park, East Rand",East Rand,,189,-26.1456666667,28.2211666667,0,0
Rosetta's Bistro,"Asian, Mediterranean, Egyptian",2.3,Poor,36,R,400,4,"Emperors Palace, Kempton Park","Emperors Palace, Kempton Park, East Rand",East Rand,1620,189,-26.1464458435,28.2231764364,0,0
News Cafe,Cafe,2.1,Poor,34,R,350,4,"Emperors Palace, Kempton Park","Emperors Palace, Kempton Park, East Rand",East Rand,,189,-26.1456666667,28.2211666667,0,0
Backyard Pop Up Bar,American,0,Not rated,2,R,200,3,Bramley,"Bramley, Johannesburg",Johannesburg,,189,-26.1260350000,28.0813010000,0,0
Observatory Golf Club Restaurant/Bar,"Finger Food, Fast Food",0,Not rated,1,R,110,2,Buccleuch,"Buccleuch, Johannesburg",Johannesburg,,189,-26.1786350000,28.0788160000,0,0
Brass Bar on 85,Contemporary,0,Not rated,2,R,260,3,Marshalltown,"Marshalltown, Inner City",Inner City,,189,-26.2055950000,28.0407180000,0,0
Firemans Tavern,Finger Food,0,Not rated,3,R,300,4,Kempton Park,"Kempton Park, East Rand",East Rand,,189,-26.0929080000,28.1539610000,0,0
Capri Kitchen & Bar,Italian,0,Not rated,2,R,300,4,Greenside,"Greenside, Johannesburg",Johannesburg,,189,-26.1463600000,28.0102400000,0,0
Valley Tavern,Drinks Only,0,Not rated,2,R,200,3,Vorna Valley,"Vorna Valley, Midrand",Midrand,,189,-26.0017110000,28.1134830000,0,0
The Horse and River,Grill,0,Not rated,2,R,230,3,Bassonia,"Bassonia, Johannesburg South",Johannesburg South,,189,0.0000000000,0.0000000000,0,0
The City Bar and Grill,"Contemporary, Finger Food",0,Not rated,2,R,150,2,"Maboneng Precinct, City & Suburban ","Maboneng Precinct, City & Suburban , Inner City",Inner City,,189,-26.2035470000,28.0592920000,0,0
The Club House Bar and Grill,Grill,0,Not rated,2,R,250,3,Alberton,"Alberton, Johannesburg South",Johannesburg South,,189,-26.2755980000,28.1355450000,0,0
Bubbly Bar Champagne Lounge,"European, Finger Food",0,Not rated,2,R,360,4,Greenside,"Greenside, Johannesburg",Johannesburg,,189,-26.1467430000,28.0110960000,0,0
Motswako Pot,African,0,Not rated,3,R,150,2,Muldersdrift,"Muldersdrift, West Rand",West Rand,,189,-26.0543220000,27.9068090000,0,0
Shooters Pool Hall,Pizza,0,Not rated,2,R,160,2,Horizon View,"Horizon View, Roodepoort",Roodepoort,,189,-26.1395230000,27.8672470000,0,0
Phoenix Bar,American,0,Not rated,1,R,0,1,Ferndale,"Ferndale, Randburg",Randburg,2194,189,-26.0873090000,27.9984600000,0,0
Prime Time Sports Bar 1,Finger Food,0,Not rated,3,R,200,3,Kempton Park,"Kempton Park, East Rand",East Rand,,189,-26.0698880000,28.2186410000,0,0
Fogerty's,Continental,0,Not rated,2,R,300,4,Krugersdorp,"Krugersdorp, West Rand",West Rand,,189,-26.1128980000,27.8143860000,0,0
Thundergun Steakhouse,Steak,4.2,Very Good,433,R,350,4,Blackheath,"Blackheath, Johannesburg",Johannesburg,,189,-26.1361870000,27.9753890000,0,0
Hudsons,"Burger, Finger Food, Pizza",4.0,Very Good,1025,R,350,4,Parkhurst,"Parkhurst, Johannesburg",Johannesburg,,189,-26.1373910000,28.0180220000,0,0
The Radium Beerhall,"Mediterranean, Seafood",3.9,Good,120,R,320,4,Norwood,"Norwood, Johannesburg",Johannesburg,,189,-26.1626320000,28.0841020000,0,0
Beefcakes Burger Bar,"Burger, Finger Food",3.7,Good,194,R,300,4,"Illovo Muse Centre, Illovo","Illovo Muse Centre, Illovo, Sandton",Sandton,,189,-26.1305000000,28.0501666667,0,0
The Jolly Roger,"Pizza, Mediterranean",3.6,Good,314,R,250,3,Parkhurst,"Parkhurst, Johannesburg",Johannesburg,,189,-26.1428720000,28.0168430000,0,0
Hogshead,"Burger, South African, Grill, Steak",3.6,Good,217,R,250,3,"Douglasdale Village Shopping Centre, Douglasdale","Douglasdale Village Shopping Centre, Douglasdale, Sandton",Sandton,,189,-26.0401666667,27.9940000000,0,0
Hogshead,"Burger, Grill",3.6,Good,138,R,250,3,"Rock Cottage, Weltevreden Park, Roodeport","Rock Cottage, Weltevreden Park, Roodeport, Roodepoort",Roodepoort,,189,-26.1041666667,27.9261666667,0,0
Chaf Pozi,African,3.6,Good,49,R,250,3,Orlando West,"Orlando West, Soweto",Soweto,,189,-26.2419940000,27.9278230000,0,0
Chariots Bar,"Steak, Burger, Pizza",3.6,Good,27,R,250,3,"Wanderer's Club, Sandton","Wanderer's Club, Sandton, Sandton",Sandton,,189,-26.1349963394,28.0531657487,0,0
Mad Giant,Finger Food,3.6,Good,11,R,150,2,Marshalltown,"Marshalltown, Inner City",Inner City,,189,-26.2072066056,28.0316940250,0,0
Hogshead,"Burger, South African, Grill, Steak",3.5,Good,242,R,250,3,Illovo,"Illovo, Sandton",Sandton,,189,-26.1306080000,28.0493450000,0,0
Craft Beer Library,"Burger, South African",3.2,Average,52,R,200,3,Linden,"Linden, Randburg",Randburg,,189,-26.1364170000,27.9938170000,0,0
Kitcheners,Finger Food,3.5,Good,86,R,0,1,Braamfontein,"Braamfontein, Inner City",Inner City,,189,-26.1945430409,28.0347201973,0,0
Keg and Filly,"Finger Food, Burger, Grill",3.5,Good,57,R,380,4,Sunninghill,"Sunninghill, Sandton",Sandton,,189,-26.0349260000,28.0607130000,0,0
Keg and Beagle,"Finger Food, Burger, Grill",3.5,Good,39,R,380,4,"Linksfield Terrace, Linksfield","Linksfield Terrace, Linksfield, Johannesburg",Johannesburg,,189,-26.1483333333,28.1290000000,0,0
The Green Craft Bar,Burger,3.4,Average,24,R,270,3,Benoni,"Benoni, East Rand",East Rand,,189,-26.1725380000,28.3411750000,0,0
Grapes Pub & Restaurant,Contemporary,3.5,Good,21,R,200,3,Benoni,"Benoni, East Rand",East Rand,1500,189,-26.1912510000,28.3033160000,0,0
Barrels and Bottles,"European, Grill",3.4,Average,16,R,200,3,Bryanston,"Bryanston, Sandton",Sandton,,189,-26.0736666667,28.0130000000,0,0
The Brazen Head,Irish,3.3,Average,65,R,330,4,"The Leaping Frog Shopping Centre, Fourways, Sandton","The Leaping Frog Shopping Centre, Fourways, Sandton, Sandton",Sandton,,189,-26.0091666667,28.0123333333,0,0
Hooters,American,3.4,Average,34,R,300,4,Ruimsig,"Ruimsig, Roodepoort",Roodepoort,,189,-26.0941354671,27.8693154082,0,0
Berlin Pub & Restaurant,"German, Contemporary, Pizza, Beverages, Burger, Desserts, Finger Food, Grill",3.4,Average,22,R,300,4,Ruimsig,"Ruimsig, Roodepoort",Roodepoort,,189,-26.0684660000,27.8423690000,0,0
Jerry's,"Burger, American",3.4,Average,20,R,250,3,Illovo,"Illovo, Sandton",Sandton,2196,189,-26.1292717000,28.0498210000,0,0
The Brazen Head,Irish,3.4,Average,27,R,330,4,Edenvale,"Edenvale, East Rand",East Rand,,189,-26.1265380000,28.1650390000,0,0
Cafe 141,"Finger Food, South African",3.4,Average,17,R,150,2,Kensington,"Kensington, Inner City",Inner City,,189,-26.1883333333,28.1078333333,0,0
Grand Slam Sports Diner,Portuguese,3.3,Average,90,R,300,4,"Dowerglen Plaza, Edenvale","Dowerglen Plaza, Edenvale, East Rand",East Rand,,189,-26.1443333333,28.1380000000,0,0
McGinty's,Irish,3.3,Average,38,R,200,3,"The Brightwater Commons, Ferndale","The Brightwater Commons, Ferndale, Randburg",Randburg,,189,-26.1030000000,27.9915000000,0,0
The Old Rose,British,3.3,Average,29,R,200,3,"Petervale Centre, Bryanston","Petervale Centre, Bryanston, Sandton",Sandton,,189,-26.0436666667,28.0495000000,0,0
Ferreira's Sports Bar,"Portuguese, Pizza",3.3,Average,19,R,300,4,Boksburg,"Boksburg, East Rand",East Rand,,189,-26.1913333333,28.2410000000,0,0
Kwa Lichaba,"South African, Grill",3.3,Average,13,R,200,3,Orlando West,"Orlando West, Soweto",Soweto,,189,-26.2389000000,27.9115440000,0,0
McGinty's,Irish,3.3,Average,16,R,200,3,"Northmead Square, Benoni","Northmead Square, Benoni, East Rand",East Rand,,189,-26.1628270000,28.3225850000,0,0
The Green Craft Bar,Burger,3.3,Average,10,R,270,3,Kempton Park,"Kempton Park, East Rand",East Rand,,189,-26.1006940000,28.1600310000,0,0
Jerry's,Burger,3.3,Average,12,R,200,3,Greenside,"Greenside, Johannesburg",Johannesburg,2034,189,-26.1530743000,28.0156811000,0,0
Uncle Jim's Pub & Grill,"Grill, Burger",3.3,Average,10,R,150,2,Strubens Valley,"Strubens Valley, Roodepoort",Roodepoort,,189,-26.1370650738,27.9102750868,0,0
The Barrel Pub & Grill,Grill,3.3,Average,7,R,200,3,Boskruin,"Boskruin, Randburg",Randburg,,189,-26.0879960000,27.9618400000,0,0
Country Pub,"Finger Food, Burger, Grill",3.2,Average,6,R,380,4,Kyalami,"Kyalami, Midrand",Midrand,,189,-25.9861004547,28.0654267967,0,0
Tonino's Pub & Pizza,"Steak, Portuguese, Pizza",3.2,Average,27,R,300,4,Norwood,"Norwood, Johannesburg",Johannesburg,,189,-26.1562570000,28.0864130000,0,0
The Gathering o' the Clans,"British, Burger",3.2,Average,27,R,120,2,"Pick n Pay Centre, Douglasdale","Pick n Pay Centre, Douglasdale, Sandton",Sandton,,189,-26.0395000000,27.9936666667,0,0
Bru'House & Diner,"South African, Burger, Finger Food",3.2,Average,13,R,160,2,Krugersdorp,"Krugersdorp, West Rand",West Rand,,189,-26.0192420000,27.7190420000,0,0
Buzz 9,"Mexican, Continental, Italian",3.2,Average,14,R,120,2,Melville,"Melville, Johannesburg",Johannesburg,,189,-26.1764840000,28.0087990000,0,0
Grid And Grill Pub,"Grill, Burger",3.2,Average,11,R,200,3,Benoni,"Benoni, East Rand",East Rand,,189,-26.1588640000,28.3326210000,0,0
