name,cuisines,aggregate_rating,rating_text,votes,currency,average_cost_for_two,price_range,locality,locality_verbose,city,zipcode,country_id,latitude,longitude,has_online_delivery,has_table_booking
Coco Ichibanya Curry,Japanese,4.6,Excellent,378,IDR,260000,3,"Grand Indonesia Mall, Thamrin","Grand Indonesia Mall, Thamrin, Jakarta",Jakarta,,94,-6.1956550872,106.8203285337,0,0
Bakso Akiaw 99,"Bakmi, Bakso, Chinese",4.6,Excellent,548,IDR,120000,2,Mangga Besar,"Mangga Besar, Jakarta",Jakarta,,94,-6.1499605727,106.8176872283,0,0
Aroma Sop Seafood,Seafood,4.5,Excellent,364,IDR,100000,2,Muara Karang,"Muara Karang, Jakarta",Jakarta,,94,-6.1165218610,106.7795921490,0,0
Martabak Favourite Rawamangun,"Street Food, Martabak",4.5,Excellent,390,IDR,80000,2,Rawamangun,"Rawamangun, Jakarta",Jakarta,,94,-6.2003821795,106.8859011680,0,0
"Bakmi Cong Sim ""Athek""","Bakmi, Medan",4.5,Excellent,158,IDR,70000,1,Mangga Besar,"Mangga Besar, Jakarta",Jakarta,,94,-6.1499682397,106.8180513382,0,0
Seafood Station,Seafood,4.5,Excellent,93,IDR,80000,2,Cengkareng,"Cengkareng, Jakarta",Jakarta,,94,-6.1326009331,106.7106000334,0,0
Bubur Angke,Chinese,4.5,Excellent,132,IDR,130000,2,"Komplek Taman Harapan Indah, Jelambar","Komplek Taman Harapan Indah, Jelambar, Jakarta",Jakarta,,94,-6.1446113332,106.7877319828,0,0
Wing Heng Hongkong Dim Sum Shop,Asian,4.4,Very Good,295,IDR,150000,3,Pluit,"Pluit, Jakarta",Jakarta,,94,-6.1124647633,106.7808832973,0,0
Wiro Sableng,"Seafood, Indonesian",4.4,Very Good,568,IDR,200000,3,Kelapa Gading,"Kelapa Gading, Jakarta",Jakarta,,94,-6.1529720172,106.9091324508,0,0
SaladStop!,Healthy Food,4.4,Very Good,380,IDR,250000,3,"Senayan City, Senayan","Senayan City, Senayan, Jakarta",Jakarta,,94,-6.2275403059,106.7967311293,0,0
Pizza Place,Pizza,4.4,Very Good,238,IDR,100000,2,"Como Park, Kemang","Como Park, Kemang, Jakarta",Jakarta,,94,-6.2725885444,106.8210570887,0,0
Berrywell,Healthy Food,4.4,Very Good,227,IDR,150000,3,"Fairgrounds, SCBD","Fairgrounds, SCBD, Jakarta",Jakarta,,94,-6.2264204246,106.8072474003,0,0
Berrywell,Healthy Food,4.4,Very Good,134,IDR,150000,3,"Plaza Senayan, Senayan","Plaza Senayan, Senayan, Jakarta",Jakarta,,94,-6.2247832606,106.7989754677,0,0
Soto Betawi H. Husein,"Soto, Betawi",4.4,Very Good,197,IDR,50000,1,Manggarai,"Manggarai, Jakarta",Jakarta,,94,-6.2130009950,106.8449089676,0,0
SaladStop!,Healthy Food,4.4,Very Good,133,IDR,250000,3,"Plaza Indonesia, Thamrin","Plaza Indonesia, Thamrin, Jakarta",Jakarta,,94,-6.1935168490,106.8216116354,0,0
SaladStop!,Healthy Food,4.4,Very Good,139,IDR,250000,3,"Grand Indonesia Mall, Thamrin","Grand Indonesia Mall, Thamrin, Jakarta",Jakarta,,94,-6.1952804378,106.8201669306,0,0
Martabak Bangka Akim,"Street Food, Martabak",4.4,Very Good,93,IDR,50000,1,Tanjung Duren,"Tanjung Duren, Jakarta",Jakarta,,94,-6.1714079921,106.7829224467,0,0
Marugame Udon,Japanese,4.4,Very Good,71,IDR,120000,2,"Mall Kelapa Gading, Kelapa Gading","Mall Kelapa Gading, Kelapa Gading, Jakarta",Jakarta,,94,-6.1571731438,106.9097966328,0,0
Daitokyo Sakaba,"Japanese, Ramen",4.3,Very Good,749,IDR,250000,3,Melawai,"Melawai, Jakarta",Jakarta,,94,-6.2442099226,106.8011014536,0,0
Ikkudo Ichi,"Ramen, Japanese",4.3,Very Good,394,IDR,180000,3,"Central Park, Tanjung Duren","Central Park, Tanjung Duren, Jakarta",Jakarta,,94,-6.1761046348,106.7909908667,0,0
Marugame Udon,Japanese,4.3,Very Good,585,IDR,120000,2,"Gandaria City Mall, Gandaria","Gandaria City Mall, Gandaria, Jakarta",Jakarta,,94,-6.2443482367,106.7838454619,0,0
AEON Sushi,"Sushi, Japanese",4.3,Very Good,320,IDR,80000,2,"AEON Mall, Serpong","AEON Mall, Serpong, Tangerang",Tangerang,,94,-6.3051312390,106.6428983957,0,0
Ikkudo Ichi,"Ramen, Japanese",4.3,Very Good,505,IDR,180000,3,"Grand Indonesia Mall, Thamrin","Grand Indonesia Mall, Thamrin, Jakarta",Jakarta,,94,-6.1953607675,106.8202487379,0,0
Sate Taichan Goreng Bogor,"Street Food, Satay",4.3,Very Good,278,IDR,70000,1,Bogor Timur,"Bogor Timur, Bogor",Bogor,,94,-6.6140070000,106.8134730000,0,0
Pisang Goreng Madu Bu Nanik,"Street Food, Indonesian",4.3,Very Good,505,IDR,50000,1,Tanjung Duren,"Tanjung Duren, Jakarta",Jakarta,,94,-6.1748213122,106.7836660892,0,0
Marugame Udon,Japanese,4.3,Very Good,513,IDR,120000,2,"Grand Indonesia Mall, Thamrin","Grand Indonesia Mall, Thamrin, Jakarta",Jakarta,,94,-6.1955504254,106.8203261867,0,0
Burgreens Eatery,"Healthy Food, Western, Tea",4.3,Very Good,165,IDR,350000,3,"Street Gallery, Pondok Indah","Street Gallery, Pondok Indah, Jakarta",Jakarta,,94,-6.2673665272,106.7840737850,0,0
Marugame Udon,Japanese,4.3,Very Good,281,IDR,120000,2,"Margo City, Beji","Margo City, Beji, Depok",Depok,,94,-6.3731720000,106.8345010000,0,0
First Crack Coffee,"Cafe, Indonesian, Coffee, Tea",4.3,Very Good,230,IDR,210000,3,Sunter,"Sunter, Jakarta",Jakarta,,94,-6.1526906742,106.8869948387,0,0
Berrywell,Healthy Food,4.3,Very Good,199,IDR,150000,3,"Shophaus, Menteng","Shophaus, Menteng, Jakarta",Jakarta,,94,-6.1978319814,106.8366792798,0,0
Claypot Popo,"Chinese, Asian",4.3,Very Good,128,IDR,100000,2,Menteng,"Menteng, Jakarta",Jakarta,,94,-6.1840198335,106.8249134347,0,0
Pondok Pangandaran,"Seafood, Sunda",4.3,Very Good,188,IDR,150000,3,Kelapa Gading,"Kelapa Gading, Jakarta",Jakarta,,94,-6.1532663605,106.9090848416,0,0
Burgreens Eatery,"Healthy Food, Western, Tea",4.3,Very Good,152,IDR,350000,3,"Pacific Place, SCBD","Pacific Place, SCBD, Jakarta",Jakarta,,94,-6.2251448903,106.8098417670,0,0
Umaku,"Japanese, Sushi, Ramen",4.3,Very Good,136,IDR,140000,2,"Ruko Sentra Eropa, Jatisampurna","Ruko Sentra Eropa, Jatisampurna, Bekasi",Bekasi,,94,-6.3696083879,106.9570313394,0,0
Omnikopi,"Cafe, Coffee, Indonesian",4.3,Very Good,136,IDR,110000,2,Ciputat Timur,"Ciputat Timur, Tangerang",Tangerang,,94,-6.2769863428,106.7530952767,0,0
Lapo Marpadotbe,Batak,4.3,Very Good,84,IDR,135000,2,Cempaka Putih,"Cempaka Putih, Jakarta",Jakarta,,94,-6.2055400000,106.8734440000,0,0
Ciknic Roast Chicken,Western,4.3,Very Good,60,IDR,120000,2,"Ruko Dharmawangsa Square, Dharmawangsa","Ruko Dharmawangsa Square, Dharmawangsa, Jakarta",Jakarta,,94,-6.2544230712,106.8013301119,0,0
Nasi Campur Aliong 333,Chinese,4.3,Very Good,71,IDR,90000,2,Gunung Sahari,"Gunung Sahari, Jakarta",Jakarta,,94,-6.1421632057,106.8403428420,0,0
"Sate Taichan ""Goreng""",Satay,4.2,Very Good,1156,IDR,70000,1,Tebet,"Tebet, Jakarta",Jakarta,,94,-6.2283908808,106.8555710837,0,0
SIKU,"Desserts, Western, Indonesian, American, Coffee, Tea",4.2,Very Good,478,IDR,150000,3,Dharmawangsa,"Dharmawangsa, Jakarta",Jakarta,,94,-6.2575432343,106.8009988591,0,0
Ikkudo Ichi,"Ramen, Japanese",4.2,Very Good,773,IDR,180000,3,"Kota Kasablanka, Tebet","Kota Kasablanka, Tebet, Jakarta",Jakarta,,94,-6.2241803216,106.8431249633,0,0
Flip Burger,Burger,4.2,Very Good,885,IDR,120000,2,Senopati,"Senopati, Jakarta",Jakarta,,94,-6.2308462748,106.8085556477,0,0
Marugame Udon,Japanese,4.2,Very Good,749,IDR,120000,2,"Kota Kasablanka, Tebet","Kota Kasablanka, Tebet, Jakarta",Jakarta,,94,-6.2241819881,106.8431219459,0,0
Tom Sushi,"Asian, Japanese, Sushi",4.2,Very Good,160,IDR,100000,2,"Grand Indonesia Mall, Thamrin","Grand Indonesia Mall, Thamrin, Jakarta",Jakarta,,94,-6.1959710724,106.8217031658,0,0
Fedwell,"Healthy Food, Cafe",4.2,Very Good,128,IDR,250000,3,Senopati,"Senopati, Jakarta",Jakarta,,94,-6.2326330000,106.8110320000,0,0
Hakata Ikkousha,"Japanese, Ramen",4.2,Very Good,520,IDR,180000,3,"Ruko Garden House, Pantai Indah Kapuk","Ruko Garden House, Pantai Indah Kapuk, Jakarta",Jakarta,,94,-6.1121177250,106.7371143401,0,0
Chir Chir,Asian,4.2,Very Good,397,IDR,350000,3,"Ruko Garden House, Pantai Indah Kapuk","Ruko Garden House, Pantai Indah Kapuk, Jakarta",Jakarta,,94,-6.1110522727,106.7376420647,0,0
Wingstop,"Fast Food, American",4.2,Very Good,399,IDR,120000,2,"Kota Kasablanka, Tebet","Kota Kasablanka, Tebet, Jakarta",Jakarta,,94,-6.2234433953,106.8430713192,0,0
Double U Steak,Steak,4.2,Very Good,351,IDR,300000,3,Bekasi Selatan,"Bekasi Selatan, Bekasi",Bekasi,,94,-6.2557250000,106.9696583333,0,0
Akasya Express,"Jawa, Indonesian",4.2,Very Good,303,IDR,100000,2,Kemang,"Kemang, Jakarta",Jakarta,,94,-6.2565024043,106.8099966645,0,0
Quiznos Sub,"Deli, Mexican, Italian",4.2,Very Good,234,IDR,150000,3,Menteng,"Menteng, Jakarta",Jakarta,,94,-6.1979956398,106.8280841410,0,0
Kopimana 27,Cafe,4.2,Very Good,273,IDR,130000,2,Tebet,"Tebet, Jakarta",Jakarta,12810,94,-6.2393902364,106.8456301466,0,0
Ropang Plus Plus,Indonesian,4.2,Very Good,222,IDR,70000,1,Pluit,"Pluit, Jakarta",Jakarta,,94,-6.1178576629,106.7875231057,0,0
Eatlah,Asian,4.2,Very Good,346,IDR,120000,2,Blok M,"Blok M, Jakarta",Jakarta,,94,-6.2388843018,106.7902220786,0,0
Song Fa Bak Kut Teh,Chinese,4.2,Very Good,309,IDR,300000,3,"Ozone Mall, Pantai Indah Kapuk","Ozone Mall, Pantai Indah Kapuk, Jakarta",Jakarta,,94,-6.1132065111,106.7526255548,0,0
Bubur Ayam Mangga Besar 1,Chinese,4.2,Very Good,167,IDR,75000,1,Mangga Besar,"Mangga Besar, Jakarta",Jakarta,,94,-6.1475214702,106.8185559288,0,0
Ikan Bakar Cianjur,"Sunda, Seafood",4.2,Very Good,149,IDR,200000,3,Pecenongan,"Pecenongan, Jakarta",Jakarta,,94,-6.1632012673,106.8247494847,0,0
Medan Baru,Medan,4.2,Very Good,193,IDR,80000,2,Pasar Baru,"Pasar Baru, Jakarta",Jakarta,,94,-6.1590875238,106.8317064643,0,0
Warung Ce,"Kalimantan, Chinese",4.2,Very Good,145,IDR,150000,3,"Ruko Citra Garden 6, Cengkareng","Ruko Citra Garden 6, Cengkareng, Jakarta",Jakarta,,94,-6.1254540349,106.7112964019,0,0
Fire Pot,Japanese,4.2,Very Good,94,IDR,150000,3,"PIK Avenue Mall, Pantai Indah Kapuk","PIK Avenue Mall, Pantai Indah Kapuk, Jakarta",Jakarta,,94,-6.1096221097,106.7403618246,0,0
Mie Benteng,Bakmi,4.2,Very Good,122,IDR,40000,1,Kelapa Gading,"Kelapa Gading, Jakarta",Jakarta,,94,-6.1715016587,106.9043339789,0,0
Mlinjo Cafe and Resto,Indonesian,4.2,Very Good,104,IDR,150000,3,Slipi,"Slipi, Jakarta",Jakarta,,94,-6.1780696124,106.8006451428,0,0
Pandan Bistro,"Seafood, Indonesian",4.2,Very Good,116,IDR,150000,3,Pluit,"Pluit, Jakarta",Jakarta,,94,-6.1179520057,106.7882395908,0,0
Samcan Goreng Epenk,Chinese,4.2,Very Good,119,IDR,110000,2,Muara Karang,"Muara Karang, Jakarta",Jakarta,,94,-6.1170589158,106.7796390876,0,0
Bakso Mas Kumis,Bakso,4.2,Very Good,147,IDR,50000,1,Slipi,"Slipi, Jakarta",Jakarta,,94,-6.1907866245,106.8018132448,0,0
Bakso Aan,"Bakmi, Chinese, Indonesian",4.2,Very Good,133,IDR,60000,1,"Ruko Elang Laut, Pantai Indah Kapuk","Ruko Elang Laut, Pantai Indah Kapuk, Jakarta",Jakarta,,94,-6.1243149360,106.7431486398,0,0
Martabak Sinar Bulan,"Street Food, Martabak",4.2,Very Good,124,IDR,135000,2,Muara Karang,"Muara Karang, Jakarta",Jakarta,,94,-6.1192961381,106.7834441364,0,0
Wingstop,"Fast Food, American",4.2,Very Good,88,IDR,120000,2,"Lippo Mall Puri @ St. Moritz, Puri Indah","Lippo Mall Puri @ St. Moritz, Puri Indah, Jakarta",Jakarta,,94,-6.1877953943,106.7389684171,0,0
Naruto Takoyaki,Japanese,4.2,Very Good,45,IDR,50000,1,Melawai,"Melawai, Jakarta",Jakarta,,94,-6.2438206432,106.8015249074,0,0
Kimukatsu,Japanese,4.1,Very Good,383,IDR,200000,3,"Kota Kasablanka, Tebet","Kota Kasablanka, Tebet, Jakarta",Jakarta,,94,-6.2243866341,106.8427514657,0,0
Ottoman's Coffee Brewers,"Cafe, Western, Coffee, Tea, Asian",4.1,Very Good,160,IDR,200000,3,Kuningan,"Kuningan, Jakarta",Jakarta,,94,-6.2309830000,106.8241940000,0,0
Sushi Go!,Japanese,4.1,Very Good,867,IDR,100000,2,"PIK Avenue Mall, Pantai Indah Kapuk","PIK Avenue Mall, Pantai Indah Kapuk, Jakarta",Jakarta,,94,-6.1095247651,106.7404570431,0,0
Restoran IKEA,European,4.1,Very Good,948,IDR,140000,2,"IKEA Alam Sutera, Pinang","IKEA Alam Sutera, Pinang, Tangerang",Tangerang,,94,-6.2206583311,106.6624205187,0,0
Kopi Nalar,"Cafe, Western, Coffee, Tea",4.1,Very Good,349,IDR,100000,2,Senopati,"Senopati, Jakarta",Jakarta,,94,-6.2423455115,106.8080165237,0,0
Quiznos Sub,"Deli, Mexican, Italian",4.1,Very Good,632,IDR,150000,3,Rawamangun,"Rawamangun, Jakarta",Jakarta,,94,-6.1940251605,106.8875436857,0,0
Kopium Artisan Coffee,"Cafe, Coffee, Western",4.1,Very Good,443,IDR,120000,2,Kelapa Gading,"Kelapa Gading, Jakarta",Jakarta,,94,-6.1730659884,106.8998670951,0,0
Ayam Goreng Berkah Rahmat,Jawa,4.1,Very Good,403,IDR,80000,2,Dharmawangsa,"Dharmawangsa, Jakarta",Jakarta,,94,-6.2465050000,106.8019060000,0,0
Ncek Legenda Noodle Bar,Bakmi,4.1,Very Good,255,IDR,70000,1,Kelapa Gading,"Kelapa Gading, Jakarta",Jakarta,,94,-6.1466454307,106.9066393375,0,0
Tsurukamedou,"Japanese, Ramen",4.1,Very Good,274,IDR,140000,2,Green Ville,"Green Ville, Jakarta",Jakarta,,94,-6.1697283239,106.7696079612,0,0
Ikkudo Ichi,"Ramen, Japanese",4.1,Very Good,412,IDR,180000,3,"Ruko Crown Golf, Pantai Indah Kapuk","Ruko Crown Golf, Pantai Indah Kapuk, Jakarta",Jakarta,,94,-6.1125591070,106.7377537116,0,0
Warung Bu Kris,Jawa,4.1,Very Good,319,IDR,150000,3,Fatmawati,"Fatmawati, Jakarta",Jakarta,,94,-6.2693211654,106.7974600196,0,0
Roti Eneng,"Street Food, Cafe",4.1,Very Good,242,IDR,70000,1,Gandaria,"Gandaria, Jakarta",Jakarta,,94,-6.2449338215,106.7896983773,0,0
Soto Mie Agih,Soto,4.1,Very Good,195,IDR,80000,2,Bogor Timur,"Bogor Timur, Bogor",Bogor,,94,-6.6101666667,106.8048333333,0,0
Soto Betawi H. Mamat,"Soto, Betawi",4.1,Very Good,362,IDR,70000,1,Serpong,"Serpong, Tangerang",Tangerang,,94,-6.3193054191,106.6810035333,0,0
Bakso Solo Samrat,Bakso,4.1,Very Good,276,IDR,120000,2,Karet,"Karet, Jakarta",Jakarta,,94,-6.2226418076,106.8213849887,0,0
Marugame Udon,Japanese,4.1,Very Good,239,IDR,120000,2,"Mall Artha Gading, Kelapa Gading","Mall Artha Gading, Kelapa Gading, Jakarta",Jakarta,,94,-6.1454510411,106.8920414150,0,0
Hakata Ikkousha,"Japanese, Ramen",4.1,Very Good,208,IDR,180000,3,"Kemang Arcade, Kemang","Kemang Arcade, Kemang, Jakarta",Jakarta,,94,-6.2598165223,106.8150871620,0,0
Ikkudo Ichi,"Ramen, Japanese",4.1,Very Good,227,IDR,180000,3,"Flavor Bliss, Serpong Utara","Flavor Bliss, Serpong Utara, Tangerang",Tangerang,,94,-6.2427821189,106.6518824548,0,0
Ikan Bakar Cianjur,Sunda,4.1,Very Good,177,IDR,200000,3,Fatmawati,"Fatmawati, Jakarta",Jakarta,,94,-6.2778195075,106.8072343245,0,0
Kedai Soto Ibu Rahayu,"Soto, Indonesian",4.1,Very Good,227,IDR,100000,2,Bogor Timur,"Bogor Timur, Bogor",Bogor,,94,-6.6114920000,106.8152580000,0,0
Bakmi Aboen,"Bakmi, Chinese",4.1,Very Good,157,IDR,70000,1,Pasar Baru,"Pasar Baru, Jakarta",Jakarta,,94,-6.1627659274,106.8333644047,0,0
Carl's Jr.,"Burger, Fast Food",4.1,Very Good,221,IDR,150000,3,"Central Park, Tanjung Duren","Central Park, Tanjung Duren, Jakarta",Jakarta,,94,-6.1761046348,106.7909908667,0,0
Bakmi Ho Liaw,Bakmi,4.1,Very Good,174,IDR,90000,2,Kelapa Gading,"Kelapa Gading, Jakarta",Jakarta,,94,-6.1713223255,106.9041100144,0,0
Bakmi Aloi,"Bakmi, Palembang",4.1,Very Good,162,IDR,80000,2,Grogol,"Grogol, Jakarta",Jakarta,,94,-6.1625615908,106.7912533879,0,0
Darin,Korean,4.1,Very Good,120,IDR,300000,3,"Gandaria City Mall, Gandaria","Gandaria City Mall, Gandaria, Jakarta",Jakarta,,94,-6.2442829124,106.7838511616,0,0
Umaku,"Japanese, Sushi, Ramen",4.1,Very Good,142,IDR,140000,2,"Ruko City Walk, Cibubur","Ruko City Walk, Cibubur, Jakarta",Jakarta,,94,-6.3828760000,106.9241890000,0,0
Rumah Makan Marannu,Makassar,4.1,Very Good,174,IDR,120000,2,Kelapa Gading,"Kelapa Gading, Jakarta",Jakarta,,94,-6.1722329909,106.8979654089,0,0
Bakso Rusuk Samanhudi,Bakso,4.1,Very Good,146,IDR,50000,1,Pasar Baru,"Pasar Baru, Jakarta",Jakarta,,94,-6.1625315903,106.8298399821,0,0
Rumah Lobster Depok,Seafood,4.1,Very Good,131,IDR,150000,3,Beji,"Beji, Depok",Depok,,94,-6.3866236255,106.8276224658,0,0
Selasih by Dapur Mamih,"Indonesian, Satay",4.1,Very Good,104,IDR,70000,1,Senopati,"Senopati, Jakarta",Jakarta,,94,-6.2391512674,106.8107091263,0,0
Amausaan Uji Matcha,Desserts,4.8,Excellent,801,IDR,100000,2,"Central Park, Tanjung Duren","Central Park, Tanjung Duren, Jakarta",Jakarta,,94,-6.1765936299,106.7897127941,0,0
Hokkaido Baked Cheese Tart,"Desserts, Japanese",4.6,Excellent,288,IDR,100000,2,"Kota Kasablanka, Tebet","Kota Kasablanka, Tebet, Jakarta",Jakarta,,94,-6.2231744220,106.8423890322,0,0
Gelato Secrets,"Ice Cream, Cafe, Coffee, Tea",4.6,Excellent,118,IDR,130000,2,"Setiabudi One, Setiabudi","Setiabudi One, Setiabudi, Jakarta",Jakarta,12940,94,-6.2155717846,106.8301085383,0,0
BAKE Cheese Tart,"Desserts, Japanese",4.6,Excellent,145,IDR,100000,2,"Grand Indonesia Mall, Thamrin","Grand Indonesia Mall, Thamrin, Jakarta",Jakarta,,94,-6.1951407775,106.8198346719,0,0
Gelato Secrets,"Ice Cream, Cafe, Coffee, Tea",4.5,Excellent,526,IDR,130000,2,"Shophaus, Menteng","Shophaus, Menteng, Jakarta",Jakarta,,94,-6.1977566519,106.8366745859,0,0
Latteria Gelato and Dessert Bar,"Desserts, Ice Cream",4.5,Excellent,700,IDR,100000,2,"Ruko Crown Golf, Pantai Indah Kapuk","Ruko Crown Golf, Pantai Indah Kapuk, Jakarta",Jakarta,,94,-6.1112886326,106.7385399342,0,0
il Vero Gelateria,"Ice Cream, Desserts",4.5,Excellent,343,IDR,70000,1,Kebayoran Lama,"Kebayoran Lama, Jakarta",Jakarta,,94,-6.2197950782,106.7795314640,0,0
La Maison,"Desserts, Cafe, Coffee, Tea",4.5,Excellent,162,IDR,150000,3,"Grand Indonesia Mall, Thamrin","Grand Indonesia Mall, Thamrin, Jakarta",Jakarta,,94,-6.1951724427,106.8214138225,0,0
GROM,"Ice Cream, Desserts",4.4,Very Good,463,IDR,110000,2,"Pacific Place, SCBD","Pacific Place, SCBD, Jakarta",Jakarta,,94,-6.2249269126,106.8095882982,0,0
Godiva,Desserts,4.4,Very Good,249,IDR,120000,2,"Plaza Indonesia, Thamrin","Plaza Indonesia, Thamrin, Jakarta",Jakarta,,94,-6.1943631457,106.8226446211,0,0
aROMA Gelato Experience,"Cafe, Desserts",4.4,Very Good,180,IDR,90000,2,"Senayan City, Senayan","Senayan City, Senayan, Jakarta",Jakarta,,94,-6.2276742915,106.7975012586,0,0
Hokkaido Baked Cheese Tart,"Desserts, Japanese",4.4,Very Good,193,IDR,100000,2,"Senayan City, Senayan","Senayan City, Senayan, Jakarta",Jakarta,,94,-6.2272103411,106.7969162017,0,0
DORÉ by LeTAO,"Desserts, Bakery",4.4,Very Good,154,IDR,250000,3,"Plaza Indonesia, Thamrin","Plaza Indonesia, Thamrin, Jakarta",Jakarta,,94,-6.1931851963,106.8220619112,0,0
GROM,"Ice Cream, Desserts",4.4,Very Good,135,IDR,110000,2,"Plaza Senayan, Senayan","Plaza Senayan, Senayan, Jakarta",Jakarta,,94,-6.2280772481,106.7988091707,0,0
betterCHOCOlatethannever,Desserts,4.4,Very Good,75,IDR,70000,1,Dharmawangsa,"Dharmawangsa, Jakarta",Jakarta,,94,-6.2502807109,106.7998689786,0,0
St. Marc Cafe,"Cafe, Desserts, Bakery, Asian, Italian, Coffee, Tea",4.3,Very Good,75,IDR,120000,2,"Pondok Indah Mall 2, Pondok Indah","Pondok Indah Mall 2, Pondok Indah, Jakarta",Jakarta,,94,-6.2664616921,106.7831762508,0,0
llaollao,"Ice Cream, Desserts",4.2,Very Good,398,IDR,110000,2,"Central Park, Tanjung Duren","Central Park, Tanjung Duren, Jakarta",Jakarta,,94,-6.1759176366,106.7892450839,0,0
Uncle Tetsu,Desserts,4.2,Very Good,254,IDR,100000,2,"Central Park, Tanjung Duren","Central Park, Tanjung Duren, Jakarta",Jakarta,,94,-6.1759176366,106.7892450839,0,0
llaollao,"Ice Cream, Desserts",4.2,Very Good,221,IDR,110000,2,"Kota Kasablanka, Tebet","Kota Kasablanka, Tebet, Jakarta",Jakarta,,94,-6.2242079855,106.8422676623,0,0
Banainai,"Desserts, Ice Cream, Taiwanese",4.2,Very Good,122,IDR,80000,2,"Rukan Emerald, Pantai Indah Kapuk","Rukan Emerald, Pantai Indah Kapuk, Jakarta",Jakarta,,94,-6.1055072859,106.7410876975,0,0
Legato Gelato,"Ice Cream, Desserts",4.2,Very Good,134,IDR,70000,1,"Ruko Golden 8, Serpong Utara","Ruko Golden 8, Serpong Utara, Tangerang",Tangerang,,94,-6.2395782120,106.6362126544,0,0
GROM,"Ice Cream, Desserts",4.2,Very Good,119,IDR,110000,2,"Lotte Shopping Avenue, Karet","Lotte Shopping Avenue, Karet, Jakarta",Jakarta,,94,-6.2240066724,106.8232098967,0,0
Ziato Gelato,"Desserts, Ice Cream",4.2,Very Good,71,IDR,70000,1,Kemang,"Kemang, Jakarta",Jakarta,,94,-6.2656991633,106.8204683438,0,0
Locarasa,"Ice Cream, Desserts, Cafe, Coffee, Tea",4.1,Very Good,232,IDR,80000,2,Kemang,"Kemang, Jakarta",Jakarta,,94,-6.2705892602,106.8151944503,0,0
llaollao,"Ice Cream, Desserts",4.1,Very Good,164,IDR,110000,2,"Grand Indonesia Mall, Thamrin","Grand Indonesia Mall, Thamrin, Jakarta",Jakarta,,94,-6.1953207693,106.8200113624,0,0
Sour Sally,Desserts,4.1,Very Good,106,IDR,100000,2,"Central Park, Tanjung Duren","Central Park, Tanjung Duren, Jakarta",Jakarta,,94,-6.1761046348,106.7909908667,0,0
Haagen - Dazs,"Desserts, Ice Cream",4.1,Very Good,101,IDR,200000,3,"Kota Kasablanka, Tebet","Kota Kasablanka, Tebet, Jakarta",Jakarta,,94,-6.2235750489,106.8427591771,0,0
Uncle Tetsu,Desserts,4.1,Very Good,105,IDR,100000,2,"Pondok Indah Mall 1, Pondok Indah","Pondok Indah Mall 1, Pondok Indah, Jakarta",Jakarta,,94,-6.2664067021,106.7847627774,0,0
il Vero Gelateria,"Ice Cream, Desserts",4.1,Very Good,91,IDR,70000,1,"Ruko Golden 8, Serpong Utara","Ruko Golden 8, Serpong Utara, Tangerang",Tangerang,,94,-6.2394695595,106.6368996352,0,0
Dairy Queen,"Ice Cream, Desserts",4.1,Very Good,92,IDR,80000,2,"Grand Indonesia Mall, Thamrin","Grand Indonesia Mall, Thamrin, Jakarta",Jakarta,,94,-6.1952834377,106.8197518587,0,0
Gaya Gelato,"Ice Cream, Desserts",4.1,Very Good,57,IDR,80000,2,"Mall Kelapa Gading, Kelapa Gading","Mall Kelapa Gading, Kelapa Gading, Jakarta",Jakarta,,94,-6.1566351294,106.9095582515,0,0
Kibo,Desserts,4.1,Very Good,65,IDR,120000,2,"Grand Indonesia Mall, Thamrin","Grand Indonesia Mall, Thamrin, Jakarta",Jakarta,,94,-6.1955307596,106.8205256760,0,0
Hokkaido Baked Cheese Tart,"Desserts, Japanese",4.1,Very Good,80,IDR,100000,2,"Mall Kelapa Gading, Kelapa Gading","Mall Kelapa Gading, Kelapa Gading, Jakarta",Jakarta,,94,-6.1568538020,106.9101335853,0,0
DORÉ by LeTAO,"Desserts, Bakery",4.1,Very Good,52,IDR,250000,3,"Plaza Senayan, Senayan","Plaza Senayan, Senayan, Jakarta",Jakarta,,94,-6.2247765946,106.7990160361,0,0
Figaro Gelato,Ice Cream,4.1,Very Good,60,IDR,100000,2,"Gandaria City Mall, Gandaria","Gandaria City Mall, Gandaria, Jakarta",Jakarta,,94,-6.2438286421,106.7832744867,0,0
Hokkaido Baby,"Bakery, Desserts",4.1,Very Good,33,IDR,50000,1,"Plaza Senayan, Senayan","Plaza Senayan, Senayan, Jakarta",Jakarta,,94,-6.2265764082,106.7989815027,0,0
Sumoboo,"Desserts, Beverages",4.0,Very Good,905,IDR,180000,3,"Ruko Crown Golf, Pantai Indah Kapuk","Ruko Crown Golf, Pantai Indah Kapuk, Jakarta",Jakarta,,94,-6.1124694305,106.7378412187,0,0
Colette & Lola,"Desserts, Cafe",4.0,Very Good,386,IDR,210000,3,"Grand Indonesia Mall, Thamrin","Grand Indonesia Mall, Thamrin, Jakarta",Jakarta,,94,-6.1956677533,106.8200187385,0,0
Fat Bubble,"Desserts, Bubble Tea, Cafe",4.0,Very Good,329,IDR,120000,2,Pondok Aren,"Pondok Aren, Tangerang",Tangerang,,94,-6.2735983483,106.7234525085,0,0
Sumoboo,"Desserts, Beverages",4.0,Very Good,359,IDR,180000,3,"Grand Indonesia Mall, Thamrin","Grand Indonesia Mall, Thamrin, Jakarta",Jakarta,,94,-6.1952577722,106.8197438121,0,0
Brown Fox Waffle & Coffee,"Cafe, Desserts",4.0,Very Good,283,IDR,200000,3,Pasar Minggu,"Pasar Minggu, Jakarta",Jakarta,,94,-6.2888274870,106.8244158849,0,0
Gaya Gelato,"Ice Cream, Desserts",4.0,Very Good,155,IDR,80000,2,"Ruko Crown Golf, Pantai Indah Kapuk","Ruko Crown Golf, Pantai Indah Kapuk, Jakarta",Jakarta,,94,-6.1116153359,106.7383893952,0,0
Alphabeth Gelato,"Ice Cream, Coffee, Tea",4.0,Very Good,97,IDR,100000,2,Melawai,"Melawai, Jakarta",Jakarta,,94,-6.2470898480,106.7949048802,0,0
Sour Sally,Desserts,4.0,Very Good,133,IDR,100000,2,"Grand Indonesia Mall, Thamrin","Grand Indonesia Mall, Thamrin, Jakarta",Jakarta,,94,-6.1952754380,106.8200727180,0,0
Pooki Bbang,"Korean, Desserts",4.0,Very Good,106,IDR,50000,1,"Mall Taman Anggrek, Tanjung Duren","Mall Taman Anggrek, Tanjung Duren, Jakarta",Jakarta,,94,-6.1790772648,106.7922417820,0,0
Pipiltin Cocoa,"Desserts, Bakery",4.0,Very Good,80,IDR,150000,3,"Sarinah Building, Thamrin","Sarinah Building, Thamrin, Jakarta",Jakarta,,94,-6.1884443733,106.8236521259,0,0
Hokkaido Baby,"Bakery, Desserts",4.0,Very Good,161,IDR,50000,1,"Pondok Indah Mall 1, Pondok Indah","Pondok Indah Mall 1, Pondok Indah, Jakarta",Jakarta,,94,-6.2652975687,106.7844928801,0,0
Pooki Bbang,"Korean, Desserts",4.0,Very Good,96,IDR,50000,1,"Kota Kasablanka, Tebet","Kota Kasablanka, Tebet, Jakarta",Jakarta,,94,-6.2235173880,106.8430605903,0,0
Gelato Paradise,"Italian, Ice Cream",4.0,Very Good,107,IDR,60000,1,"Central Park, Tanjung Duren","Central Park, Tanjung Duren, Jakarta",Jakarta,,94,-6.1776386180,106.7905791476,0,0
Sour Sally,Desserts,4.0,Very Good,85,IDR,100000,2,"Gandaria City Mall, Gandaria","Gandaria City Mall, Gandaria, Jakarta",Jakarta,,94,-6.2445365438,106.7835316435,0,0
il Vero Gelateria,"Ice Cream, Desserts",4.0,Very Good,86,IDR,70000,1,"Mall Kelapa Gading, Kelapa Gading","Mall Kelapa Gading, Kelapa Gading, Jakarta",Jakarta,,94,-6.1565651275,106.9089651480,0,0
First Love Patisserie,Desserts,4.0,Very Good,82,IDR,70000,1,"Mall Kelapa Gading, Kelapa Gading","Mall Kelapa Gading, Kelapa Gading, Jakarta",Jakarta,,94,-6.1570494739,106.9086147845,0,0
Ann's Bakehouse,Desserts,4.0,Very Good,78,IDR,100000,2,Melawai,"Melawai, Jakarta",Jakarta,12130,94,-6.2473864718,106.7953608558,0,0
Sour Sally,Desserts,4.0,Very Good,73,IDR,100000,2,"Mall Kelapa Gading, Kelapa Gading","Mall Kelapa Gading, Kelapa Gading, Jakarta",Jakarta,,94,-6.1563934561,106.9095991552,0,0
Sour Sally,Desserts,4.0,Very Good,65,IDR,100000,2,"Pacific Place, SCBD","Pacific Place, SCBD, Jakarta",Jakarta,,94,-6.2248522535,106.8100918829,0,0
Gaya Gelato,"Ice Cream, Desserts",4.0,Very Good,57,IDR,80000,2,"Grand Indonesia Mall, Thamrin","Grand Indonesia Mall, Thamrin, Jakarta",Jakarta,,94,-6.1952437728,106.8200660124,0,0
aROMA Gelato Experience,"Cafe, Desserts",4.0,Very Good,42,IDR,80000,2,"Kota Kasablanka, Tebet","Kota Kasablanka, Tebet, Jakarta",Jakarta,,94,-6.2234700593,106.8431011587,0,0
Colette & Lola,"Desserts, Cafe",3.9,Good,971,IDR,210000,3,Senopati,"Senopati, Jakarta",Jakarta,,94,-6.2312182325,106.8090904132,0,0
Sumoboo,"Desserts, Beverages",3.9,Good,650,IDR,180000,3,"Kota Kasablanka, Tebet","Kota Kasablanka, Tebet, Jakarta",Jakarta,,94,-6.2240946636,106.8431849778,0,0
Fat Bubble,"Desserts, Bubble Tea, Cafe",3.9,Good,356,IDR,120000,2,Beji,"Beji, Depok",Depok,,94,-6.3822620794,106.8297363818,0,0
Shirokuma Cafe,"Desserts, Japanese",3.9,Good,354,IDR,200000,3,"Kota Kasablanka, Tebet","Kota Kasablanka, Tebet, Jakarta",Jakarta,,94,-6.2231960865,106.8421090767,0,0
Garcon,"Western, Bakery",3.9,Good,318,IDR,500000,4,"Plaza Senayan, Senayan","Plaza Senayan, Senayan, Jakarta",Jakarta,,94,-6.2255731795,106.7998994887,0,0
Sumoboo,"Desserts, Beverages",3.9,Good,307,IDR,180000,3,"Central Park, Tanjung Duren","Central Park, Tanjung Duren, Jakarta",Jakarta,,94,-6.1761046348,106.7909908667,0,0
Colette & Lola,"Desserts, Cafe",3.9,Good,297,IDR,210000,3,"Mall Kelapa Gading, Kelapa Gading","Mall Kelapa Gading, Kelapa Gading, Jakarta",Jakarta,,94,-6.1569904723,106.9098895043,0,0
Cake Lab,"Cafe, Bakery, Desserts",3.9,Good,202,IDR,120000,2,Tebet,"Tebet, Jakarta",Jakarta,,94,-6.2417009317,106.8473122269,0,0
Island Creamery,"Desserts, Ice Cream",3.9,Good,241,IDR,150000,3,"Flavor Bliss, Serpong Utara","Flavor Bliss, Serpong Utara, Tangerang",Tangerang,,94,-6.2419035711,106.6518244520,0,0
Fat Bubble,"Desserts, Cafe, Bubble Tea",3.9,Good,206,IDR,120000,2,Bogor Tengah,"Bogor Tengah, Bogor",Bogor,,94,-6.5917780000,106.8043960000,0,0
North Pole Cafe,"Cafe, Desserts",3.9,Good,197,IDR,150000,3,"Gandaria City Mall, Gandaria","Gandaria City Mall, Gandaria, Jakarta",Jakarta,,94,-6.2446175325,106.7832208425,0,0
St. Marc Cafe,"Cafe, Desserts, Bakery",3.9,Good,173,IDR,120000,2,"Senayan City, Senayan","Senayan City, Senayan, Jakarta",Jakarta,,94,-6.2275143087,106.7974563316,0,0
The Harvest,"Desserts, Bakery",3.9,Good,149,IDR,100000,2,Senopati,"Senopati, Jakarta",Jakarta,,94,-6.2317255077,106.8100892007,0,0
Hokkaido Ice Cream Puff,Desserts,3.9,Good,108,IDR,80000,2,"PIK Avenue Mall, Pantai Indah Kapuk","PIK Avenue Mall, Pantai Indah Kapuk, Jakarta",Jakarta,,94,-6.1093430774,106.7399537936,0,0
Shirokuma Cafe,"Desserts, Japanese",3.9,Good,108,IDR,200000,3,"Summarecon Mall Bekasi, Bekasi Utara","Summarecon Mall Bekasi, Bekasi Utara, Bekasi",Bekasi,,94,-6.2256666667,107.0010000000,0,0
Puyo Silky Desserts,Desserts,3.9,Good,208,IDR,40000,1,"Gandaria City Mall, Gandaria","Gandaria City Mall, Gandaria, Jakarta",Jakarta,,94,-6.2443815654,106.7837334797,0,0
Puyo Silky Desserts,Desserts,3.9,Good,142,IDR,40000,1,"Kota Kasablanka, Tebet","Kota Kasablanka, Tebet, Jakarta",Jakarta,,94,-6.2235853812,106.8430813775,0,0
Tofu Dessert Hut,Desserts,3.9,Good,148,IDR,50000,1,"Supermall Karawaci, Cibodas","Supermall Karawaci, Cibodas, Tangerang",Tangerang,,94,-6.2263367667,106.6073430330,0,0
Koiyaki,"Desserts, Japanese",3.9,Good,89,IDR,70000,1,"PIK Avenue Mall, Pantai Indah Kapuk","PIK Avenue Mall, Pantai Indah Kapuk, Jakarta",Jakarta,,94,-6.1094007507,106.7399283126,0,0
Haagen - Dazs,"Desserts, Ice Cream",3.9,Good,85,IDR,200000,3,"Plaza Senayan, Senayan","Plaza Senayan, Senayan, Jakarta",Jakarta,,94,-6.2256241743,106.7992356420,0,0
Haagen - Dazs,"Desserts, Ice Cream",3.9,Good,76,IDR,200000,3,"Grand Indonesia Mall, Thamrin","Grand Indonesia Mall, Thamrin, Jakarta",Jakarta,,94,-6.1952584388,106.8204351515,0,0
The Young Dong,"Korean, Desserts",3.9,Good,76,IDR,110000,2,"Ruko Crown Golf, Pantai Indah Kapuk","Ruko Crown Golf, Pantai Indah Kapuk, Jakarta",Jakarta,,94,-6.1117513510,106.7382472381,0,0
Sour Sally,Desserts,3.9,Good,81,IDR,100000,2,"Mall Taman Anggrek, Tanjung Duren","Mall Taman Anggrek, Tanjung Duren, Jakarta",Jakarta,,94,-6.1789679331,106.7923071608,0,0
Sour Sally,Desserts,3.9,Good,57,IDR,100000,2,"Summarecon Mall Serpong, Serpong Utara","Summarecon Mall Serpong, Serpong Utara, Tangerang",Tangerang,,94,-6.2399568293,106.6285834462,0,0
Uncle Tetsu,Desserts,3.9,Good,68,IDR,100000,2,"Mall Kelapa Gading, Kelapa Gading","Mall Kelapa Gading, Kelapa Gading, Jakarta",Jakarta,,94,-6.1581408349,106.9076267257,0,0
Hubble Scoop Creamery,Ice Cream,3.9,Good,53,IDR,100000,2,"The Icon Business Park, Serpong","The Icon Business Park, Serpong, Tangerang",Tangerang,,94,-6.3147503557,106.6518455744,0,0
Patbingsoo Korean Dessert House,"Korean, Desserts",3.9,Good,50,IDR,200000,3,"Summarecon Mall Serpong, Serpong Utara","Summarecon Mall Serpong, Serpong Utara, Tangerang",Tangerang,,94,-6.2409743619,106.6286220029,0,0
Rolly's Thai Roll Ice Cream,Ice Cream,3.9,Good,55,IDR,60000,1,"Summarecon Mall Bekasi, Bekasi Utara","Summarecon Mall Bekasi, Bekasi Utara, Bekasi",Bekasi,,94,-6.2264790000,107.0008810000,0,0
Paletas Wey,Ice Cream,3.9,Good,54,IDR,70000,1,Kebon Jeruk,"Kebon Jeruk, Jakarta",Jakarta,,94,-6.1938725004,106.7691419274,0,0
Sweet Monster,Desserts,3.9,Good,58,IDR,100000,2,"Plaza Indonesia, Thamrin","Plaza Indonesia, Thamrin, Jakarta",Jakarta,,94,-6.1930592015,106.8224427849,0,0
Sweet Monster,Desserts,3.9,Good,60,IDR,100000,2,"Pondok Indah Mall 2, Pondok Indah","Pondok Indah Mall 2, Pondok Indah, Jakarta",Jakarta,,94,-6.2663533784,106.7828704789,0,0
Koiyaki,"Desserts, Japanese",3.9,Good,57,IDR,70000,1,"Lippo Mall Puri @ St. Moritz, Puri Indah","Lippo Mall Puri @ St. Moritz, Puri Indah, Jakarta",Jakarta,,94,-6.1880587192,106.7388654873,0,0
Sop Durian Margonda,Desserts,3.9,Good,82,IDR,25000,1,Beji,"Beji, Depok",Depok,,94,-6.3904555556,106.8253250000,0,0
ISCAKETORY,"Desserts, Bakery",3.9,Good,27,IDR,80000,2,"Crumble Crew, Senopati","Crumble Crew, Senopati, Jakarta",Jakarta,,94,-6.2312485624,106.8100208044,0,0
La Ricchi Gelato,"Desserts, Ice Cream",3.9,Good,56,IDR,100000,2,"Emporium Pluit Mall, Penjaringan","Emporium Pluit Mall, Penjaringan, Jakarta",Jakarta,,94,-6.1273415267,106.7912201956,0,0
Godiva,Desserts,3.9,Good,52,IDR,120000,2,"Plaza Senayan, Senayan","Plaza Senayan, Senayan, Jakarta",Jakarta,,94,-6.2247829273,106.7989322171,0,0
Hokkaido Ice Cream Puff,Desserts,3.9,Good,35,IDR,80000,2,"Lippo Mall Puri @ St. Moritz, Puri Indah","Lippo Mall Puri @ St. Moritz, Puri Indah, Jakarta",Jakarta,,94,-6.1895626687,106.7388158664,0,0
Nadine Wibowo Pie Pisang,Desserts,3.9,Good,46,IDR,90000,2,Tebet,"Tebet, Jakarta",Jakarta,,94,-6.2312432296,106.8558315933,0,0
Kibo,Desserts,3.9,Good,46,IDR,120000,2,"Kota Kasablanka, Tebet","Kota Kasablanka, Tebet, Jakarta",Jakarta,,94,-6.2242966432,106.8427357078,0,0
Hokkaido Baked Cheese Tart,"Desserts, Japanese",3.9,Good,41,IDR,100000,2,"Lippo Mall Puri @ St. Moritz, Puri Indah","Lippo Mall Puri @ St. Moritz, Puri Indah, Jakarta",Jakarta,,94,-6.1888280273,106.7389415950,0,0
Let's Go Gelato,"Desserts, Ice Cream",3.9,Good,40,IDR,50000,1,"Mall Cipinang Indah, Pondok Bambu","Mall Cipinang Indah, Pondok Bambu, Jakarta",Jakarta,,94,-6.2385220150,106.8940728530,0,0
Lets Go Gelato ,"Ice Cream, Desserts",3.9,Good,38,IDR,80000,2,Gandaria,"Gandaria, Jakarta",Jakarta,,94,-6.2458630237,106.7892196029,0,0
DORÉ by LeTAO,"Desserts, Bakery",3.9,Good,43,IDR,250000,3,"Lippo Mall Puri @ St. Moritz, Puri Indah","Lippo Mall Puri @ St. Moritz, Puri Indah, Jakarta",Jakarta,,94,-6.1888353603,106.7389224842,0,0
KOI Cafe,"Bubble Tea, Beverages",4.7,Excellent,275,IDR,60000,1,"Grand Indonesia Mall, Thamrin","Grand Indonesia Mall, Thamrin, Jakarta",Jakarta,,94,-6.1956260885,106.8203731254,0,0
KOI Cafe,"Bubble Tea, Beverages",4.4,Very Good,238,IDR,60000,1,"AEON Mall, Serpong","AEON Mall, Serpong, Tangerang",Tangerang,,94,-6.3048526436,106.6440943256,0,0
KOI Cafe,"Bubble Tea, Beverages",4.3,Very Good,112,IDR,60000,1,"Lippo Mall Puri @ St. Moritz, Puri Indah","Lippo Mall Puri @ St. Moritz, Puri Indah, Jakarta",Jakarta,,94,-6.1885110378,106.7388825864,0,0
KOI Cafe,"Bubble Tea, Beverages",4.3,Very Good,116,IDR,60000,1,"Grand Indonesia Mall, Thamrin","Grand Indonesia Mall, Thamrin, Jakarta",Jakarta,,94,-6.1961047327,106.8220012263,0,0
Kopi Kenangan,"Coffee, Tea",4.3,Very Good,118,IDR,33000,1,"Standard Chartered Building, Karet","Standard Chartered Building, Karet, Jakarta",Jakarta,,94,-6.2179729100,106.8183463812,0,0
KOI Cafe,"Bubble Tea, Beverages",4.2,Very Good,149,IDR,60000,1,"Mall Taman Anggrek, Tanjung Duren","Mall Taman Anggrek, Tanjung Duren, Jakarta",Jakarta,,94,-6.1784246076,106.7923001200,0,0
Kamu Tea Cafe,"Beverages, Taiwanese",4.2,Very Good,67,IDR,60000,1,"AEON Mall, Cakung","AEON Mall, Cakung, Jakarta",Jakarta,,94,-6.1726453231,106.9521342963,0,0
ShuShu,Beverages,4.2,Very Good,72,IDR,60000,1,"Mall of Indonesia, Kelapa Gading","Mall of Indonesia, Kelapa Gading, Jakarta",Jakarta,14240,94,-6.1509669451,106.8924008310,0,0
KOI Cafe,"Bubble Tea, Beverages",4.1,Very Good,148,IDR,60000,1,"Bay Walk Mall, Pluit","Bay Walk Mall, Pluit, Jakarta",Jakarta,,94,-6.1077665591,106.7794965953,0,0
Fat straw,"Bubble Tea, Beverages",4.1,Very Good,77,IDR,80000,2,"Ruko Garden House, Pantai Indah Kapuk","Ruko Garden House, Pantai Indah Kapuk, Jakarta",Jakarta,,94,-6.1121473950,106.7369587719,0,0
Kamu Tea,"Beverages, Taiwanese",4.1,Very Good,79,IDR,60000,1,"PIK Avenue Mall, Pantai Indah Kapuk","PIK Avenue Mall, Pantai Indah Kapuk, Jakarta",Jakarta,,94,-6.1103788631,106.7400956154,0,0
KOI Cafe,"Bubble Tea, Beverages",4.1,Very Good,73,IDR,60000,1,"Central Park, Tanjung Duren","Central Park, Tanjung Duren, Jakarta",Jakarta,,94,-6.1762456335,106.7912067846,0,0
KOI Cafe,"Bubble Tea, Beverages",4.1,Very Good,59,IDR,60000,1,"Mall Artha Gading, Kelapa Gading","Mall Artha Gading, Kelapa Gading, Jakarta",Jakarta,,94,-6.1457897240,106.8917705119,0,0
KOI Cafe,"Bubble Tea, Beverages",4.1,Very Good,55,IDR,60000,1,"Supermall Karawaci, Cibodas","Supermall Karawaci, Cibodas, Tangerang",Tangerang,,94,-6.2269060401,106.6077292711,0,0
Re.juve,"Beverages, Juices",4.0,Very Good,109,IDR,100000,2,"Kota Kasablanka, Tebet","Kota Kasablanka, Tebet, Jakarta",Jakarta,,94,-6.2240443353,106.8423327059,0,0
KOI Cafe,"Bubble Tea, Beverages",4.0,Very Good,105,IDR,60000,1,"Emporium Pluit Mall, Penjaringan","Emporium Pluit Mall, Penjaringan, Jakarta",Jakarta,,94,-6.1274335342,106.7906073108,0,0
Jamba Juice,Juices,4.0,Very Good,68,IDR,80000,2,"Central Park, Tanjung Duren","Central Park, Tanjung Duren, Jakarta",Jakarta,,94,-6.1777286169,106.7899598926,0,0
Kopi Kenangan,"Coffee, Tea",4.0,Very Good,39,IDR,33000,1,"Setiabudi One, Setiabudi","Setiabudi One, Setiabudi, Jakarta",Jakarta,,94,-6.2151264886,106.8300823867,0,0
Logika Coffee,Coffee,4.0,Very Good,20,IDR,40000,1,Palmerah,"Palmerah, Jakarta",Jakarta,,94,-6.2010038113,106.7849270627,0,0
Kedai Kopi Kulo,"Beverages, Coffee",3.9,Good,136,IDR,70000,1,Senopati,"Senopati, Jakarta",Jakarta,,94,-6.2419645629,106.8102645502,0,0
Origins Authentic,Beverages,3.9,Good,65,IDR,50000,1,"Mall Kelapa Gading, Kelapa Gading","Mall Kelapa Gading, Kelapa Gading, Jakarta",Jakarta,,94,-6.1568398016,106.9098130614,0,0
Coco,"Bubble Tea, Beverages",3.9,Good,59,IDR,50000,1,"Citywalk Sudirman, Sudirman","Citywalk Sudirman, Sudirman, Jakarta",Jakarta,,94,-6.2090649596,106.8185465410,0,0
Chatime,"Bubble Tea, Beverages",3.9,Good,51,IDR,50000,1,"Senayan City, Senayan","Senayan City, Senayan, Jakarta",Jakarta,,94,-6.2272823335,106.7970134318,0,0
KOI Cafe,"Bubble Tea, Beverages",3.9,Good,43,IDR,60000,1,"Botani Square, Bogor Tengah","Botani Square, Bogor Tengah, Bogor",Bogor,,94,-6.6016505611,106.8073711172,0,0
King Mango Thai,Beverages,3.8,Good,393,IDR,50000,1,"Neo SOHO Mall, Tanjung Duren","Neo SOHO Mall, Tanjung Duren, Jakarta",Jakarta,,94,-6.1743623152,106.7909395695,0,0
Ban Ban Cheese Tea,Bubble Tea,3.8,Good,136,IDR,50000,1,"Lippo Mall Puri @ St. Moritz, Puri Indah","Lippo Mall Puri @ St. Moritz, Puri Indah, Jakarta",Jakarta,,94,-6.1895360030,106.7387940735,0,0
Coco,"Bubble Tea, Beverages",3.8,Good,62,IDR,50000,1,"Pacific Place, SCBD","Pacific Place, SCBD, Jakarta",Jakarta,,94,-6.2256888342,106.8098555133,0,0
Kamu Tea,"Beverages, Taiwanese",3.8,Good,34,IDR,60000,1,"Kota Kasablanka, Tebet","Kota Kasablanka, Tebet, Jakarta",Jakarta,,94,-6.2235520000,106.8426790000,0,0
Sagaleh,"Beverages, Coffee, Tea",3.8,Good,63,IDR,50000,1,Melawai,"Melawai, Jakarta",Jakarta,,94,-6.2463172923,106.7969913036,0,0
KOI Cafe,"Bubble Tea, Beverages",3.8,Good,41,IDR,60000,1,"Mall Kelapa Gading, Kelapa Gading","Mall Kelapa Gading, Kelapa Gading, Jakarta",Jakarta,,94,-6.1563601219,106.9092092291,0,0
Chang Tea,Beverages,3.8,Good,38,IDR,60000,1,"Kota Kasablanka, Tebet","Kota Kasablanka, Tebet, Jakarta",Jakarta,,94,-6.2244036324,106.8430485204,0,0
Kopi Kenangan,"Coffee, Tea",3.8,Good,45,IDR,33000,1,"Mayapada Tower, Sudirman","Mayapada Tower, Sudirman, Jakarta",Jakarta,,94,-6.2177560000,106.8189350000,0,0
BRUN,Beverages,3.8,Good,31,IDR,70000,1,"Central Park, Tanjung Duren","Central Park, Tanjung Duren, Jakarta",Jakarta,,94,-6.1777448000,106.7910148000,0,0
Chatime,"Bubble Tea, Beverages",3.8,Good,32,IDR,50000,1,Pondok Aren,"Pondok Aren, Tangerang",Tangerang,,94,-6.2788439649,106.7195435241,0,0
Rinne Cheese Tea,Beverages,3.8,Good,21,IDR,50000,1,Pluit,"Pluit, Jakarta",Jakarta,,94,-6.1166852111,106.7893470079,0,0
KOI Cafe,"Bubble Tea, Beverages",3.8,Good,20,IDR,60000,1,"Neo SOHO Mall, Tanjung Duren","Neo SOHO Mall, Tanjung Duren, Jakarta",Jakarta,,94,-6.1753979744,106.7909405753,0,0
Chatime,"Bubble Tea, Beverages",3.7,Good,83,IDR,50000,1,"Grand Indonesia Mall, Thamrin","Grand Indonesia Mall, Thamrin, Jakarta",Jakarta,,94,-6.1954430970,106.8213883415,0,0
Coco,"Bubble Tea, Beverages",3.7,Good,67,IDR,50000,1,"Lotte Shopping Avenue, Karet","Lotte Shopping Avenue, Karet, Jakarta",Jakarta,,94,-6.2245476179,106.8228089064,0,0
Chatime,"Bubble Tea, Beverages",3.7,Good,42,IDR,50000,1,"Kuningan City, Kuningan","Kuningan City, Kuningan, Jakarta",Jakarta,,94,-6.2248669187,106.8294500560,0,0
Kamu Tea Cafe,"Beverages, Taiwanese",3.7,Good,47,IDR,60000,1,"The Breeze, Serpong","The Breeze, Serpong, Tangerang",Tangerang,,94,-6.3024569163,106.6544795036,0,0
King Mango Thai,Beverages,3.7,Good,47,IDR,50000,1,"AEON Mall, Cakung","AEON Mall, Cakung, Jakarta",Jakarta,,94,-6.1724326571,106.9519190490,0,0
Chatime,"Bubble Tea, Beverages",3.7,Good,53,IDR,50000,1,"Mall Kelapa Gading, Kelapa Gading","Mall Kelapa Gading, Kelapa Gading, Jakarta",Jakarta,,94,-6.1585298442,106.9074118137,0,0
Chatime,"Bubble Tea, Beverages",3.7,Good,42,IDR,50000,1,"Setiabudi One, Setiabudi","Setiabudi One, Setiabudi, Jakarta",Jakarta,,94,-6.2152354795,106.8301172555,0,0
Kamu Tea Cafe,"Beverages, Taiwanese",3.7,Good,33,IDR,60000,1,"Gandaria City Mall, Gandaria","Gandaria City Mall, Gandaria, Jakarta",Jakarta,,94,-6.2445785379,106.7838424444,0,0
Re.juve,"Beverages, Juices",3.7,Good,28,IDR,100000,2,"Lotte Shopping Avenue, Karet","Lotte Shopping Avenue, Karet, Jakarta",Jakarta,,94,-6.2241803216,106.8232685700,0,0
Teh Tarik Uncle G,Beverages,3.7,Good,32,IDR,50000,1,"Lippo Mall Puri @ St. Moritz, Puri Indah","Lippo Mall Puri @ St. Moritz, Puri Indah, Jakarta",Jakarta,,94,-6.1889630227,106.7389358953,0,0
Jamba Juice,Juices,3.7,Good,29,IDR,80000,2,"Kota Kasablanka, Tebet","Kota Kasablanka, Tebet, Jakarta",Jakarta,,94,-6.2242746455,106.8427045271,0,0
Dum Dum Thai Drinks,"Beverages, Thai",3.7,Good,32,IDR,50000,1,"Mall Kelapa Gading, Kelapa Gading","Mall Kelapa Gading, Kelapa Gading, Jakarta",Jakarta,,94,-6.1585068437,106.9072807208,0,0
KOI Cafe,"Bubble Tea, Beverages",3.7,Good,27,IDR,60000,1,"Puri Indah Mall, Puri Indah","Puri Indah Mall, Puri Indah, Jakarta",Jakarta,,94,-6.1877143968,106.7344515771,0,0
Coco,"Bubble Tea, Beverages",3.7,Good,28,IDR,50000,1,"Plaza Senayan, Senayan","Plaza Senayan, Senayan, Jakarta",Jakarta,,94,-6.2265540773,106.7989452928,0,0
Harian Cokelat,Beverages,3.7,Good,33,IDR,60000,1,Pondok Indah,"Pondok Indah, Jakarta",Jakarta,,94,-6.2516324616,106.7947815656,0,0
Kedai Kopi Kani,"Coffee, Tea",3.7,Good,24,IDR,100000,2,"PHX Bintaro, Pondok Aren","PHX Bintaro, Pondok Aren, Tangerang",Tangerang,15229,94,-6.2816507147,106.7083573714,0,0
Dum Dum Thai Drinks,"Beverages, Thai",3.7,Good,33,IDR,50000,1,"AEON Mall, Serpong","AEON Mall, Serpong, Tangerang",Tangerang,,94,-6.3050279321,106.6431082785,0,0
DaYung's Tea,"Beverages, Juices",3.7,Good,21,IDR,60000,1,"Supermall Karawaci, Cibodas","Supermall Karawaci, Cibodas, Tangerang",Tangerang,,94,-6.2274623142,106.6067143902,0,0
Dum Dum Thai Drinks,"Beverages, Thai",3.7,Good,28,IDR,50000,1,"Mall Artha Gading, Kelapa Gading","Mall Artha Gading, Kelapa Gading, Jakarta",Jakarta,,94,-6.1458887287,106.8919358030,0,0
KOI Cafe,"Bubble Tea, Beverages",3.7,Good,17,IDR,60000,1,"Pluit Village, Pluit","Pluit Village, Pluit, Jakarta",Jakarta,,94,-6.1165912015,106.7898784205,0,0
Daily Press Coffee,"Beverages, Coffee",3.6,Good,76,IDR,80000,2,"Ruko Golden 8, Serpong Utara","Ruko Golden 8, Serpong Utara, Tangerang",Tangerang,,94,-6.2432083333,106.6389916667,0,0
Samakamu Kopi,Coffee,3.6,Good,72,IDR,60000,1,Karet,"Karet, Jakarta",Jakarta,,94,-6.2166183620,106.8190752715,0,0
Mango Mango,"Juices, Desserts",3.6,Good,84,IDR,50000,1,"Lippo Mall Puri @ St. Moritz, Puri Indah","Lippo Mall Puri @ St. Moritz, Puri Indah, Jakarta",Jakarta,,94,-6.1890143543,106.7388336361,0,0
MM Juice,"Juices, Indonesian, Beverages",3.6,Good,44,IDR,150000,3,Senopati,"Senopati, Jakarta",Jakarta,,94,-6.2418755749,106.8100791425,0,0
Chatime,"Bubble Tea, Beverages",3.6,Good,52,IDR,50000,1,"Central Park, Tanjung Duren","Central Park, Tanjung Duren, Jakarta",Jakarta,,94,-6.1776389513,106.7905788124,0,0
Sharetea,"Bubble Tea, Beverages",3.6,Good,45,IDR,60000,1,"Plaza Semanggi, Sudirman","Plaza Semanggi, Sudirman, Jakarta",Jakarta,,94,-6.2205230105,106.8143257499,0,0
Sharetea,"Bubble Tea, Beverages",3.6,Good,49,IDR,60000,1,"Pondok Indah Mall 2, Pondok Indah","Pondok Indah Mall 2, Pondok Indah, Jakarta",Jakarta,,94,-6.2655398586,106.7828755081,0,0
Chatime,"Bubble Tea, Beverages",3.6,Good,47,IDR,50000,1,"Gandaria City Mall, Gandaria","Gandaria City Mall, Gandaria, Jakarta",Jakarta,,94,-6.2443712335,106.7832889035,0,0
Tuk Tuk Cha,"Beverages, Bubble Tea, Thai",3.6,Good,41,IDR,70000,1,"Gandaria City Mall, Gandaria","Gandaria City Mall, Gandaria, Jakarta",Jakarta,,94,-6.2441309335,106.7840335518,0,0
Kedai Kopi Kulo,"Beverages, Coffee",3.6,Good,37,IDR,70000,1,Serpong Utara,"Serpong Utara, Tangerang",Tangerang,,94,-6.2326210706,106.6316713393,0,0
Presotea,"Bubble Tea, Beverages",3.6,Good,33,IDR,50000,1,"Lotte Shopping Avenue, Karet","Lotte Shopping Avenue, Karet, Jakarta",Jakarta,,94,-6.2248505870,106.8234023452,0,0
Dum Dum Thai Drinks,"Beverages, Thai",3.6,Good,35,IDR,50000,1,"Kota Kasablanka, Tebet","Kota Kasablanka, Tebet, Jakarta",Jakarta,,94,-6.2232734122,106.8425871804,0,0
Chatime,"Bubble Tea, Beverages",3.6,Good,34,IDR,50000,1,"Puri Indah Mall, Puri Indah","Puri Indah Mall, Puri Indah, Jakarta",Jakarta,,94,-6.1876027337,106.7340532690,0,0
Avocado Lovers,Beverages,3.6,Good,25,IDR,50000,1,"Kemang Village, Kemang","Kemang Village, Kemang, Jakarta",Jakarta,,94,-6.2607078000,106.8125834000,0,0
Kedai Kopi Kulo,"Beverages, Coffee",3.6,Good,30,IDR,70000,1,Bendungan Hilir,"Bendungan Hilir, Jakarta",Jakarta,,94,-6.2013867895,106.8108559772,0,0
King Mango Thai,Beverages,3.6,Good,34,IDR,50000,1,"AEON Mall, Serpong","AEON Mall, Serpong, Tangerang",Tangerang,,94,-6.3039495400,106.6443715990,0,0
Ten Ren's Tea,"Tea, Beverages",3.6,Good,22,IDR,60000,1,Gambir,"Gambir, Jakarta",Jakarta,,94,-6.1675200000,106.8287220000,0,0
Chapayom,"Beverages, Street Food, Thai",3.6,Good,29,IDR,80000,2,"AEON Mall, Serpong","AEON Mall, Serpong, Tangerang",Tangerang,,94,-6.3040228547,106.6444882751,0,0
Chatime,"Bubble Tea, Beverages",3.6,Good,37,IDR,50000,1,"Living World, Serpong Utara","Living World, Serpong Utara, Tangerang",Tangerang,,94,-6.2438786352,106.6547477245,0,0
Dum Dum Thai Drinks,"Beverages, Thai",3.6,Good,27,IDR,50000,1,"Senayan City, Senayan","Senayan City, Senayan, Jakarta",Jakarta,,94,-6.2274163192,106.7974808067,0,0
Kedai Kopi Kulo,"Beverages, Coffee, Tea",3.6,Good,25,IDR,70000,1,Puri Indah,"Puri Indah, Jakarta",Jakarta,,94,-6.1841730000,106.7532250000,0,0
Bear & Co.,Beverages,3.6,Good,23,IDR,60000,1,Gambir,"Gambir, Jakarta",Jakarta,,94,-6.1694006563,106.8300676346,0,0
Dum Dum Thai Drinks,"Beverages, Thai",3.6,Good,23,IDR,50000,1,"Mall Ciputra, Grogol","Mall Ciputra, Grogol, Jakarta",Jakarta,,94,-6.1680103168,106.7863674089,0,0
Smoothopia,"Beverages, Desserts",3.6,Good,32,IDR,90000,2,Serpong Utara,"Serpong Utara, Tangerang",Tangerang,,94,-6.2440776076,106.6238714755,0,0
Chatime,"Bubble Tea, Beverages",3.6,Good,19,IDR,50000,1,"Cibinong City Mall, Bogor Utara","Cibinong City Mall, Bogor Utara, Bogor",Bogor,,94,-6.4845222222,106.8421027778,0,0
Dum Dum Thai Drinks,"Beverages, Thai",3.6,Good,22,IDR,50000,1,"One Bel Park, Fatmawati","One Bel Park, Fatmawati, Jakarta",Jakarta,,94,-6.3045220612,106.7949729413,0,0
Tea Time Cafe,"Bubble Tea, Indonesian, Coffee, Tea",3.6,Good,26,IDR,160000,3,Grogol,"Grogol, Jakarta",Jakarta,,94,-6.1641289469,106.7942182347,0,0
Cocoyo,Beverages,3.6,Good,18,IDR,50000,1,"Kota Kasablanka, Tebet","Kota Kasablanka, Tebet, Jakarta",Jakarta,,94,-6.2231484245,106.8429006636,0,0
Chatime,"Bubble Tea, Beverages",3.6,Good,15,IDR,50000,1,"Bintaro Jaya Xchange Mall CBD, Pondok Aren","Bintaro Jaya Xchange Mall CBD, Pondok Aren, Tangerang",Tangerang,,94,-6.2863973600,106.7279364914,0,0
KOI Cafe,"Bubble Tea, Beverages",3.6,Good,15,IDR,60000,1,"Mall Ciputra, Grogol","Mall Ciputra, Grogol, Jakarta",Jakarta,,94,-6.1683333185,106.7864284292,0,0
Kopi Kenangan,"Coffee, Tea",3.5,Good,40,IDR,33000,1,"The Common - Kota Kasablanka, Tebet","The Common - Kota Kasablanka, Tebet, Jakarta",Jakarta,,94,-6.2241803216,106.8431249633,0,0
Chatime,"Bubble Tea, Beverages",3.5,Good,90,IDR,50000,1,"Kota Kasablanka, Tebet","Kota Kasablanka, Tebet, Jakarta",Jakarta,,94,-6.2236857045,106.8427062035,0,0
Calais,"Bubble Tea, Beverages",3.5,Good,65,IDR,70000,1,"Mall Kelapa Gading, Kelapa Gading","Mall Kelapa Gading, Kelapa Gading, Jakarta",Jakarta,,94,-6.1568251346,106.9098811224,0,0
Chatime,"Bubble Tea, Beverages",3.5,Good,76,IDR,50000,1,"Pondok Indah Mall 1, Pondok Indah","Pondok Indah Mall 1, Pondok Indah, Jakarta",Jakarta,,94,-6.2662070716,106.7850584909,0,0
Dum Dum Thai Drinks,"Beverages, Thai",3.5,Good,45,IDR,50000,1,"Summarecon Mall Serpong, Serpong Utara","Summarecon Mall Serpong, Serpong Utara, Tangerang",Tangerang,,94,-6.2390216174,106.6290018708,0,0
Dum Dum Thai Drinks,"Beverages, Thai",3.5,Good,39,IDR,50000,1,"Mall of Indonesia, Kelapa Gading","Mall of Indonesia, Kelapa Gading, Jakarta",Jakarta,,94,-6.1508839420,106.8927391246,0,0
Sharetea,"Bubble Tea, Beverages",3.5,Good,33,IDR,60000,1,"Mall Kelapa Gading, Kelapa Gading","Mall Kelapa Gading, Kelapa Gading, Jakarta",Jakarta,,94,-6.1573891494,106.9089044631,0,0
Chatime,"Bubble Tea, Beverages",3.5,Good,31,IDR,50000,1,"Mall Cipinang Indah, Pondok Bambu","Mall Cipinang Indah, Pondok Bambu, Jakarta",Jakarta,,94,-6.2384986846,106.8944128230,0,0
Chatime,"Bubble Tea, Beverages",3.5,Good,36,IDR,50000,1,Pulo Gadung,"Pulo Gadung, Jakarta",Jakarta,,94,-6.1937715048,106.8941130862,0,0
Re.juve,"Beverages, Juices",3.5,Good,21,IDR,100000,2,"Grand Indonesia Mall, Thamrin","Grand Indonesia Mall, Thamrin, Jakarta",Jakarta,,94,-6.1954694291,106.8201746419,0,0
Dakasi,"Bubble Tea, Beverages",3.5,Good,34,IDR,60000,1,"Ruko Cordoba, Pantai Indah Kapuk","Ruko Cordoba, Pantai Indah Kapuk, Jakarta",Jakarta,,94,-6.1122394052,106.7427620664,0,0
King Mango Thai,Beverages,3.5,Good,26,IDR,50000,1,"Senayan City, Senayan","Senayan City, Senayan, Jakarta",Jakarta,,94,-6.2279832583,106.7975304276,0,0
Chatime,"Bubble Tea, Beverages",3.5,Good,29,IDR,50000,1,"Mall Taman Anggrek, Tanjung Duren","Mall Taman Anggrek, Tanjung Duren, Jakarta",Jakarta,,94,-6.1785929386,106.7925492302,0,0
Dum Dum Thai Drinks,"Beverages, Thai",3.5,Good,19,IDR,50000,1,"Emporium Pluit Mall, Penjaringan","Emporium Pluit Mall, Penjaringan, Jakarta",Jakarta,,94,-6.1272461855,106.7906629667,0,0
Sama Dengan,"Cafe, Coffee, Tea",4.6,Excellent,344,IDR,100000,2,"Kalibata City Square, Kalibata","Kalibata City Square, Kalibata, Jakarta",Jakarta,,94,-6.2565667272,106.8525700271,0,0
KLTR Coffee Roasters,"Cafe, Western, Asian, Coffee",4.6,Excellent,153,IDR,80000,2,"Apartemen Pavilion, Sudirman","Apartemen Pavilion, Sudirman, Jakarta",Jakarta,,94,-6.2079887026,106.8175162375,0,0
Gelato Secrets,"Ice Cream, Cafe, Coffee, Tea",4.6,Excellent,118,IDR,130000,2,"Setiabudi One, Setiabudi","Setiabudi One, Setiabudi, Jakarta",Jakarta,12940,94,-6.2155717846,106.8301085383,0,0
Toodz House,"Cafe, Italian, Western, Indonesian",4.5,Excellent,1965,IDR,165000,3,Fatmawati,"Fatmawati, Jakarta",Jakarta,,94,-6.2778808283,106.8017706648,0,0
Gelato Secrets,"Ice Cream, Cafe, Coffee, Tea",4.5,Excellent,526,IDR,130000,2,"Shophaus, Menteng","Shophaus, Menteng, Jakarta",Jakarta,,94,-6.1977566519,106.8366745859,0,0
Giyanti Coffee Roastery,"Cafe, Coffee",4.5,Excellent,831,IDR,170000,3,Cikini,"Cikini, Jakarta",Jakarta,,94,-6.1989975878,106.8394419551,0,0
Toko Kopi Tuku,"Cafe, Coffee",4.5,Excellent,631,IDR,80000,2,Fatmawati,"Fatmawati, Jakarta",Jakarta,,94,-6.2776885341,106.8014075607,0,0
La Maison,"Desserts, Cafe, Coffee, Tea",4.5,Excellent,162,IDR,150000,3,"Grand Indonesia Mall, Thamrin","Grand Indonesia Mall, Thamrin, Jakarta",Jakarta,,94,-6.1951724427,106.8214138225,0,0
BEAU,"Cafe, Western, Coffee, Tea",4.4,Very Good,763,IDR,150000,3,Senopati,"Senopati, Jakarta",Jakarta,,94,-6.2410980122,106.8106175959,0,0
Pison Coffee,"Cafe, Western, Coffee, Tea",4.4,Very Good,268,IDR,150000,3,Senopati,"Senopati, Jakarta",Jakarta,,94,-6.2335159653,106.8119801581,0,0
Popolo,"Cafe, Coffee, Tea",4.4,Very Good,392,IDR,100000,2,Bogor Timur,"Bogor Timur, Bogor",Bogor,,94,-6.6055589234,106.8107292429,0,0
Ardent Coffee & Kitchen,"Cafe, Western, Indonesian, Coffee, Tea",4.4,Very Good,201,IDR,240000,3,Puri Indah,"Puri Indah, Jakarta",Jakarta,,94,-6.1870157517,106.7551297322,0,0
7 Speed Coffee,"Cafe, Desserts, Coffee, Tea",4.4,Very Good,249,IDR,150000,3,Kemang,"Kemang, Jakarta",Jakarta,,94,-6.2574852438,106.8208274245,0,0
Crematology Coffee Roasters,Cafe,4.4,Very Good,324,IDR,200000,3,"PX Pavilion @ St. Moritz, Puri Indah","PX Pavilion @ St. Moritz, Puri Indah, Jakarta",Jakarta,,94,-6.1880993846,106.7380470783,0,0
BERMVDA Coffee,"Cafe, Western, Coffee, Tea",4.4,Very Good,228,IDR,100000,2,"Ruko Cordoba, Pantai Indah Kapuk","Ruko Cordoba, Pantai Indah Kapuk, Jakarta",Jakarta,14470,94,-6.1121277261,106.7433803156,0,0
Fillmore Coffee,"Cafe, Coffee, Tea",4.4,Very Good,282,IDR,150000,3,Setiabudi,"Setiabudi, Jakarta",Jakarta,,94,-6.2203580259,106.8237134814,0,0
Moreau Chocolatier's Cafe,"Cafe, Desserts, Coffee, Tea",4.4,Very Good,204,IDR,150000,3,Kemang,"Kemang, Jakarta",Jakarta,,94,-6.2708572093,106.8155401200,0,0
Toko Kopi Tuku,"Cafe, Coffee, Tea",4.4,Very Good,330,IDR,80000,2,"Pasar Santa, Senopati","Pasar Santa, Senopati, Jakarta",Jakarta,,94,-6.2401668018,106.8120207265,0,0
Chief Coffee,"Cafe, Western, Italian, Coffee, Tea",4.4,Very Good,164,IDR,200000,3,Kemang,"Kemang, Jakarta",Jakarta,,94,-6.2601694626,106.8155833706,0,0
aROMA Gelato Experience,"Cafe, Desserts",4.4,Very Good,180,IDR,90000,2,"Senayan City, Senayan","Senayan City, Senayan, Jakarta",Jakarta,,94,-6.2276742915,106.7975012586,0,0
Ombe Kofie,"Cafe, Coffee, Tea",4.4,Very Good,197,IDR,120000,2,Pluit,"Pluit, Jakarta",Jakarta,,94,-6.1224417681,106.7879649997,0,0
Lewis & Carroll Tea,"Cafe, Western, Tea",4.3,Very Good,484,IDR,200000,3,Blok M,"Blok M, Jakarta",Jakarta,,94,-6.2369605459,106.7898204178,0,0
Caffè Milano,"Cafe, Western, Coffee",4.3,Very Good,489,IDR,600000,4,"Grand Indonesia Mall, Thamrin","Grand Indonesia Mall, Thamrin, Jakarta",Jakarta,,94,-6.1962523924,106.8217822909,0,0
Lewis & Carroll Flower Market,"Cafe, Western, Tea",4.3,Very Good,272,IDR,200000,3,"Grand Indonesia Mall, Thamrin","Grand Indonesia Mall, Thamrin, Jakarta",Jakarta,,94,-6.1966180415,106.8224079162,0,0
Tanamera Coffee Roastery,"Cafe, Coffee, Tea",4.3,Very Good,563,IDR,150000,3,Tanah Abang,"Tanah Abang, Jakarta",Jakarta,,94,-6.1961610634,106.8176439777,0,0
First Crack Coffee,"Cafe, Indonesian, Coffee, Tea",4.3,Very Good,230,IDR,210000,3,Sunter,"Sunter, Jakarta",Jakarta,,94,-6.1526906742,106.8869948387,0,0
TWG Tea Salon & Boutique,"Cafe, Desserts, Asian, Western, Tea",4.3,Very Good,201,IDR,400000,4,"Pacific Place, SCBD","Pacific Place, SCBD, Jakarta",Jakarta,,94,-6.2247865936,106.8097981811,0,0
Omnikopi,"Cafe, Coffee, Indonesian",4.3,Very Good,136,IDR,110000,2,Ciputat Timur,"Ciputat Timur, Tangerang",Tangerang,,94,-6.2769863428,106.7530952767,0,0
Kopi SANA,"Cafe, Coffee, Tea",4.3,Very Good,175,IDR,50000,1,Dharmawangsa,"Dharmawangsa, Jakarta",Jakarta,,94,-6.2506869830,106.7979646102,0,0
St. Marc Cafe,"Cafe, Desserts, Bakery, Asian, Italian, Coffee, Tea",4.3,Very Good,75,IDR,120000,2,"Pondok Indah Mall 2, Pondok Indah","Pondok Indah Mall 2, Pondok Indah, Jakarta",Jakarta,,94,-6.2664616921,106.7831762508,0,0
Mangia,"Cafe, Western, Desserts, Indonesian",4.2,Very Good,615,IDR,250000,3,Melawai,"Melawai, Jakarta",Jakarta,,94,-6.2506530000,106.7978890000,0,0
Six Ounces Coffee,"Cafe, Coffee, Western",4.2,Very Good,481,IDR,200000,3,Kelapa Gading,"Kelapa Gading, Jakarta",Jakarta,,94,-6.1616629090,106.9086000323,0,0
Gordi HQ,Cafe,4.2,Very Good,311,IDR,150000,3,Cilandak,"Cilandak, Jakarta",Jakarta,12560,94,-6.2844547832,106.8117756397,0,0
Fedwell,"Healthy Food, Cafe",4.2,Very Good,128,IDR,250000,3,Senopati,"Senopati, Jakarta",Jakarta,,94,-6.2326330000,106.8110320000,0,0
Turning Point Coffee,"Cafe, Coffee",4.2,Very Good,394,IDR,150000,3,"Ruko Golden 8, Serpong Utara","Ruko Golden 8, Serpong Utara, Tangerang",Tangerang,,94,-6.2417040000,106.6378440000,0,0
Komunal88,"Italian, Cafe, Coffee, Tea",4.2,Very Good,471,IDR,250000,3,Kemang,"Kemang, Jakarta",Jakarta,,94,-6.2749027588,106.8210875988,0,0
1/15 Coffee,"Cafe, Coffee, Tea",4.2,Very Good,214,IDR,200000,3,Thamrin,"Thamrin, Jakarta",Jakarta,,94,-6.1980826354,106.8243850395,0,0
TWG Tea Salon & Boutique,"Cafe, Desserts, Asian, Western, Tea",4.2,Very Good,329,IDR,400000,4,"Plaza Senayan, Senayan","Plaza Senayan, Senayan, Jakarta",Jakarta,,94,-6.2249682417,106.7990039662,0,0
Kopimana 27,Cafe,4.2,Very Good,273,IDR,130000,2,Tebet,"Tebet, Jakarta",Jakarta,12810,94,-6.2393902364,106.8456301466,0,0
Portafilter Coffee,"Cafe, Coffee, European",4.2,Very Good,208,IDR,150000,3,Kelapa Gading,"Kelapa Gading, Jakarta",Jakarta,14240,94,-6.1659989681,106.9143161550,0,0
Jacob Koffie Huis,"Cafe, Coffee, Tea",4.2,Very Good,164,IDR,80000,2,Pancoran Mas,"Pancoran Mas, Depok",Depok,16431,94,-6.4000560000,106.8198350000,0,0
Doppio Coffee Jakarta,"Cafe, Desserts, Coffee",4.2,Very Good,193,IDR,100000,2,Senopati,"Senopati, Jakarta",Jakarta,,94,-6.2387823149,106.8093344942,0,0
CoffeeSmith,"Cafe, Western",4.2,Very Good,196,IDR,180000,3,Mampang Prapatan,"Mampang Prapatan, Jakarta",Jakarta,,94,-6.2539198173,106.8324212730,0,0
Oetara,"Cafe, Asian, Italian, Coffee, Tea",4.2,Very Good,90,IDR,150000,3,Muara Karang,"Muara Karang, Jakarta",Jakarta,,94,-6.1187994229,106.7753683403,0,0
Three Folks,"Cafe, Western, Japanese, Coffee, Tea",4.2,Very Good,111,IDR,150000,3,"Ruko Grand Aries Niaga, Meruya","Ruko Grand Aries Niaga, Meruya, Jakarta",Jakarta,11620,94,-6.1924482266,106.7451317981,0,0
Rosso' Micro Roastery,"Cafe, Coffee, Tea",4.2,Very Good,157,IDR,70000,1,"Ruko Pasar Modern BSD, Serpong","Ruko Pasar Modern BSD, Serpong, Tangerang",Tangerang,,94,-6.3046883522,106.6844206676,0,0
Awesome Coffee,"Cafe, Western, Asian, Coffee, Tea",4.2,Very Good,112,IDR,250000,3,Kelapa Gading,"Kelapa Gading, Jakarta",Jakarta,,94,-6.1686909869,106.9001135230,0,0
Ravelle,"American, Asian, European",4.2,Very Good,123,IDR,200000,3,Kelapa Gading,"Kelapa Gading, Jakarta",Jakarta,,94,-6.1538437129,106.9088243321,0,0
Calibrate Coffee,"Cafe, Coffee, Tea",4.2,Very Good,128,IDR,150000,3,Puri Indah,"Puri Indah, Jakarta",Jakarta,11610,94,-6.1832768512,106.7520850897,0,0
Cultivate,"Cafe, Desserts, Coffee, Tea",4.2,Very Good,116,IDR,100000,2,Serpong Utara,"Serpong Utara, Tangerang",Tangerang,15810,94,-6.2385506780,106.6327381879,0,0
Guten Morgen Coffee Lab & Shop,"Cafe, Coffee, Tea",4.2,Very Good,110,IDR,150000,3,Tomang,"Tomang, Jakarta",Jakarta,,94,-6.1731633213,106.7978767678,0,0
Dancing Goat Coffee Co,"Cafe, Coffee, Tea",4.2,Very Good,112,IDR,150000,3,"Rukan Grand Puri Niaga, Puri Indah","Rukan Grand Puri Niaga, Puri Indah, Jakarta",Jakarta,,94,-6.1906539628,106.7495929822,0,0
Caribou Coffee,"Cafe, Desserts, Coffee, Tea",4.2,Very Good,127,IDR,100000,2,"Sarinah Building, Thamrin","Sarinah Building, Thamrin, Jakarta",Jakarta,,94,-6.1876563986,106.8238204345,0,0
WINC Collaborative Space & Cafe,"Cafe, Coffee, Tea",4.2,Very Good,92,IDR,100000,2,"Ruko Graha Boulevard, Serpong Utara","Ruko Graha Boulevard, Serpong Utara, Tangerang",Tangerang,,94,-6.2516590000,106.6259320000,0,0
Semasa Cafe & Shop,"Cafe, Desserts, Coffee, Tea",4.2,Very Good,59,IDR,120000,2,Kota,"Kota, Jakarta",Jakarta,,94,-6.1386613370,106.8145788834,0,0
Cyclo Coffee,"Cafe, Coffee, Tea",4.2,Very Good,82,IDR,100000,2,"Crumble Crew, Senopati","Crumble Crew, Senopati, Jakarta",Jakarta,,94,-6.2312079003,106.8099507317,0,0
Lucky Cat Coffee & Kitchen,"Cafe, Western",4.1,Very Good,974,IDR,300000,3,"Plaza Festival, Kuningan","Plaza Festival, Kuningan, Jakarta",Jakarta,,94,-6.2219785387,106.8335950747,0,0
Ottoman's Coffee Brewers,"Cafe, Western, Coffee, Tea, Asian",4.1,Very Good,160,IDR,200000,3,Kuningan,"Kuningan, Jakarta",Jakarta,,94,-6.2309830000,106.8241940000,0,0
Kopi Kalyan,"Cafe, Western, Indonesian, Coffee, Tea",4.1,Very Good,421,IDR,100000,2,Senopati,"Senopati, Jakarta",Jakarta,,94,-6.2432063943,106.8091799319,0,0
MONKS,"Western, Asian, Cafe",4.1,Very Good,546,IDR,250000,3,Kelapa Gading,"Kelapa Gading, Jakarta",Jakarta,,94,-6.1640482792,106.9113948941,0,0
Social Affair,"Western, Cafe, Coffee, Tea",4.1,Very Good,350,IDR,300000,3,"Ruko Garden House, Pantai Indah Kapuk","Ruko Garden House, Pantai Indah Kapuk, Jakarta",Jakarta,14470,94,-6.1111076123,106.7376839742,0,0
1/15 Coffee,"Cafe, Coffee, Tea",4.1,Very Good,775,IDR,200000,3,Pondok Indah,"Pondok Indah, Jakarta",Jakarta,,94,-6.2486599523,106.7902757227,0,0
Common Grounds,Cafe,4.1,Very Good,622,IDR,250000,3,"Citywalk Sudirman, Sudirman","Citywalk Sudirman, Sudirman, Jakarta",Jakarta,,94,-6.2094079348,106.8182005361,0,0
Monolog,"Cafe, Western",4.1,Very Good,854,IDR,300000,3,"Plaza Senayan, Senayan","Plaza Senayan, Senayan, Jakarta",Jakarta,,94,-6.2280799145,106.7987940833,0,0
Kopi Nalar,"Cafe, Western, Coffee, Tea",4.1,Very Good,349,IDR,100000,2,Senopati,"Senopati, Jakarta",Jakarta,,94,-6.2423455115,106.8080165237,0,0
Caribou Coffee,"Cafe, Desserts, Coffee, Tea",4.1,Very Good,544,IDR,100000,2,Senopati,"Senopati, Jakarta",Jakarta,,94,-6.2311212435,106.8084869161,0,0
Koultoura,"Cafe, Italian, European, Western",4.1,Very Good,683,IDR,400000,4,Green Ville,"Green Ville, Jakarta",Jakarta,,94,-6.1697306572,106.7669190466,0,0
Sajiva Coffee Company,"Cafe, Coffee, Tea, Asian, Dimsum",4.1,Very Good,139,IDR,230000,3,"Kota Kasablanka, Tebet","Kota Kasablanka, Tebet, Jakarta",Jakarta,,94,-6.2240303367,106.8423360586,0,0
The Bailey's and Chloe,"Western, Asian, Cafe",4.1,Very Good,487,IDR,150000,3,Tanjung Duren,"Tanjung Duren, Jakarta",Jakarta,,94,-6.1705849920,106.7831651866,0,0
Kopium Artisan Coffee,"Cafe, Coffee, Western",4.1,Very Good,443,IDR,120000,2,Kelapa Gading,"Kelapa Gading, Jakarta",Jakarta,,94,-6.1730659884,106.8998670951,0,0
Watt Coffee,"Cafe, Coffee, Tea",4.1,Very Good,482,IDR,100000,2,Senen,"Senen, Jakarta",Jakarta,10420,94,-6.1805705734,106.8405373022,0,0
Sophie Authentique,"Cafe, Bakery, French",4.1,Very Good,468,IDR,170000,3,Kemang,"Kemang, Jakarta",Jakarta,,94,-6.2658264737,106.8161131069,0,0
Dua Coffee Shop @Cipete,"Cafe, Western, Asian",4.1,Very Good,244,IDR,150000,3,Fatmawati,"Fatmawati, Jakarta",Jakarta,,94,-6.2777375241,106.8005914986,0,0
Walking Drums,Cafe,4.1,Very Good,299,IDR,150000,3,Blok M,"Blok M, Jakarta",Jakarta,,94,-6.2355147247,106.7959938571,0,0
Locarasa,"Ice Cream, Desserts, Cafe, Coffee, Tea",4.1,Very Good,232,IDR,80000,2,Kemang,"Kemang, Jakarta",Jakarta,,94,-6.2705892602,106.8151944503,0,0
Routine Coffee & Eatery,"Cafe, Coffee, Tea",4.1,Very Good,260,IDR,210000,3,Pondok Aren,"Pondok Aren, Tangerang",Tangerang,,94,-6.2734100000,106.7231460000,0,0
Roti Eneng,"Street Food, Cafe",4.1,Very Good,242,IDR,70000,1,Gandaria,"Gandaria, Jakarta",Jakarta,,94,-6.2449338215,106.7896983773,0,0
Kakolait,Cafe,4.1,Very Good,241,IDR,140000,2,Serpong Utara,"Serpong Utara, Tangerang",Tangerang,,94,-6.2410990121,106.6377089918,0,0
Simetri Coffee Roasters,"Cafe, Coffee, Tea",4.1,Very Good,232,IDR,200000,3,Puri Indah,"Puri Indah, Jakarta",Jakarta,,94,-6.1841808296,106.7531596497,0,0
But First Coffee,"Cafe, Coffee",4.1,Very Good,255,IDR,100000,2,"Pelaspas Dharmawangsa, Dharmawangsa","Pelaspas Dharmawangsa, Dharmawangsa, Jakarta",Jakarta,,94,-6.2544793956,106.8022923544,0,0
Sleepyhead Coffee,"Cafe, Coffee, Tea",4.1,Very Good,202,IDR,100000,2,Senopati,"Senopati, Jakarta",Jakarta,12180,94,-6.2375564710,106.8074502423,0,0
Lewis & Carroll Tea,"Cafe, Tea, Coffee, Western",4.1,Very Good,123,IDR,280000,3,"Senayan City, Senayan","Senayan City, Senayan, Jakarta",Jakarta,,94,-6.2270933536,106.7979260534,0,0
Domadona Coffee,"Cafe, Coffee, Tea",4.1,Very Good,181,IDR,150000,3,Dharmawangsa,"Dharmawangsa, Jakarta",Jakarta,,94,-6.2407213955,106.8143478781,0,0
Baconerie,"Cafe, Bakery",4.1,Very Good,213,IDR,200000,3,Kemang,"Kemang, Jakarta",Jakarta,,94,-6.2737633161,106.8163400888,0,0
Animo Bread Culture,"Cafe, Bakery",4.1,Very Good,211,IDR,120000,2,Fatmawati,"Fatmawati, Jakarta",Jakarta,,94,-6.2768097117,106.7988537625,0,0
Tanamera Coffee,"Cafe, Coffee, Tea",4.1,Very Good,180,IDR,150000,3,Gandaria,"Gandaria, Jakarta",Jakarta,,94,-6.2457637045,106.7917257920,0,0
Tanamera Coffee Roastery,"Cafe, Coffee, Tea",4.1,Very Good,138,IDR,150000,3,"Ruko Gallery 8, Pantai Indah Kapuk","Ruko Gallery 8, Pantai Indah Kapuk, Jakarta",Jakarta,,94,-6.1166148706,106.7569237948,0,0
KROMA,"Cafe, Coffee, Tea",4.1,Very Good,135,IDR,120000,2,Dharmawangsa,"Dharmawangsa, Jakarta",Jakarta,,94,-6.2512498975,106.7980615050,0,0
Chicory European Patisserie,"Cafe, Western, Coffee, Tea",4.1,Very Good,134,IDR,230000,3,Menteng,"Menteng, Jakarta",Jakarta,,94,-6.2004245105,106.8259460852,0,0
Goni Coffee,"Cafe, Desserts, Coffee, Tea",4.1,Very Good,148,IDR,100000,2,Kemang,"Kemang, Jakarta",Jakarta,,94,-6.2704329564,106.8238043413,0,0
Chief Coffee,"Cafe, Western, Italian, Coffee, Tea",4.1,Very Good,174,IDR,200000,3,Senopati,"Senopati, Jakarta",Jakarta,12180,94,-6.2380860706,106.8088701367,0,0
Paul,"Cafe, Bakery, Desserts, Western",4.1,Very Good,91,IDR,450000,4,"Plaza Senayan, Senayan","Plaza Senayan, Senayan, Jakarta",Jakarta,,94,-6.2262931046,106.7994817346,0,0
Starbucks Coffee,"Cafe, Coffee, Tea",4.1,Very Good,138,IDR,120000,2,"Grand Indonesia Mall, Thamrin","Grand Indonesia Mall, Thamrin, Jakarta",Jakarta,,94,-6.1951237783,106.8199389428,0,0
Native Coffee Tribe,"Cafe, Coffee, Tea",4.1,Very Good,93,IDR,100000,2,"Ruko The Metro, Pantai Indah Kapuk","Ruko The Metro, Pantai Indah Kapuk, Jakarta",Jakarta,,94,-6.1144666465,106.7549211904,0,0
Dinobites Cafe,"Cafe, Desserts, Tea",4.1,Very Good,94,IDR,120000,2,Green Ville,"Green Ville, Jakarta",Jakarta,,94,-6.1654262956,106.7711277679,0,0
Papa & Mama Bistro and Coffee,"Cafe, Indonesian, Bakery, Desserts, Western, Asian",4.1,Very Good,85,IDR,150000,3,Green Ville,"Green Ville, Jakarta",Jakarta,,94,-6.1695826568,106.7695399001,0,0
Kopi Susu Bu Lurah,"Cafe, Coffee",4.1,Very Good,128,IDR,50000,1,Setiabudi,"Setiabudi, Jakarta",Jakarta,,94,-6.2091006237,106.8266877160,0,0
Paul,"Cafe, Bakery, Desserts, Western",4.1,Very Good,84,IDR,450000,4,"Kota Kasablanka, Tebet","Kota Kasablanka, Tebet, Jakarta",Jakarta,,94,-6.2239040160,106.8432349339,0,0
Coarse & Fine,"Cafe, Western",4.1,Very Good,81,IDR,200000,3,Pinang,"Pinang, Tangerang",Tangerang,,94,-6.2237060358,106.6620849073,0,0
Daily Treats at Lobby Lounge - The Westin Jakarta,"Bakery, Cafe, Desserts, Coffee, Tea",4.1,Very Good,54,IDR,200000,3,"The Westin Jakarta, Kuningan","The Westin Jakarta, Kuningan, Jakarta",Jakarta,,94,-6.2238780000,106.8337930000,0,0
Sushi Go!,"Sushi, Japanese",4.5,Excellent,1420,IDR,100000,2,"Grand Indonesia Mall, Thamrin","Grand Indonesia Mall, Thamrin, Jakarta",Jakarta,,94,-6.1953134363,106.8199607357,0,0
Seirock-Ya,"Japanese, Ramen",4.3,Very Good,483,IDR,160000,3,"AEON Mall, Serpong","AEON Mall, Serpong, Tangerang",Tangerang,,94,-6.3053905060,106.6428856552,0,0
Kibo,Desserts,4.3,Very Good,167,IDR,120000,2,"PIK Avenue Mall, Pantai Indah Kapuk","PIK Avenue Mall, Pantai Indah Kapuk, Jakarta",Jakarta,,94,-6.1093904162,106.7397408932,0,0
Eatlah,Asian,4.3,Very Good,162,IDR,120000,2,"PHX Grogol, Grogol","PHX Grogol, Grogol, Jakarta",Jakarta,,94,-6.1659066338,106.7919282988,0,0
Martabakku Menteng,Street Food,4.2,Very Good,945,IDR,100000,2,"Menteng Wok Street Food, Menteng","Menteng Wok Street Food, Menteng, Jakarta",Jakarta,,94,-6.1877780615,106.8299311772,0,0
Pokinometry Poke Bowl,Healthy Food,4.2,Very Good,225,IDR,180000,3,"PIK Avenue Mall, Pantai Indah Kapuk","PIK Avenue Mall, Pantai Indah Kapuk, Jakarta",Jakarta,,94,-6.1100574930,106.7393603548,0,0
Kobeshi Kitchen,Japanese,4.0,Very Good,64,IDR,120000,2,"Senayan City, Senayan","Senayan City, Senayan, Jakarta",Jakarta,,94,-6.2275276406,106.7979200184,0,0
Pepper Lunch,Japanese,3.9,Good,115,IDR,200000,3,"Mall Kelapa Gading, Kelapa Gading","Mall Kelapa Gading, Kelapa Gading, Jakarta",Jakarta,,94,-6.1560884476,106.9094358757,0,0
Yoshinoya,Japanese,3.9,Good,128,IDR,100000,2,"Pondok Indah Mall 1, Pondok Indah","Pondok Indah Mall 1, Pondok Indah, Jakarta",Jakarta,,94,-6.2661144217,106.7846276611,0,0
Meimo Masakan Manado,Manado,3.9,Good,43,IDR,100000,2,"Mall Ambassador, Kuningan","Mall Ambassador, Kuningan, Jakarta",Jakarta,,94,-6.2239676763,106.8264610693,0,0
Bakmi GM,"Bakmi, Chinese",3.9,Good,64,IDR,125000,2,"Pondok Indah Mall 2, Pondok Indah","Pondok Indah Mall 2, Pondok Indah, Jakarta",Jakarta,,94,-6.2664706905,106.7829962075,0,0
Sugakiya,Ramen,3.9,Good,37,IDR,100000,2,"Plaza Senayan, Senayan","Plaza Senayan, Senayan, Jakarta",Jakarta,,94,-6.2254471925,106.7991873622,0,0
Yoshinoya,Japanese,3.9,Good,65,IDR,100000,2,"Mall Kelapa Gading, Kelapa Gading","Mall Kelapa Gading, Kelapa Gading, Jakarta",Jakarta,,94,-6.1565501271,106.9094687328,0,0
Madame Mai,"Vietnamese, Healthy Food",3.9,Good,55,IDR,120000,2,"Lotte Shopping Avenue, Karet","Lotte Shopping Avenue, Karet, Jakarta",Jakarta,,94,-6.2244819578,106.8237201870,0,0
Hoghock,Chinese,3.9,Good,39,IDR,150000,3,"Mall of Indonesia, Kelapa Gading","Mall of Indonesia, Kelapa Gading, Jakarta",Jakarta,,94,-6.1506172651,106.8919998407,0,0
LaXiang Resto,Chinese,3.9,Good,33,IDR,100000,2,"Food Plaza, Pantai Indah Kapuk","Food Plaza, Pantai Indah Kapuk, Jakarta",Jakarta,,94,-6.1041751203,106.7415373027,0,0
Kazan Ramen,Ramen,3.8,Good,223,IDR,160000,3,"AEON Mall, Serpong","AEON Mall, Serpong, Tangerang",Tangerang,,94,-6.3053395191,106.6429121420,0,0
The Halal Guys,Middle Eastern,3.8,Good,136,IDR,200000,3,"Grand Indonesia Mall, Thamrin","Grand Indonesia Mall, Thamrin, Jakarta",Jakarta,,94,-6.1951314446,106.8198423833,0,0
Pepper Lunch Express,Japanese,3.8,Good,122,IDR,200000,3,"Pondok Indah Mall 1, Pondok Indah","Pondok Indah Mall 1, Pondok Indah, Jakarta",Jakarta,,94,-6.2663460464,106.7851332575,0,0
Flip Burger,Burger,3.8,Good,88,IDR,120000,2,"Pondok Indah Mall 1, Pondok Indah","Pondok Indah Mall 1, Pondok Indah, Jakarta",Jakarta,,94,-6.2665193483,106.7850179225,0,0
Hanako Sushi,Sushi,3.8,Good,80,IDR,200000,3,"Mall of Indonesia, Kelapa Gading","Mall of Indonesia, Kelapa Gading, Jakarta",Jakarta,,94,-6.1507689376,106.8923659623,0,0
Toyofuku,Japanese,3.8,Good,84,IDR,100000,2,"AEON Mall, Serpong","AEON Mall, Serpong, Tangerang",Tangerang,,94,-6.3037932463,106.6441271827,0,0
Negiya Express,Japanese,3.8,Good,59,IDR,200000,3,"PIK Avenue Mall, Pantai Indah Kapuk","PIK Avenue Mall, Pantai Indah Kapuk, Jakarta",Jakarta,,94,-6.1094637580,106.7398974672,0,0
Wingstop,"Fast Food, American",3.8,Good,60,IDR,120000,2,"Plaza Senayan, Senayan","Plaza Senayan, Senayan, Jakarta",Jakarta,,94,-6.2280865805,106.7988185585,0,0
Kenta,Indonesian,3.8,Good,28,IDR,70000,1,"Como Park, Kemang","Como Park, Kemang, Jakarta",Jakarta,,94,-6.2726242042,106.8212475255,0,0
Hashi,"Japanese, Sushi",3.8,Good,70,IDR,90000,2,"Mall Artha Gading, Kelapa Gading","Mall Artha Gading, Kelapa Gading, Jakarta",Jakarta,,94,-6.1449600172,106.8921466917,0,0
Porky Brothers,Asian,3.8,Good,32,IDR,100000,2,"Mall of Indonesia, Kelapa Gading","Mall of Indonesia, Kelapa Gading, Jakarta",Jakarta,,94,-6.1504289245,106.8919723481,0,0
Dogkyo,"Japanese, Fast Food",3.8,Good,38,IDR,100000,2,"PHX Grogol, Grogol","PHX Grogol, Grogol, Jakarta",Jakarta,,94,-6.1659766345,106.7920449749,0,0
Seoul,Korean,3.8,Good,22,IDR,50000,1,"Mall of Indonesia, Kelapa Gading","Mall of Indonesia, Kelapa Gading, Jakarta",Jakarta,,94,-6.1513732937,106.8918664008,0,0
Blenger Burger,"Burger, Fast Food",3.7,Good,210,IDR,60000,1,"D'Hoek, Bintaro","D'Hoek, Bintaro, Jakarta",Jakarta,,94,-6.2719443351,106.7557741329,0,0
Kedai Kita,"Pizza, Indonesian, Western",3.7,Good,99,IDR,170000,3,"Bellanova Country Mall, Sentul","Bellanova Country Mall, Sentul, Bogor",Bogor,,94,-6.5663570000,106.8443420000,0,0
Golden Lamian,"Bakmi, Chinese, Dimsum",3.7,Good,103,IDR,85000,2,"Grand Indonesia Mall, Thamrin","Grand Indonesia Mall, Thamrin, Jakarta",Jakarta,,94,-6.1956537539,106.8203409389,0,0
Yoshinoya,Japanese,3.7,Good,112,IDR,100000,2,"Margo City, Beji","Margo City, Beji, Depok",Depok,,94,-6.3731720000,106.8345010000,0,0
Hot Star,Fast Food,3.7,Good,87,IDR,100000,2,"Grand Indonesia Mall, Thamrin","Grand Indonesia Mall, Thamrin, Jakarta",Jakarta,,94,-6.1954427637,106.8202316389,0,0
YamMie Hotplate,"Bakmi, Asian",3.7,Good,72,IDR,75000,1,"Pondok Indah Mall 2, Pondok Indah","Pondok Indah Mall 2, Pondok Indah, Jakarta",Jakarta,,94,-6.2670565839,106.7830498517,0,0
Shihlin,"Street Food, Taiwanese",3.7,Good,100,IDR,90000,2,"Margo City, Beji","Margo City, Beji, Depok",Depok,,94,-6.3731720000,106.8345010000,0,0
Saint Cinnamon & Coffee,Bakery,3.7,Good,43,IDR,70000,1,"Plaza Senayan, Senayan","Plaza Senayan, Senayan, Jakarta",Jakarta,,94,-6.2259131443,106.7992762104,0,0
Pepper Lunch,Japanese,3.7,Good,58,IDR,200000,3,"Lotte Shopping Avenue, Karet","Lotte Shopping Avenue, Karet, Jakarta",Jakarta,,94,-6.2245296197,106.8237761781,0,0
Dairy Queen,"Ice Cream, Desserts",3.7,Good,114,IDR,80000,2,"Mall Kelapa Gading, Kelapa Gading","Mall Kelapa Gading, Kelapa Gading, Jakarta",Jakarta,,94,-6.1562071176,106.9095455110,0,0
Shihlin,"Street Food, Taiwanese",3.7,Good,70,IDR,90000,2,"Mall Kelapa Gading, Kelapa Gading","Mall Kelapa Gading, Kelapa Gading, Jakarta",Jakarta,,94,-6.1565217930,106.9096360356,0,0
Sate Padang Ajo Ramon,"Satay, Padang",3.7,Good,45,IDR,80000,2,"Pasaraya Grande, Melawai","Pasaraya Grande, Melawai, Jakarta",Jakarta,,94,-6.2448471670,106.8026078492,0,0
Go Mango,"Desserts, Thai",3.7,Good,50,IDR,50000,1,"Mall Ambassador, Kuningan","Mall Ambassador, Kuningan, Jakarta",Jakarta,,94,-6.2239526778,106.8268412724,0,0
Wakacao,"Asian, Indonesian",3.7,Good,46,IDR,100000,2,"Mall Artha Gading, Kelapa Gading","Mall Artha Gading, Kelapa Gading, Jakarta",Jakarta,,94,-6.1456090487,106.8924142420,0,0
Bakso Akiaw 99,"Chinese, Bakso",3.7,Good,43,IDR,120000,2,"Mall Kelapa Gading, Kelapa Gading","Mall Kelapa Gading, Kelapa Gading, Jakarta",Jakarta,,94,-6.1568701358,106.9098804519,0,0
Yoshinoya,Japanese,3.7,Good,51,IDR,100000,2,"Emporium Pluit Mall, Penjaringan","Emporium Pluit Mall, Penjaringan, Jakarta",Jakarta,,94,-6.1273891973,106.7907997593,0,0
Loving Hut,"Healthy Food, Chinese",3.7,Good,35,IDR,100000,2,"Lotte Shopping Avenue, Karet","Lotte Shopping Avenue, Karet, Jakarta",Jakarta,,94,-6.2250069044,106.8236460909,0,0
Martabak Bruno,"Desserts, Street Food",3.7,Good,38,IDR,120000,2,"Warung Gokil, Muara Karang","Warung Gokil, Muara Karang, Jakarta",Jakarta,,94,-6.1164985253,106.7780311033,0,0
Sop Konro Karebosi,"Makassar, Indonesian",3.7,Good,35,IDR,90000,2,"Kota Kasablanka, Tebet","Kota Kasablanka, Tebet, Jakarta",Jakarta,,94,-6.2234747255,106.8432144821,0,0
Carl's Jr.,"Fast Food, Burger",3.7,Good,23,IDR,150000,3,"Plaza Senayan, Senayan","Plaza Senayan, Senayan, Jakarta",Jakarta,,94,-6.2253901984,106.7993922159,0,0
Bebek Kaleyo,Jawa,3.7,Good,19,IDR,100000,2,"PHX Grogol, Grogol","PHX Grogol, Grogol, Jakarta",Jakarta,,94,-6.1661079691,106.7919983715,0,0
Born Ga Express,Korean,3.6,Good,91,IDR,130000,2,"Lippo Mall Puri @ St. Moritz, Puri Indah","Lippo Mall Puri @ St. Moritz, Puri Indah, Jakarta",Jakarta,,94,-6.1903193084,106.7386465520,0,0
Born Ga Express,Korean,3.6,Good,78,IDR,130000,2,"Lotte Shopping Avenue, Karet","Lotte Shopping Avenue, Karet, Jakarta",Jakarta,,94,-6.2245309529,106.8237486854,0,0
Mie Tarik Laiker,"Peranakan, Asian, Bakmi",3.6,Good,107,IDR,120000,2,"Grand Indonesia Mall, Thamrin","Grand Indonesia Mall, Thamrin, Jakarta",Jakarta,,94,-6.1956787528,106.8200888112,0,0
Negiya Express,Japanese,3.6,Good,55,IDR,120000,2,"Grand Indonesia Mall, Thamrin","Grand Indonesia Mall, Thamrin, Jakarta",Jakarta,,94,-6.1953837664,106.8198497593,0,0
YamMie Hotplate,"Asian, Asian, Asian, Chinese, Bakmi",3.6,Good,88,IDR,75000,1,"Mall Kelapa Gading, Kelapa Gading","Mall Kelapa Gading, Kelapa Gading, Jakarta",Jakarta,,94,-6.1561771168,106.9096273184,0,0
Golden Lamian,"Bakmi, Chinese",3.6,Good,84,IDR,140000,2,"Pondok Indah Mall 2, Pondok Indah","Pondok Indah Mall 2, Pondok Indah, Jakarta",Jakarta,,94,-6.2668512880,106.7830434814,0,0
Mie Tarik Laiker,"Peranakan, Asian, Bakmi",3.6,Good,87,IDR,120000,2,"Pondok Indah Mall 1, Pondok Indah","Pondok Indah Mall 1, Pondok Indah, Jakarta",Jakarta,,94,-6.2663413806,106.7851255462,0,0
Dabelyuw,American,3.6,Good,79,IDR,100000,2,"Plaza Semanggi, Sudirman","Plaza Semanggi, Sudirman, Jakarta",Jakarta,,94,-6.2206243343,106.8143026158,0,0
Bakso Raket,Bakso,3.6,Good,69,IDR,50000,1,"Pusat Grosir Cililitan, Cawang","Pusat Grosir Cililitan, Cawang, Jakarta",Jakarta,,94,-6.2622311093,106.8662392348,0,0
A Fung Baso Sapi Asli,Bakso,3.6,Good,49,IDR,80000,2,"Grand Indonesia Mall, Thamrin","Grand Indonesia Mall, Thamrin, Jakarta",Jakarta,,94,-6.1951657764,106.8199399486,0,0
Shihlin,"Street Food, Taiwanese",3.6,Good,68,IDR,90000,2,"Summarecon Mall Bekasi, Bekasi Utara","Summarecon Mall Bekasi, Bekasi Utara, Bekasi",Bekasi,,94,-6.2255000000,107.0015000000,0,0
Yoshinoya,Japanese,3.6,Good,60,IDR,100000,2,"Summarecon Mall Serpong, Serpong Utara","Summarecon Mall Serpong, Serpong Utara, Tangerang",Tangerang,,94,-6.2390959412,106.6288888827,0,0
Nasi Kambing Abah Condet,Betawi,3.6,Good,60,IDR,80000,2,"Kalibata City Square, Kalibata","Kalibata City Square, Kalibata, Jakarta",Jakarta,,94,-6.2572319520,106.8530286849,0,0
Golden Lamian,"Bakmi, Chinese",3.6,Good,48,IDR,140000,2,"Senayan City, Senayan","Senayan City, Senayan, Jakarta",Jakarta,,94,-6.2276099651,106.7979096249,0,0
Sangrai,Indonesian,3.6,Good,28,IDR,85000,2,"Mall of Indonesia, Kelapa Gading","Mall of Indonesia, Kelapa Gading, Jakarta",Jakarta,,94,-6.1507662708,106.8925781921,0,0
Mister Donut,Bakery,3.6,Good,43,IDR,60000,1,"PIK Avenue Mall, Pantai Indah Kapuk","PIK Avenue Mall, Pantai Indah Kapuk, Jakarta",Jakarta,,94,-6.1095771045,106.7398746684,0,0
Raffel's,American,3.6,Good,47,IDR,120000,2,"Pondok Indah Mall 2, Pondok Indah","Pondok Indah Mall 2, Pondok Indah, Jakarta",Jakarta,,94,-6.2666769864,106.7829459161,0,0
Dairy Queen,"Ice Cream, Desserts",3.6,Good,53,IDR,80000,2,"Pondok Indah Mall 1, Pondok Indah","Pondok Indah Mall 1, Pondok Indah, Jakarta",Jakarta,,94,-6.2663807068,106.7848690599,0,0
Shihlin,"Street Food, Taiwanese",3.6,Good,63,IDR,90000,2,"Pondok Indah Mall 2, Pondok Indah","Pondok Indah Mall 2, Pondok Indah, Jakarta",Jakarta,,94,-6.2665963344,106.7831071839,0,0
Sate Pasar Lama,Satay,3.6,Good,36,IDR,80000,2,"Summarecon Mall Serpong, Serpong Utara","Summarecon Mall Serpong, Serpong Utara, Tangerang",Tangerang,,94,-6.2389469604,106.6286344081,0,0
Puyo Silky Desserts,Desserts,3.6,Good,48,IDR,40000,1,"Living World, Serpong Utara","Living World, Serpong Utara, Tangerang",Tangerang,,94,-6.2448325024,106.6526864469,0,0
KFC,Fast Food,3.6,Good,41,IDR,100000,2,"Grand Indonesia Mall, Thamrin","Grand Indonesia Mall, Thamrin, Jakarta",Jakarta,,94,-6.1952697716,106.8197515234,0,0
Pho 24,Vietnamese,3.6,Good,37,IDR,140000,2,"Pondok Indah Mall 1, Pondok Indah","Pondok Indah Mall 1, Pondok Indah, Jakarta",Jakarta,,94,-6.2663953708,106.7847238854,0,0
Shihlin,"Street Food, Taiwanese",3.6,Good,45,IDR,90000,2,"Lotte Shopping Avenue, Karet","Lotte Shopping Avenue, Karet, Jakarta",Jakarta,,94,-6.2245416185,106.8237574026,0,0
Nasi Uduk Pak Jhon,Jawa,3.6,Good,43,IDR,50000,1,"Taman Jajan CBD, Pondok Aren","Taman Jajan CBD, Pondok Aren, Tangerang",Tangerang,,94,-6.2783823927,106.7251667753,0,0
Bakmi GM,"Bakmi, Chinese",3.6,Good,40,IDR,125000,2,"Supermall Karawaci, Cibodas","Supermall Karawaci, Cibodas, Tangerang",Tangerang,,94,-6.2269323707,106.6071707010,0,0
Al Zein Restaurant & Cafe,Middle Eastern,3.6,Good,29,IDR,200000,3,"Senayan City, Senayan","Senayan City, Senayan, Jakarta",Jakarta,,94,-6.2274213186,106.7978720740,0,0
Martabakku Menteng,Street Food,3.6,Good,35,IDR,100000,2,Gambir,"Gambir, Jakarta",Jakarta,,94,-6.1670179768,106.8264929205,0,0
Nasi Goreng Kambing Kebon Sirih,"Betawi, Street Food",3.6,Good,33,IDR,80000,2,"Pasaraya Grande, Melawai","Pasaraya Grande, Melawai, Jakarta",Jakarta,,94,-6.2448471670,106.8026078492,0,0
Doner Kebab,"Kebab, Fast Food",3.6,Good,35,IDR,80000,2,"Grand Indonesia Mall, Thamrin","Grand Indonesia Mall, Thamrin, Jakarta",Jakarta,,94,-6.1955854238,106.8201186508,0,0
Fish & Co.,"Seafood, Italian, Western",3.6,Good,25,IDR,330000,3,"Grand Indonesia Mall, Thamrin","Grand Indonesia Mall, Thamrin, Jakarta",Jakarta,,94,-6.1950361156,106.8199852109,0,0
D' Crepes,Desserts,3.6,Good,22,IDR,50000,1,"Plaza Senayan, Senayan","Plaza Senayan, Senayan, Jakarta",Jakarta,,94,-6.2259101446,106.7992862687,0,0
Nasi Cumi Hitam Madura Pak Kris,Indonesian,3.6,Good,19,IDR,100000,2,"JAWARA Food Court, Kebon Jeruk","JAWARA Food Court, Kebon Jeruk, Jakarta",Jakarta,,94,-6.1986126080,106.7590310052,0,0
Harum Segar,Chinese,3.6,Good,21,IDR,90000,2,"Golden Truly Mall, Gunung Sahari","Golden Truly Mall, Gunung Sahari, Jakarta",Jakarta,,94,-6.1614792390,106.8389236182,0,0
Kkuldak,"Fast Food, Korean",3.6,Good,27,IDR,120000,2,"Lippo Mall Puri @ St. Moritz, Puri Indah","Lippo Mall Puri @ St. Moritz, Puri Indah, Jakarta",Jakarta,,94,-6.1874824041,106.7396973074,0,0
Hot Star,Fast Food,3.5,Good,84,IDR,100000,2,"Pondok Indah Mall 1, Pondok Indah","Pondok Indah Mall 1, Pondok Indah, Jakarta",Jakarta,,94,-6.2662373995,106.7849874124,0,0
Bakmi GM,"Bakmi, Chinese",3.5,Good,89,IDR,125000,2,"Margo City, Beji","Margo City, Beji, Depok",Depok,,94,-6.3731720000,106.8345010000,0,0
Yoshinoya,Japanese,3.5,Good,49,IDR,100000,2,"Plaza Semanggi, Sudirman","Plaza Semanggi, Sudirman, Jakarta",Jakarta,,94,-6.2204646826,106.8144199625,0,0
Ichiban Sushi,"Japanese, Sushi, Ramen",3.5,Good,55,IDR,150000,3,"Pondok Indah Mall 1, Pondok Indah","Pondok Indah Mall 1, Pondok Indah, Jakarta",Jakarta,,94,-6.2664626920,106.7849371210,0,0
Soto Betawi H. Mamat,"Soto, Betawi",3.5,Good,52,IDR,70000,1,"AEON Mall, Serpong","AEON Mall, Serpong, Tangerang",Tangerang,,94,-6.3048129870,106.6438656673,0,0
Mr. Robaba,Street Food,3.5,Good,42,IDR,110000,2,"H.O.P (Hang Out Place), Pluit ","H.O.P (Hang Out Place), Pluit , Jakarta",Jakarta,,94,-6.1107649069,106.7762417346,0,0
Chatime,"Bubble Tea, Beverages",3.5,Good,78,IDR,50000,1,"Margo City, Beji","Margo City, Beji, Depok",Depok,,94,-6.3731720000,106.8345010000,0,0
Tetangga Sebelah,"Beverages, Coffee",3.5,Good,41,IDR,40000,1,Pluit,"Pluit, Jakarta",Jakarta,,94,-6.1183550000,106.7915110000,0,0
K-Kitchen,Korean,3.5,Good,51,IDR,150000,3,"Senayan City, Senayan","Senayan City, Senayan, Jakarta",Jakarta,,94,-6.2276112983,106.7976648733,0,0
Born Ga Express,Korean,3.5,Good,42,IDR,130000,2,"Emporium Pluit Mall, Penjaringan","Emporium Pluit Mall, Penjaringan, Jakarta",Jakarta,,94,-6.1277132238,106.7910317704,0,0
Pepper Lunch,Japanese,3.5,Good,40,IDR,200000,3,"Emporium Pluit Mall, Penjaringan","Emporium Pluit Mall, Penjaringan, Jakarta",Jakarta,,94,-6.1275998812,106.7906995118,0,0
Doner Kebab,"Kebab, Fast Food",3.5,Good,67,IDR,80000,2,"Margo City, Beji","Margo City, Beji, Depok",Depok,,94,-6.3731720000,106.8345010000,0,0
Cold Stone Creamery,"Ice Cream, Desserts",3.5,Good,39,IDR,110000,2,"Plaza Senayan, Senayan","Plaza Senayan, Senayan, Jakarta",Jakarta,,94,-6.2257571605,106.7993174493,0,0
Tamani Express,"Jawa, Indonesian, Western",3.5,Good,41,IDR,200000,3,"Mall Kelapa Gading, Kelapa Gading","Mall Kelapa Gading, Kelapa Gading, Jakarta",Jakarta,,94,-6.1566237958,106.9097429887,0,0
Do An,Vietnamese,3.5,Good,28,IDR,200000,3,"Pondok Indah Mall 1, Pondok Indah","Pondok Indah Mall 1, Pondok Indah, Jakarta",Jakarta,,94,-6.2663513788,106.7851309106,0,0
Pisang Goreng Djakarta,"Desserts, Indonesian",3.8,Good,27,IDR,40000,1,Tanjung Duren,"Tanjung Duren, Jakarta",Jakarta,,94,-6.1739043179,106.7826196924,0,0
Salty Sam,"Asian, Singaporean",3.5,Good,35,IDR,120000,2,"Lippo Mall Puri @ St. Moritz, Puri Indah","Lippo Mall Puri @ St. Moritz, Puri Indah, Jakarta",Jakarta,,94,-6.1902666437,106.7387276888,0,0
D' Crepes,Desserts,3.5,Good,19,IDR,50000,1,"Gandaria City Mall, Gandaria","Gandaria City Mall, Gandaria, Jakarta",Jakarta,,94,-6.2439809543,106.7840305343,0,0
Shihlin,"Street Food, Taiwanese",3.4,Average,38,IDR,90000,2,"Kuningan City, Kuningan","Kuningan City, Kuningan, Jakarta",Jakarta,,94,-6.2248282560,106.8293062225,0,0
Karaagee Oishi,"Japanese, Japanese, Japanese",3.4,Average,21,IDR,60000,1,"fX Sudirman, Sudirman","fX Sudirman, Sudirman, Jakarta",Jakarta,,94,-6.2249292457,106.8040606007,0,0
Wow Banana,"Street Food, Desserts",3.4,Average,15,IDR,40000,1,Sunter,"Sunter, Jakarta",Jakarta,,94,-6.1389193527,106.8663612753,0,0
D' Crepes,Desserts,3.4,Average,21,IDR,50000,1,"Kota Kasablanka, Tebet","Kota Kasablanka, Tebet, Jakarta",Jakarta,,94,-6.2232307497,106.8425486237,0,0
Tetsin Mochi Mochio,Desserts,3.4,Average,16,IDR,30000,1,"Mall Kelapa Gading, Kelapa Gading","Mall Kelapa Gading, Kelapa Gading, Jakarta",Jakarta,,94,-6.1567551327,106.9087616354,0,0
Crepe Signature,Desserts,3.4,Average,12,IDR,40000,1,"Living World, Serpong Utara","Living World, Serpong Utara, Tangerang",Tangerang,,94,-6.2443915640,106.6538334265,0,0
Master Squid,Street Food,3.3,Average,28,IDR,80000,2,"Mall Kelapa Gading, Kelapa Gading","Mall Kelapa Gading, Kelapa Gading, Jakarta",Jakarta,,94,-6.1576238221,106.9092581794,0,0
Shihlin,"Street Food, Taiwanese",3.3,Average,15,IDR,90000,2,Palmerah,"Palmerah, Jakarta",Jakarta,,94,-6.2009671467,106.7847004160,0,0
Shihlin,"Street Food, Taiwanese",3.3,Average,14,IDR,90000,2,"AEON Mall, Serpong","AEON Mall, Serpong, Tangerang",Tangerang,,94,-6.3049436203,106.6433466598,0,0
Mochi Mochi,Desserts,3.3,Average,8,IDR,30000,1,"Pluit Village, Pluit","Pluit Village, Pluit, Jakarta",Jakarta,,94,-6.1167632191,106.7896849662,0,0
Momoiro,Bakery,3.2,Average,17,IDR,80000,2,"Pondok Indah Mall 2, Pondok Indah","Pondok Indah Mall 2, Pondok Indah, Jakarta",Jakarta,,94,-6.2653029011,106.7834518477,0,0
D' Crepes,Desserts,3.2,Average,14,IDR,50000,1,"Mall Taman Anggrek, Tanjung Duren","Mall Taman Anggrek, Tanjung Duren, Jakarta",Jakarta,,94,-6.1790605984,106.7923232541,0,0
Waroeng Teh Kotjok,"Beverages, Tea",3.2,Average,12,IDR,30000,1,"Plaza Semanggi, Sudirman","Plaza Semanggi, Sudirman, Jakarta",Jakarta,,94,-6.2205480081,106.8142586947,0,0
Taucy,"Street Food, Snacks",3.2,Average,10,IDR,50000,1,"Harmonie Exchange, Hayam Wuruk","Harmonie Exchange, Hayam Wuruk, Jakarta",Jakarta,,94,-6.1644039504,106.8206078187,0,0
Mochi Mochi,Desserts,3.2,Average,10,IDR,30000,1,"Pondok Indah Mall 2, Pondok Indah","Pondok Indah Mall 2, Pondok Indah, Jakarta",Jakarta,,94,-6.2660224383,106.7846632004,0,0
Shihlin,"Street Food, Taiwanese",3.2,Average,8,IDR,90000,2,"PIK Avenue Mall, Pantai Indah Kapuk","PIK Avenue Mall, Pantai Indah Kapuk, Jakarta",Jakarta,,94,-6.1091823921,106.7400929332,0,0
Chix Chix,Fast Food,3.2,Average,9,IDR,100000,2,"Kalibata City Square, Kalibata","Kalibata City Square, Kalibata, Jakarta",Jakarta,,94,-6.2567483643,106.8519893289,0,0
Mochi Mochi,Desserts,3.2,Average,11,IDR,30000,1,"Mall Matahari, Daan Mogot","Mall Matahari, Daan Mogot, Jakarta",Jakarta,11840,94,-6.1513279587,106.7143950239,0,0
D' Crepes,Desserts,3.1,Average,14,IDR,50000,1,"Mall Ciputra, Cibubur","Mall Ciputra, Cibubur, Jakarta",Jakarta,,94,-6.3826245989,106.9258922339,0,0
Mochi Mochi,Desserts,3.1,Average,14,IDR,30000,1,"Central Park, Tanjung Duren","Central Park, Tanjung Duren, Jakarta",Jakarta,,94,-6.1761046348,106.7909908667,0,0
Marmelo Ice Cream,Ice Cream,3.1,Average,8,IDR,40000,1,"Botani Square, Bogor Tengah","Botani Square, Bogor Tengah, Bogor",Bogor,,94,-6.6018333333,106.8073333333,0,0
Bagoja,Street Food,3.1,Average,12,IDR,30000,1,"AEON Mall, Cakung","AEON Mall, Cakung, Jakarta",Jakarta,,94,-6.1725643234,106.9522221386,0,0
Royale Mango,"Beverages, Desserts",3.1,Average,5,IDR,80000,2,"Mall Ciputra, Cibubur","Mall Ciputra, Cibubur, Jakarta",Jakarta,,94,-6.3826599179,106.9259874523,0,0
Mochi Mochi,Desserts,3.1,Average,11,IDR,30000,1,"Supermall Karawaci, Cibodas","Supermall Karawaci, Cibodas, Tangerang",Tangerang,,94,-6.2273713240,106.6068464890,0,0
Takoyaki,Japanese,3.1,Average,12,IDR,50000,1,"Bintaro Plaza, Bintaro","Bintaro Plaza, Bintaro, Jakarta",Jakarta,,94,-6.2726708618,106.7418346927,0,0
Miss B Kitchen,Street Food,3.1,Average,6,IDR,50000,1,"Bay Walk Mall, Pluit","Bay Walk Mall, Pluit, Jakarta",Jakarta,,94,-6.1093124072,106.7787157372,0,0
Ramen & Gyoza,Japanese,3.1,Average,7,IDR,80000,2,"AEON Mall, Cakung","AEON Mall, Cakung, Jakarta",Jakarta,,94,-6.1723446573,106.9517473877,0,0
Pocoyo Waffle,"Desserts, Ice Cream",3.1,Average,8,IDR,100000,2,"Plaza Semanggi, Sudirman","Plaza Semanggi, Sudirman, Jakarta",Jakarta,,94,-6.2205276767,106.8143039569,0,0
Mochi Mochi,Desserts,3.1,Average,6,IDR,30000,1,"Mall Artha Gading, Kelapa Gading","Mall Artha Gading, Kelapa Gading, Jakarta",Jakarta,,94,-6.1463690845,106.8919173628,0,0
Takoyaki,Japanese,3.1,Average,6,IDR,30000,1,"Lippo Mall Kramat Jati, Kramat Jati","Lippo Mall Kramat Jati, Kramat Jati, Jakarta",Jakarta,,94,-6.2709481921,106.8689620122,0,0
HotDog Booth,Fast Food,3.1,Average,8,IDR,50000,1,"Botani Square, Bogor Tengah","Botani Square, Bogor Tengah, Bogor",Bogor,,94,-6.6015000000,106.8075000000,0,0
Muchas Gracias,Mexican,3.1,Average,4,IDR,100000,2,"Mall of Indonesia, Kelapa Gading","Mall of Indonesia, Kelapa Gading, Jakarta",Jakarta,,94,-6.1509512779,106.8919565901,0,0
Mochi Mochi,Desserts,3.1,Average,6,IDR,30000,1,"Plaza Semanggi, Sudirman","Plaza Semanggi, Sudirman, Jakarta",Jakarta,,94,-6.2204306858,106.8143884465,0,0
Verina Risoles,Street Food,3.1,Average,4,IDR,20000,1,"Plaza Semanggi, Sudirman","Plaza Semanggi, Sudirman, Jakarta",Jakarta,,94,-6.2205716726,106.8142459542,0,0
Pizza Hut,"Pizza, Italian",3.0,Average,18,IDR,200000,3,"Metropolitan Mall, Bekasi Selatan","Metropolitan Mall, Bekasi Selatan, Bekasi",Bekasi,,94,-6.2483333333,106.9901666667,0,0
D' Crepes,Desserts,3.0,Average,22,IDR,50000,1,"Bintaro Plaza, Bintaro","Bintaro Plaza, Bintaro, Jakarta",Jakarta,,94,-6.2728005034,106.7418745905,0,0
Shihlin,"Street Food, Taiwanese, Street Food, Taiwanese",3.0,Average,11,IDR,90000,2,"Plaza Atrium, Senen","Plaza Atrium, Senen, Jakarta",Jakarta,,94,-6.1760869683,106.8410382047,0,0
D' Crepes,Desserts,3.0,Average,5,IDR,50000,1,Lebak Bulus,"Lebak Bulus, Jakarta",Jakarta,,94,-6.2880366639,106.7764378712,0,0
Japanese Fried Food,Japanese,3.0,Average,8,IDR,50000,1,"AEON Mall, Serpong","AEON Mall, Serpong, Tangerang",Tangerang,,94,-6.3050629232,106.6430445761,0,0
RK Express,Fast Food,3.0,Average,5,IDR,70000,1,"Lippo Plaza Ekalokasari Bogor, Bogor Timur","Lippo Plaza Ekalokasari Bogor, Bogor Timur, Bogor",Bogor,,94,-6.6218444882,106.8175514415,0,0
Mochi Mochi,Desserts,3.0,Average,7,IDR,30000,1,"Gandaria City Mall, Gandaria","Gandaria City Mall, Gandaria, Jakarta",Jakarta,,94,-6.2443665675,106.7833009735,0,0
Cireng Keraton,"Street Food, Sunda",3.0,Average,8,IDR,20000,1,"Cibinong City Mall, Bogor Utara","Cibinong City Mall, Bogor Utara, Bogor",Bogor,,94,-6.4845222222,106.8422000000,0,0
Waroeng Teh Kotjok,"Beverages, Tea",3.0,Average,10,IDR,30000,1,"Lippo Mall Puri @ St. Moritz, Puri Indah","Lippo Mall Puri @ St. Moritz, Puri Indah, Jakarta",Jakarta,,94,-6.1902679769,106.7387119308,0,0
Wow Banana,"Street Food, Desserts",3.0,Average,5,IDR,40000,1,"Mall of Indonesia, Kelapa Gading","Mall of Indonesia, Kelapa Gading, Jakarta",Jakarta,,94,-6.1504742596,106.8919683248,0,0
Siomay Sewan,Indonesian,3.0,Average,6,IDR,70000,1,"Mall of Indonesia, Kelapa Gading","Mall of Indonesia, Kelapa Gading, Jakarta",Jakarta,,94,-6.1503509214,106.8918050453,0,0
Mochi Mochi,Desserts,3.0,Average,4,IDR,30000,1,"Mall Artha Gading, Kelapa Gading","Mall Artha Gading, Kelapa Gading, Jakarta",Jakarta,,94,-6.1452416976,106.8925315887,0,0
Mochi Mochi,Desserts,3.0,Average,6,IDR,30000,1,"fX Sudirman, Sudirman","fX Sudirman, Sudirman, Jakarta",Jakarta,,94,-6.2250465670,106.8039891869,0,0
D' Crepes,Desserts,3.0,Average,7,IDR,50000,1,"Botani Square, Bogor Tengah","Botani Square, Bogor Tengah, Bogor",Bogor,,94,-6.6015000000,106.8073333333,0,0
Hana Kiosk,"Snacks, Coffee, Tea",3.0,Average,8,IDR,80000,2,Slipi,"Slipi, Jakarta",Jakarta,,94,-6.1792245959,106.7981982976,0,0
Ponut Donat Kentang,Desserts,3.0,Average,4,IDR,40000,1,"Kemang Village, Kemang","Kemang Village, Kemang, Jakarta",Jakarta,,94,-6.2606187197,106.8125249818,0,0
Ms. D'Churros,"Desserts, Spanish",3.0,Average,4,IDR,60000,1,"One Bel Park, Fatmawati","One Bel Park, Fatmawati, Jakarta",Jakarta,,94,-6.3041661517,106.7949112505,0,0
Okirobox,Japanese,3.0,Average,4,IDR,110000,2,"Lulu Hypermarket & Department Store,  Cakung","Lulu Hypermarket & Department Store,  Cakung, Jakarta",Jakarta,,94,-6.1872930766,106.9486279786,0,0
Mochi Mochi,Desserts,3.0,Average,4,IDR,30000,1,"Mall Ambassador, Kuningan","Mall Ambassador, Kuningan, Jakarta",Jakarta,,94,-6.2237880277,106.8263521045,0,0
Pizza Go,Pizza,3.0,Average,4,IDR,50000,1,Tomang,"Tomang, Jakarta",Jakarta,,94,-6.1693490000,106.7914470000,0,0
Cireng Keraton,"Street Food, Sunda",2.9,Average,21,IDR,20000,1,"Mall Ciputra, Grogol","Mall Ciputra, Grogol, Jakarta",Jakarta,,94,-6.1685076527,106.7864639685,0,0
Mochi Mochi,Desserts,2.9,Average,13,IDR,30000,1,"Kota Kasablanka, Tebet","Kota Kasablanka, Tebet, Jakarta",Jakarta,,94,-6.2232067521,106.8425177783,0,0
Handsome Warung Kopi,"Street Food, Coffee",2.9,Average,4,IDR,100000,2,Bogor Tengah,"Bogor Tengah, Bogor",Bogor,,94,-6.5868400000,106.8049320000,0,0
Mochi Mochi,Desserts,2.9,Average,5,IDR,30000,1,"Summarecon Mall Serpong, Serpong Utara","Summarecon Mall Serpong, Serpong Utara, Tangerang",Tangerang,,94,-6.2389802894,106.6287906468,0,0
Mochi Mochi,Desserts,2.9,Average,5,IDR,30000,1,"Plaza Blok M, Blok M","Plaza Blok M, Blok M, Jakarta",Jakarta,,94,-6.2446175325,106.7977765203,0,0
Pisang Goreng Djakarta,"Desserts, Indonesian",2.9,Average,6,IDR,40000,1,Tebet,"Tebet, Jakarta",Jakarta,,94,-6.2279275976,106.8550617993,0,0
Frozen Ben,"Ice Cream, Desserts",2.9,Average,5,IDR,40000,1,Sentul,"Sentul, Bogor",Bogor,,94,-6.5726010000,106.8946820000,0,0
Fresco,Bakery,2.9,Average,7,IDR,15000,1,"Depok Town Square, Beji","Depok Town Square, Beji, Depok",Depok,,94,-6.3720000000,106.8316666667,0,0
Mochi Mochi,Desserts,2.9,Average,5,IDR,30000,1,"Kuningan City, Kuningan","Kuningan City, Kuningan, Jakarta",Jakarta,,94,-6.2248879166,106.8295355514,0,0
Mochi Mochi,Desserts,2.9,Average,8,IDR,30000,1,"Pejaten Village, Pasar Minggu","Pejaten Village, Pasar Minggu, Jakarta",Jakarta,,94,-6.2805749401,106.8285417929,0,0
Ichigo Crepes,Desserts,2.9,Average,5,IDR,40000,1,"Metropolitan Mall, Bekasi Selatan","Metropolitan Mall, Bekasi Selatan, Bekasi",Bekasi,,94,-6.2481666667,106.9900000000,0,0
Donut Berry,Desserts,2.9,Average,4,IDR,70000,1,"Bekasi Junction, Bekasi Timur","Bekasi Junction, Bekasi Timur, Bekasi",Bekasi,,94,-6.2411972222,107.0032805556,0,0
Potato Corner,Fast Food,2.9,Average,4,IDR,50000,1,"Mall Artha Gading, Kelapa Gading","Mall Artha Gading, Kelapa Gading, Jakarta",Jakarta,,94,-6.1457907240,106.8924641982,0,0
HotDog Booth,Fast Food,2.9,Average,0,IDR,50000,1,"Mall Pekayon, Bekasi Selatan","Mall Pekayon, Bekasi Selatan, Bekasi",Bekasi,,94,-6.2645000000,106.9866666667,0,0
Ayam Imigran,Indonesian,2.8,Average,9,IDR,50000,1,Senopati,"Senopati, Jakarta",Jakarta,,94,-6.2358676814,106.8149258941,0,0
Master Bento,Japanese,2.8,Average,5,IDR,60000,1,Cipondoh,"Cipondoh, Tangerang",Tangerang,,94,-6.1838945033,106.7012354359,0,0
Yaya Giant Squid,Street Food,2.8,Average,4,IDR,70000,1,"Botani Square, Bogor Tengah","Botani Square, Bogor Tengah, Bogor",Bogor,,94,-6.6015992709,106.8072403595,0,0
Buns n Fizz,Street Food,2.8,Average,4,IDR,50000,1,"Ruko Pasar Modern Paramount, Serpong","Ruko Pasar Modern Paramount, Serpong, Tangerang",Tangerang,,94,-6.2472310000,106.6218180000,0,0
Kebab Express TKP,"Street Food, Turkish",2.8,Average,6,IDR,60000,1,"Season City, Tambora","Season City, Tambora, Jakarta",Jakarta,,94,-6.1540137184,106.7959395424,0,0
Ichiban Crepes,Desserts,2.8,Average,4,IDR,45000,1,"Bekasi Cyber Park, Bekasi Selatan","Bekasi Cyber Park, Bekasi Selatan, Bekasi",Bekasi,,94,-6.2466666667,106.9920000000,0,0
Hejo Hejo Kitchen,Indonesian,2.8,Average,4,IDR,100000,2,"Gandaria City Mall, Gandaria","Gandaria City Mall, Gandaria, Jakarta",Jakarta,,94,-6.2440562772,106.7840583623,0,0
Mochi Mochio,Desserts,2.8,Average,4,IDR,30000,1,"Mall Ciputra, Grogol","Mall Ciputra, Grogol, Jakarta",Jakarta,,94,-6.1684683192,106.7864599451,0,0
Ichiban Crepes,Desserts,2.8,Average,4,IDR,45000,1,"Supermall Karawaci, Cibodas","Supermall Karawaci, Cibodas, Tangerang",Tangerang,,94,-6.2263810000,106.6073720000,0,0
Mochi Mochi,Desserts,2.8,Average,4,IDR,30000,1,"Kalibata City Square, Kalibata","Kalibata City Square, Kalibata, Jakarta",Jakarta,,94,-6.2571579641,106.8530025333,0,0
Ramen n' Sushi Box,Japanese,2.7,Average,12,IDR,80000,2,"Lippo Mall Kramat Jati, Kramat Jati","Lippo Mall Kramat Jati, Kramat Jati, Jakarta",Jakarta,,94,-6.2709528578,106.8688664585,0,0
Bites Crispy Chicken,Asian,2.7,Average,6,IDR,80000,2,"Plaza Semanggi, Sudirman","Plaza Semanggi, Sudirman, Jakarta",Jakarta,,94,-6.2203990221,106.8142989278,0,0
Coco Tree,Beverages,2.7,Average,4,IDR,70000,1,"Mall of Indonesia, Kelapa Gading","Mall of Indonesia, Kelapa Gading, Jakarta",Jakarta,,94,-6.1511156174,106.8918037042,0,0
Ichiban Crepes,Desserts,2.7,Average,4,IDR,45000,1,"Mall Artha Gading, Kelapa Gading","Mall Artha Gading, Kelapa Gading, Jakarta",Jakarta,,94,-6.1459240637,106.8925785273,0,0
Daily Fresh,"Street Food, Desserts",2.7,Average,6,IDR,30000,1,"Central Park, Tanjung Duren","Central Park, Tanjung Duren, Jakarta",Jakarta,,94,-6.1765936299,106.7897127941,0,0
Koki Jenggot,Desserts,2.7,Average,4,IDR,60000,1,Kramat Jati,"Kramat Jati, Jakarta",Jakarta,,94,-6.2844897757,106.8553749472,0,0
Mochi Mochi,Desserts,2.7,Average,4,IDR,30000,1,"TerasKota, Serpong","TerasKota, Serpong, Tangerang",Tangerang,,94,-6.2957235604,106.6679884493,0,0
I Love Crepes,Desserts,2.7,Average,4,IDR,50000,1,"Lippo Mall Kramat Jati, Kramat Jati","Lippo Mall Kramat Jati, Kramat Jati, Jakarta",Jakarta,,94,-6.2708795384,106.8688862398,0,0
Choux Cream,Desserts,2.6,Average,8,IDR,40000,1,"Gajah Mada Plaza, Gambir","Gajah Mada Plaza, Gambir, Jakarta",Jakarta,,94,-6.1609032283,106.8183386698,0,0
Cincau Master,"Beverages, Indonesian",2.6,Average,7,IDR,60000,1,"AEON Mall, Cakung","AEON Mall, Cakung, Jakarta",Jakarta,,94,-6.1723186574,106.9527086243,0,0
Mochi Mochi,Desserts,2.6,Average,8,IDR,30000,1,"Gajah Mada Plaza, Gambir","Gajah Mada Plaza, Gambir, Jakarta",Jakarta,,94,-6.1608798945,106.8180835247,0,0
Kebab Turki Baba Rafi,Kebab,2.6,Average,9,IDR,60000,1,Tebet,"Tebet, Jakarta",Jakarta,,94,-6.2281339087,106.8549447879,0,0
Sour Sally,Desserts,2.6,Average,4,IDR,100000,2,"Mall Ciputra, Grogol","Mall Ciputra, Grogol, Jakarta",Jakarta,,94,-6.1682049845,106.7864069715,0,0
Ichiban Crepes,Desserts,2.6,Average,4,IDR,45000,1,"D'Mall, Beji","D'Mall, Beji, Depok",Depok,,94,-6.3868370000,106.8265420000,0,0
Pastel Ma' Cik,"Street Food, Indonesian",2.5,Average,7,IDR,40000,1,"Mall Artha Gading, Kelapa Gading","Mall Artha Gading, Kelapa Gading, Jakarta",Jakarta,,94,-6.1466397637,106.8919498846,0,0
Ichiban Crepes,Desserts,2.5,Average,11,IDR,45000,1,"Depok Town Square, Beji","Depok Town Square, Beji, Depok",Depok,,94,-6.3723333333,106.8321666667,0,0
Snack,Snacks,0,Not rated,2,IDR,60000,1,"AEON Mall, Cakung","AEON Mall, Cakung, Jakarta",Jakarta,,94,-6.1723763239,106.9516897202,0,0
Taucy,"Street Food, Snacks",0,Not rated,3,IDR,50000,1,"TerasKota, Serpong","TerasKota, Serpong, Tangerang",Tangerang,,94,-6.2957992090,106.6672763228,0,0
Daily Fresh,"Street Food, Desserts",0,Not rated,3,IDR,30000,1,"Summarecon Mall Serpong, Serpong Utara","Summarecon Mall Serpong, Serpong Utara, Tangerang",Tangerang,,94,-6.2396510000,106.6286550000,0,0
BECCA'S Bakehouse,Bakery,4.7,Excellent,201,IDR,60000,1,Muara Karang,"Muara Karang, Jakarta",Jakarta,,94,-6.1177236495,106.7750582099,0,0
Francis Artisan Bakery,Bakery,4.6,Excellent,332,IDR,70000,1,"Grand Indonesia Mall, Thamrin","Grand Indonesia Mall, Thamrin, Jakarta",Jakarta,,94,-6.1959310743,106.8217226118,0,0
Châteraisé,Bakery,4.4,Very Good,149,IDR,60000,1,"Senayan City, Senayan","Senayan City, Senayan, Jakarta",Jakarta,,94,-6.2268743768,106.7977446690,0,0
AMKC Atelier,"Western, Bakery, Desserts",4.3,Very Good,346,IDR,600000,4,"Plaza Indonesia, Thamrin","Plaza Indonesia, Thamrin, Jakarta",Jakarta,,94,-6.1925115574,106.8221309781,0,0
Kempi Deli,"Bakery, Desserts, Western, Coffee, Tea",4.3,Very Good,242,IDR,300000,3,"Grand Indonesia Mall, Thamrin","Grand Indonesia Mall, Thamrin, Jakarta",Jakarta,,94,-6.1966787052,106.8225242570,0,0
Ezo Cheesecakes & Bakery,"Bakery, Desserts, Japanese",4.3,Very Good,241,IDR,100000,2,"Mall Taman Anggrek, Tanjung Duren","Mall Taman Anggrek, Tanjung Duren, Jakarta",Jakarta,,94,-6.1784802735,106.7923520878,0,0
Francis Artisan Bakery,Bakery,4.3,Very Good,92,IDR,70000,1,"Mall Taman Anggrek, Tanjung Duren","Mall Taman Anggrek, Tanjung Duren, Jakarta",Jakarta,,94,-6.1784069412,106.7926478013,0,0
Bakerzin,"Western, Italian, Bakery",4.2,Very Good,275,IDR,250000,3,"Kota Kasablanka, Tebet","Kota Kasablanka, Tebet, Jakarta",Jakarta,,94,-6.2233707359,106.8424068019,0,0
