name,cuisines,aggregate_rating,rating_text,votes,currency,average_cost_for_two,price_range,locality,locality_verbose,city,zipcode,country_id,latitude,longitude,has_online_delivery,has_table_booking
Spiral - Sofitel Philippine Plaza Manila,"European, Asian, Indian",4.9,Excellent,952,P,6000,4,"Sofitel Philippine Plaza Manila, CCP Complex, Pasay City","Sofitel Philippine Plaza Manila, CCP Complex, Pasay City, Pasay City",Pasay City,,162,14.5545476103,120.9808790311,0,0
Café Ilang Ilang - Manila Hotel,"International, Asian, Mediterranean, European",4.7,Excellent,285,P,2600,4,"Manila Hotel, Ermita, Manila","Manila Hotel, Ermita, Manila, Manila",Manila,0913,162,14.5828637707,120.9748695418,0,0
NIU by Vikings,"Seafood, American, Mediterranean, Japanese",4.6,Excellent,894,P,3000,4,"SM Aura Premier, Bonifacio Global City, Taguig City","SM Aura Premier, Bonifacio Global City, Taguig City, Taguig City",Taguig City,,162,14.5462362560,121.0543645173,0,0
Antonio's,"French, Mediterranean, American, Italian",4.6,Excellent,223,P,4500,4,Tagaytay City,"Tagaytay City, Tagaytay City",Tagaytay City,,162,14.1003674310,120.8935184777,0,0
Blackbird,"European, Asian",4.5,Excellent,290,P,3100,4,"Ayala Triangle Gardens, Salcedo Village, Makati City","Ayala Triangle Gardens, Salcedo Village, Makati City, Makati City",Makati City,,162,14.5559080000,121.0245090000,0,0
Finestra Italian Steakhouse,Italian,4.5,Excellent,97,P,3900,4,"Solaire Resort & Casino, Entertainment City, Parañaque City","Solaire Resort & Casino, Entertainment City, Parañaque City, Parañaque City",Parañaque City,,162,14.5225810486,120.9802668169,0,1
Fresh - Solaire Resort & Casino,"Italian, Asian, Seafood",4.5,Excellent,186,P,4000,4,"Solaire Resort & Casino, Entertainment City, Parañaque City","Solaire Resort & Casino, Entertainment City, Parañaque City, Parañaque City",Parañaque City,,162,14.5230107705,120.9803083912,0,1
22 Prime - Discovery Suites,"American, Steak",4.5,Excellent,95,P,3600,4,"Discovery Suites, Ortigas, Pasig City","Discovery Suites, Ortigas, Pasig City, Pasig City",Pasig City,,162,14.5857827288,121.0603220388,0,1
Benjarong - Dusit Thani Manila,"Thai, Salad",4.5,Excellent,76,P,2500,4,"Dusit Thani Manila, San Lorenzo, Makati City","Dusit Thani Manila, San Lorenzo, Makati City, Makati City",Makati City,,162,14.5487724351,121.0260031745,0,0
Ninyo Fusion Cuisine & Wine Lounge,"Asian, Japanese, French, Fusion",4.4,Very Good,275,P,3500,4,Loyola Heights,"Loyola Heights, Quezon City",Quezon City,,162,14.6385408586,121.0732915252,0,0
Marriott Cafe - Manila Marriott Hotel,"Asian, European, American",4.4,Very Good,139,P,2000,4,"Manila Marriott Hotel, Newport City, Pasay City","Manila Marriott Hotel, Newport City, Pasay City, Pasay City",Pasay City,1309,162,14.5208333333,121.0188333333,0,1
Wolfgang's Steakhouse by Wolfgang Zwiener,Steak,4.3,Very Good,58,P,5100,4,"The Podium, Ortigas, Mandaluyong City","The Podium, Ortigas, Mandaluyong City, Mandaluyong City",Mandaluyong City,,162,14.5841275974,121.0594878718,0,1
Food Exchange Manila - Novotel Manila Araneta Center,International,4.3,Very Good,138,P,3200,4,"Novotel Manila, Araneta Center, Quezon City","Novotel Manila, Araneta Center, Quezon City, Quezon City",Quezon City,0810,162,14.6198936404,121.0542297363,0,0
Champagne Room - Manila Hotel,French,4.3,Very Good,81,P,2500,4,"Manila Hotel, Ermita, Manila","Manila Hotel, Ermita, Manila, Manila",Manila,0913,162,14.5827842743,120.9746506065,0,0
Nobu Manila,Japanese,4.3,Very Good,149,P,2000,4,"City of Dreams Manila, Entertainment City, Parañaque City","City of Dreams Manila, Entertainment City, Parañaque City, Parañaque City",Parañaque City,,162,14.5242132734,120.9929449484,0,1
Crystal Dragon,Chinese,4.3,Very Good,50,P,1900,4,"City of Dreams Manila, Entertainment City, Parañaque City","City of Dreams Manila, Entertainment City, Parañaque City, Parañaque City",Parañaque City,,162,14.5235420796,120.9934669733,0,1
Phoenix Court - The Bellevue Manila,"Chinese, Asian",4.3,Very Good,67,P,1600,4,"The Bellevue Manila, Filinvest City, Muntinlupa City","The Bellevue Manila, Filinvest City, Muntinlupa City, Muntinlupa City",Muntinlupa City,,162,14.4239287448,121.0395862162,0,0
Prego Ristorante and Bar,Italian,4.3,Very Good,67,P,2400,4,"City of Dreams Manila, Entertainment City, Parañaque City","City of Dreams Manila, Entertainment City, Parañaque City, Parañaque City",Parañaque City,1701,162,14.5235651235,120.9925077483,0,0
Heat - Edsa Shangri-La,"Seafood, Asian, Filipino, Indian, Italian, Japanese, American",4.2,Very Good,386,P,4000,4,"Edsa Shangri-La, Ortigas, Mandaluyong City","Edsa Shangri-La, Ortigas, Mandaluyong City, Mandaluyong City",Mandaluyong City,,162,14.5815314721,121.0570634902,0,0
The Nest: Dining in the Sky - Vivere Hotel,"Asian, International",4.2,Very Good,259,P,2500,4,Filinvest City,"Filinvest City, Muntinlupa City",Muntinlupa City,,162,14.4200581923,121.0394363478,0,0
Red Lantern - Solaire Resort & Casino,Chinese,4.2,Very Good,155,P,3000,4,"Solaire Resort & Casino, Entertainment City, Parañaque City","Solaire Resort & Casino, Entertainment City, Parañaque City, Parañaque City",Parañaque City,,162,14.5224534951,120.9805102274,0,1
Cowrie Grill,"Steak, European",4.2,Very Good,83,P,2600,4,"Promenade, Greenhills Shopping Centre, Greenhills, San Juan City","Promenade, Greenhills Shopping Centre, Greenhills, San Juan City, San Juan City",San Juan City,,162,14.6029498064,121.0523421317,0,0
Summer Palace - Edsa Shangri-La,Chinese,4.2,Very Good,87,P,3000,4,"Edsa Shangri-La, Ortigas, Mandaluyong City","Edsa Shangri-La, Ortigas, Mandaluyong City, Mandaluyong City",Mandaluyong City,,162,14.5815772234,121.0570923239,0,0
Lung Hin - Marco Polo Ortigas Manila,Chinese,4.2,Very Good,80,P,2500,4,"Marco Polo Ortigas Manila, Ortigas, Pasig City","Marco Polo Ortigas Manila, Ortigas, Pasig City, Pasig City",Pasig City,1600,162,14.5875319437,121.0634434596,0,0
Ruby Jack's Steakhouse & Bar,"Steak, Grill, International",4.2,Very Good,51,P,2000,4,"City of Dreams Manila, Entertainment City, Parañaque City","City of Dreams Manila, Entertainment City, Parañaque City, Parañaque City",Parañaque City,,162,14.5232477014,120.9925634041,0,0
Cafe Eight - Crimson Hotel,"European, Middle Eastern, Mediterranean",4.1,Very Good,76,P,2200,4,"Crimson Hotel, Filinvest City, Muntinlupa City","Crimson Hotel, Filinvest City, Muntinlupa City, Muntinlupa City",Muntinlupa City,,162,14.4200432555,121.0424645618,0,1
The Café - Hyatt City of Dreams,"Italian, Asian, Seafood, Bakery",4.1,Very Good,157,P,3600,4,"City of Dreams Manila, Entertainment City, Parañaque City","City of Dreams Manila, Entertainment City, Parañaque City, Parañaque City",Parañaque City,,162,14.5227910412,120.9926777333,0,0
Spectrum - Fairmont Hotel,"Asian, Middle Eastern",4.1,Very Good,151,P,3500,4,"Fairmont Hotel, San Lorenzo, Makati City","Fairmont Hotel, San Lorenzo, Makati City, Makati City",Makati City,,162,14.5506884237,121.0228146985,0,0
Seven Corners Restaurant - Crowne Plaza Manila Galleria,"Asian, Japanese, Indian, European",4.1,Very Good,163,P,2500,4,"Crowne Plaza Manila Galleria, Ortigas, Quezon City","Crowne Plaza Manila Galleria, Ortigas, Quezon City, Quezon City",Quezon City,,162,14.5909430511,121.0612966865,0,0
Cafe 1228 - New World Makati Hotel,"Filipino, Asian, European, American",4.1,Very Good,93,P,2500,4,"New World Makati Hotel, San Lorenzo, Makati City","New World Makati Hotel, San Lorenzo, Makati City, Makati City",Makati City,,162,14.5509516112,121.0217277333,0,0
Casa Roces,"Filipino, Spanish",4.1,Very Good,144,P,2000,4,San Miguel,"San Miguel, Manila",Manila,,162,14.5933453630,120.9930230677,0,1
Ilustrado Restaurant,"Spanish, Filipino",4.1,Very Good,117,P,1800,4,Intramuros,"Intramuros, Manila",Manila,,162,14.5877045607,120.9774515033,0,0
Yakumi - Solaire Resort & Casino,"Japanese, Sushi",4.1,Very Good,91,P,5000,4,"Solaire Resort & Casino, Entertainment City, Parañaque City","Solaire Resort & Casino, Entertainment City, Parañaque City, Parañaque City",Parañaque City,,162,14.5233772019,120.9801987559,0,1
Cucina - Marco Polo Ortigas Manila,"Italian, Filipino, Japanese, Indian, Chinese",4.1,Very Good,105,P,4000,4,"Marco Polo Ortigas Manila, Ortigas, Pasig City","Marco Polo Ortigas Manila, Ortigas, Pasig City, Pasig City",Pasig City,,162,14.5875046883,121.0634186491,0,0
CRU Steakhouse - Manila Marriott Hotel,"Steak, Italian, American",4.1,Very Good,98,P,4000,4,"Manila Marriott Hotel, Newport City, Pasay City","Manila Marriott Hotel, Newport City, Pasay City, Pasay City",Pasay City,1309,162,14.5206666667,121.0186666667,0,1
L'Opera Ristorante Italiano,Italian,4.1,Very Good,92,P,3000,4,"The Fort Strip, Bonifacio Global City, Taguig City","The Fort Strip, Bonifacio Global City, Taguig City, Taguig City",Taguig City,,162,14.5492560000,121.0479950000,0,0
Wolfgang's Steakhouse by Wolfgang Zwiener,Steak,4.1,Very Good,75,P,5100,4,"Resorts World Manila, Newport City, Pasay City","Resorts World Manila, Newport City, Pasay City, Pasay City",Pasay City,,162,14.5186160000,121.0197470000,0,1
Gloria Maris Shark's Fin Restaurant - Fine Dining,"Chinese, Seafood",4.0,Very Good,179,P,2000,4,"Lifestyle Arcade, Greenhills Shopping Centre, San Juan, City","Lifestyle Arcade, Greenhills Shopping Centre, San Juan, City, San Juan City",San Juan City,,162,14.6023664527,121.0520283133,0,1
The Pantry - Dusit Thani Manila,"European, Asian, Filipino, American",4.0,Very Good,105,P,4000,4,"Dusit Thani Manila, San Lorenzo, Makati City","Dusit Thani Manila, San Lorenzo, Makati City, Makati City",Makati City,,162,14.5487240809,121.0259515420,0,0
Crystal Jade Dining IN,Chinese,4.0,Very Good,114,P,2000,4,"Bonifacio High Street Central, Bonifacio Global City, Taguig City","Bonifacio High Street Central, Bonifacio Global City, Taguig City, Taguig City",Taguig City,,162,14.5507810000,121.0492300000,0,1
Escolta - The Peninsula,"Japanese, Filipino, Asian",4.0,Very Good,115,P,4000,4,"The Peninsula, Urdaneta, Makati City","The Peninsula, Urdaneta, Makati City, Makati City",Makati City,,162,14.5548620000,121.0254310000,0,0
Stockton Place,"European, Italian, Steak",4.0,Very Good,99,P,1500,4,Legaspi Village,"Legaspi Village, Makati City",Makati City,,162,14.5534958491,121.0164652392,0,1
Lemuria Gourmet Restaurant,"French, Mediterranean",4.0,Very Good,111,P,3000,4,New Manila,"New Manila, Quezon City",Quezon City,,162,14.6109426987,121.0426774621,0,0
Cafe d' Asie - The Bellevue Manila,"European, Asian, Japanese, American",4.0,Very Good,70,P,2800,4,"The Bellevue Manila, Filinvest City, Muntinlupa City","The Bellevue Manila, Filinvest City, Muntinlupa City, Muntinlupa City",Muntinlupa City,,162,14.4239190036,121.0395909101,0,0
Tapenade - Discovery Primea,"Italian, Spanish, Mediterranean",4.0,Very Good,56,P,2500,4,"Discovery Primea, Urdaneta, Makati City","Discovery Primea, Urdaneta, Makati City, Makati City",Makati City,,162,14.5534270000,121.0268870000,0,0
Medley Buffet - Okada Manila,International,4.0,Very Good,61,P,5400,4,"Okada Manila, Entertainment City, Parañaque City","Okada Manila, Entertainment City, Parañaque City, Parañaque City",Parañaque City,,162,14.5127358394,120.9804981574,0,0
Corniche - Diamond Hotel,"American, Asian, European, Japanese",3.9,Good,91,P,2500,4,"Diamond Hotel, Malate, Manila","Diamond Hotel, Malate, Manila, Manila",Manila,1000,162,14.5722058056,120.9821785614,0,0
Terry's Bistro,Spanish,3.9,Good,76,P,2000,4,Salcedo Village,"Salcedo Village, Makati City",Makati City,,162,14.5592520791,121.0220633447,0,0
Kiwa - Solaire Resort & Casino,Korean,3.9,Good,30,P,3000,4,"Solaire Resort & Casino, Entertainment City, Parañaque City","Solaire Resort & Casino, Entertainment City, Parañaque City, Parañaque City",Parañaque City,,162,14.5230253759,120.9803472832,0,0
Tsukiji,Japanese,3.9,Good,67,P,4500,4,San Lorenzo,"San Lorenzo, Makati City",Makati City,,162,14.5507760000,121.0193190000,0,0
Li Li - AG New World Manila Bay Hotel,Chinese,4.0,Very Good,54,P,4000,4,"AG New World Manila Bay Hotel, Malate, Manila","AG New World Manila Bay Hotel, Malate, Manila, Manila",Manila,,162,14.5735186912,120.9826466069,0,0
Flame Restaraunt - Discovery Primea,European,3.9,Good,24,P,3200,4,"Discovery Primea, Urdaneta, Makati City","Discovery Primea, Urdaneta, Makati City, Makati City",Makati City,1226,162,14.5532884818,121.0268363357,0,0
Mirèio,"French, Mediterranean",3.9,Good,31,P,4000,4,"Raffles Hotel, San Lorenzo, Makati City","Raffles Hotel, San Lorenzo, Makati City, Makati City",Makati City,,162,14.5510246286,121.0229380801,0,0
Alfred,"Asian, International",3.9,Good,27,P,1500,4,Legaspi Village,"Legaspi Village, Makati City",Makati City,1229,162,14.5538041412,121.0208556801,0,0
The Tasting Room,European,3.9,Good,24,P,10000,4,"City of Dreams Manila, Entertainment City, Parañaque City","City of Dreams Manila, Entertainment City, Parañaque City, Parañaque City",Parañaque City,,162,14.5250431750,120.9925764799,0,0
"Lobby Lounge - Makati Shangri-La, Manila","European, Filipino, Coffee",3.9,Good,41,P,3000,4,"Makati Shangri-La, Manila, San Lorenzo, Makati City","Makati Shangri-La, Manila, San Lorenzo, Makati City, Makati City",Makati City,,162,14.5537869418,121.0245122016,0,0
Market Cafe - AG New World Manila Bay Hotel,"Chinese, Japanese, Filipino, Korean",3.8,Good,67,P,3500,4,"AG New World Manila Bay Hotel, Malate, Manila","AG New World Manila Bay Hotel, Malate, Manila, Manila",Manila,,162,14.5730695982,120.9825420007,0,1
Senju - Edsa Shangri-La,"Japanese, Sushi",3.8,Good,65,P,4000,4,"Edsa Shangri-La, Ortigas, Mandaluyong City","Edsa Shangri-La, Ortigas, Mandaluyong City, Mandaluyong City",Mandaluyong City,,162,14.5815759255,121.0570919886,0,0
Butcher and Sons,"French, American, Steak",3.8,Good,28,P,3200,4,"Evia Lifestyle Center, Alabang, Muntinlupa City","Evia Lifestyle Center, Alabang, Muntinlupa City, Muntinlupa City",Muntinlupa City,,162,14.3761145938,121.0114887357,0,0
Yurakuen - Diamond Hotel,Japanese,3.8,Good,49,P,2500,4,"Diamond Hotel, Malate, Manila","Diamond Hotel, Malate, Manila, Manila",Manila,,162,14.5722080770,120.9821872786,0,0
Jasmine - New World Makati Hotel,Chinese,3.8,Good,54,P,2000,4,"New World Makati Hotel, San Lorenzo, Makati City","New World Makati Hotel, San Lorenzo, Makati City, Makati City",Makati City,,162,14.5515678776,121.0220187530,0,0
Impressions - Maxims Hotel,"Italian, American, Seafood, Desserts",3.8,Good,38,P,4000,4,"Maxims Hotel, Newport City, Pasay City","Maxims Hotel, Newport City, Pasay City, Pasay City",Pasay City,,162,14.5198333333,121.0188333333,0,1
The Fireplace - AG New World Manila Bay Hotel,Seafood,3.8,Good,37,P,4500,4,"AG New World Manila Bay Hotel, Malate, Manila","AG New World Manila Bay Hotel, Malate, Manila, Manila",Manila,,162,14.5735118769,120.9826378897,0,1
I'm Angus Steak House,"Steak, American, Asian",3.8,Good,37,P,3000,4,San Antonio,"San Antonio, Makati City",Makati City,,162,14.5604063574,121.0091518611,0,1
The Lobby - The Peninsula,"Filipino, Asian",3.8,Good,75,P,2500,4,"The Peninsula, Urdaneta, Makati City","The Peninsula, Urdaneta, Makati City, Makati City",Makati City,,162,14.5548620000,121.0254310000,0,0
Yanagi - Midas Hotel & Casino,"Japanese, Sushi",3.7,Good,45,P,3500,4,"Midas Hotel & Casino, Libertad, Pasay City","Midas Hotel & Casino, Libertad, Pasay City, Pasay City",Pasay City,,162,14.5397478535,120.9927535057,0,0
Sala Bistro,European,3.7,Good,79,P,2500,4,"Greenbelt 3, San Lorenzo, Makati City","Greenbelt 3, San Lorenzo, Makati City, Makati City",Makati City,,162,14.5518520000,121.0214210000,0,0
Xiu Fine Cantonese Dining,"Chinese, Cantonese",3.7,Good,39,P,2300,4,Greenhills,"Greenhills, San Juan City",San Juan City,,162,14.6009700314,121.0546826944,0,1
F All Day Dining- F1 Hotel Manila,"Asian, European",3.7,Good,46,P,2800,4,Bonifacio Global City,"Bonifacio Global City, Taguig City",Taguig City,,162,14.5538463285,121.0493752733,0,0
Elbert's Steak Room,"American, Steak",3.7,Good,61,P,4000,4,Salcedo Village,"Salcedo Village, Makati City",Makati City,,162,14.5610037761,121.0253832489,0,0
"Sage Bespoke Grill - Makati Shangri-La, Manila",Steak,3.7,Good,42,P,4000,4,"Makati Shangri-La, Manila, San Lorenzo, Makati City","Makati Shangri-La, Manila, San Lorenzo, Makati City, Makati City",Makati City,,162,14.5526495038,121.0250885412,0,0
Rossini Ristorante Italiano,Italian,3.7,Good,26,P,2100,4,"S Maison, Conrad Manila, Mall of Asia Complex (MOA), Pasay City","S Maison, Conrad Manila, Mall of Asia Complex (MOA), Pasay City, Pasay City",Pasay City,,162,14.5315787445,120.9804743528,0,1
Snaps - Sofitel Philippine Plaza Manila,"Filipino, American",3.7,Good,43,P,3500,4,"Sofitel Philippine Plaza Manila, CCP Complex, Pasay City","Sofitel Philippine Plaza Manila, CCP Complex, Pasay City, Pasay City",Pasay City,,162,14.5545450142,120.9808837250,0,0
Restaurant 101,"French, Italian, Steak",3.7,Good,33,P,2000,4,McKinley Hill,"McKinley Hill, Taguig City",Taguig City,,162,14.5319604155,121.0526043177,0,0
Umu - Dusit Thani Manila,"Japanese, Sushi",3.7,Good,45,P,2500,4,"Dusit Thani Manila, San Lorenzo, Makati City","Dusit Thani Manila, San Lorenzo, Makati City, Makati City",Makati City,,162,14.5487717861,121.0259233788,0,0
Chef Jessie,"French, Mediterranean",3.6,Good,47,P,3000,4,Rockwell,"Rockwell, Makati City",Makati City,,162,14.5654120000,121.0354720000,0,1
Caviar Restaurant and Champagne Bar,European,3.6,Good,29,P,4000,4,"Westgate Center, Filinvest City, Mutinlupa City","Westgate Center, Filinvest City, Mutinlupa City, Muntinlupa City",Muntinlupa City,,162,14.4221126458,121.0335177183,0,0
Carmelo's Wagyu Steaks,Steak,3.6,Good,44,P,3000,4,"Greenbelt 5, San Lorenzo, Makati City","Greenbelt 5, San Lorenzo, Makati City, Makati City",Makati City,,162,14.5531790000,121.0219990000,0,0
Sala,European,3.6,Good,46,P,3000,4,Legaspi Village,"Legaspi Village, Makati City",Makati City,,162,14.5541013993,121.0240411386,0,0
Aruga Café by Mesclun,"European, French",3.6,Good,22,P,2000,4,Rockwell,"Rockwell, Makati City",Makati City,,162,14.5662550000,121.0364370000,0,0
Acaci - Acacia Hotel,"Asian, European, American",3.5,Good,68,P,2500,4,"Acacia Hotel, Filinvest City, Muntinlupa City","Acacia Hotel, Filinvest City, Muntinlupa City, Muntinlupa City",Muntinlupa City,,162,14.4206277393,121.0355548561,0,0
Le Bar - Sofitel Philippine Plaza Manila,French,3.5,Good,47,P,2500,4,"Sofitel Philippine Plaza Manila, CCP Complex, Pasay City","Sofitel Philippine Plaza Manila, CCP Complex, Pasay City, Pasay City",Pasay City,,162,14.5545466367,120.9808840603,0,0
Top of the Citi by Chef Jessie,"French, Filipino",3.5,Good,53,P,2000,4,Salcedo Village,"Salcedo Village, Makati City",Makati City,,162,14.5595324554,121.0257141665,0,1
Sunset Bar - Sofitel Philippine Plaza Manila,"Asian, French, Mediterranean",3.5,Good,36,P,3000,4,"Sofitel Philippine Plaza Manila, CCP Complex, Pasay City","Sofitel Philippine Plaza Manila, CCP Complex, Pasay City, Pasay City",Pasay City,,162,14.5545427425,120.9808820486,0,0
The Grand Kitchen - Grand Hyatt Manila,International,3.6,Good,24,P,5000,4,"Grand Hyatt Manila, Bonifacio Global City, Taguig City","Grand Hyatt Manila, Bonifacio Global City, Taguig City, Taguig City",Taguig City,1634,162,14.5567070000,121.0520060000,0,0
Cirkulo Restaurant,Spanish,3.5,Good,33,P,2000,4,San Lorenzo,"San Lorenzo, Makati City",Makati City,,162,14.5512277778,121.0193250000,0,1
Paper Moon Manila,Italian,3.5,Good,17,P,2500,4,Poblacion,"Poblacion, Makati City",Makati City,,162,14.5675551552,121.0279320180,0,1
Paparazzi - Edsa Shangri-La,Italian,3.4,Average,36,P,4000,4,"Edsa Shangri-La, Ortigas, Mandaluyong City","Edsa Shangri-La, Ortigas, Mandaluyong City, Mandaluyong City",Mandaluyong City,,162,14.5815765744,121.0570906475,0,0
Ginzadon - Maxims Hotel,"Japanese, Korean, Sushi",3.4,Average,22,P,2000,4,"Maxims Hotel, Newport City, Pasay City","Maxims Hotel, Newport City, Pasay City, Pasay City",Pasay City,,162,14.5198333333,121.0186666667,0,0
Lobby Lounge - Manila Hotel,"Asian, European",3.4,Average,17,P,2500,4,"Manila Hotel, Ermita, Manila","Manila Hotel, Ermita, Manila, Manila",Manila,0913,162,14.5828410574,120.9747967869,0,0
The Lounge - New World Makati Hotel,Finger Food,3.4,Average,12,P,2500,4,"New World Makati Hotel, San Lorenzo, Makati City","New World Makati Hotel, San Lorenzo, Makati City, Makati City",Makati City,,162,14.5509691354,121.0216107220,0,0
Hatsune - The Bellevue Manila,"Japanese, Sushi",3.4,Average,13,P,1800,4,"The Bellevue Manila, Filinvest City, Muntinlupa City","The Bellevue Manila, Filinvest City, Muntinlupa City, Muntinlupa City",Muntinlupa City,,162,14.4247849981,121.0398024693,0,0
The Food Club,"Chinese, Japanese, Indian, Greek",3.3,Average,268,P,1600,4,"Blue Bay Walk, Libertad, Pasay City","Blue Bay Walk, Libertad, Pasay City, Pasay City",Pasay City,,162,14.5376312034,120.9891157597,0,0
Garden Cafe - Luxent Hotel,Asian,3.3,Average,35,P,2500,4,Tomas Morato,"Tomas Morato, Quezon City",Quezon City,,162,14.6347343998,121.0344336927,0,0
Spices - The Peninsula,Asian,3.3,Average,40,P,2700,4,"The Peninsula, Urdaneta, Makati City","The Peninsula, Urdaneta, Makati City, Makati City",Makati City,,162,14.5548620000,121.0254310000,0,0
Seasons - Waterfront Manila Pavilion Hotel & Casino,"Chinese, Japanese, Filipino",3.3,Average,19,P,3000,4,"Waterfront Manila Pavilion Hotel & Casino, Ermita, Manila","Waterfront Manila Pavilion Hotel & Casino, Ermita, Manila, Manila",Manila,,162,14.5811090000,120.9821240000,0,0
The Nostalgia Dining Lounge,"European, Asian, Filipino",3.3,Average,13,P,2600,4,"Joy~Nostalg Hotel & Suites Manila, Ortigas, Pasig City","Joy~Nostalg Hotel & Suites Manila, Ortigas, Pasig City, Pasig City",Pasig City,,162,14.5874865181,121.0601614416,0,1
Hide Yamamoto,"Japanese, Seafood",3.3,Average,11,P,2500,4,"City of Dreams Manila, Entertainment City, Parañaque City","City of Dreams Manila, Entertainment City, Parañaque City, Parañaque City",Parañaque City,,162,14.5232110258,120.9925838560,0,0
The Lobby - Acacia Hotel,"Asian, European",3.1,Average,11,P,2500,4,"Acacia Hotel, Filinvest City, Muntinlupa City","Acacia Hotel, Filinvest City, Muntinlupa City, Muntinlupa City",Muntinlupa City,,162,14.4205530553,121.0355464742,0,0
Purple Yam,Filipino,3.2,Average,10,P,4000,4,Malate,"Malate, Manila",Manila,,162,14.5719484842,120.9859209135,0,0
BAKE Cheese Tart,"Bakery, Japanese",4.8,Excellent,63,P,600,2,"The Podium, Ortigas, Mandaluyong City","The Podium, Ortigas, Mandaluyong City, Mandaluyong City",Mandaluyong City,,162,14.5848112613,121.0590101033,0,0
Estrel's Caramel Cakes,Bakery,4.5,Excellent,242,P,600,2,Tomas Morato,"Tomas Morato, Quezon City",Quezon City,,162,14.6341225834,121.0308646783,0,0
Kumori,"Bakery, Desserts",4.4,Very Good,79,P,500,2,"UP Town Center, Diliman, Quezon City","UP Town Center, Diliman, Quezon City, Quezon City",Quezon City,,162,14.6513767085,121.0754346103,0,0
Purple Oven,Bakery,4.3,Very Good,187,P,300,1,"F7 Building, Laging Handa, Tomas Morato, Quezon City","F7 Building, Laging Handa, Tomas Morato, Quezon City, Quezon City",Quezon City,,162,14.6346180000,121.0336380000,0,0
Scout's Honor,"Bakery, Desserts",4.3,Very Good,321,P,500,2,"Century City Mall, Poblacion, Makati City","Century City Mall, Poblacion, Makati City, Makati City",Makati City,,162,14.5657541862,121.0277124122,0,0
Becky's Kitchen,Bakery,4.3,Very Good,220,P,400,2,Malate,"Malate, Manila",Manila,,162,14.5643192415,120.9988910705,0,0
Kumori,"Bakery, Japanese",4.3,Very Good,39,P,300,1,"Main Mall, SM Mall of Asia, Mall of Asia Complex (MOA), Pasay City","Main Mall, SM Mall of Asia, Mall of Asia Complex (MOA), Pasay City, Pasay City",Pasay City,,162,14.5350306364,120.9812008962,0,0
Purple Oven,Bakery,4.2,Very Good,259,P,300,1,San Antonio,"San Antonio, Makati City",Makati City,,162,14.5647083195,121.0140056536,0,0
PAUL,"Bakery, French, Coffee",4.2,Very Good,110,P,1000,3,Bonifacio Global City,"Bonifacio Global City, Taguig City",Taguig City,,162,14.5534530000,121.0454360000,0,0
Patisserie Bebe Rouge,"Japanese, Bakery",4.2,Very Good,83,P,900,3,San Antonio,"San Antonio, Makati City",Makati City,,162,14.5651983166,121.0144663230,0,0
Kumori,"Bakery, Japanese",4.2,Very Good,96,P,300,1,"SM Makati, Glorietta Complex, Makati City","SM Makati, Glorietta Complex, Makati City, Makati City",Makati City,,162,14.5496850000,121.0267270000,0,0
Banapple,"Filipino, American, Italian, Bakery",4.1,Very Good,592,P,800,3,"Ayala Triangle Gardens, Salcedo Village, Makati City","Ayala Triangle Gardens, Salcedo Village, Makati City, Makati City",Makati City,,162,14.5565430000,121.0235370000,0,0
Conti's,"Italian, Bakery",4.1,Very Good,268,P,1500,4,"Greenbelt 2, San Lorenzo, Makati City","Greenbelt 2, San Lorenzo, Makati City, Makati City",Makati City,,162,14.5520500000,121.0203350000,0,0
Banapple,"Filipino, American, Italian, Bakery",4.1,Very Good,297,P,800,3,"SM City North EDSA, Bago Bantay, Quezon City","SM City North EDSA, Bago Bantay, Quezon City, Quezon City",Quezon City,,162,14.6553538204,121.0323499516,0,0
Conti's,"Italian, Bakery",4.1,Very Good,271,P,1500,4,"Serendra, Bonifacio Global City, Taguig City","Serendra, Bonifacio Global City, Taguig City, Taguig City",Taguig City,,162,14.5499130000,121.0536400000,0,0
Banapple,"Filipino, American, Italian, Bakery",4.1,Very Good,213,P,800,3,"Gateway Mall, Cubao, Quezon City","Gateway Mall, Cubao, Quezon City, Quezon City",Quezon City,,162,14.6211666667,121.0533333333,0,0
Nono's by Classic Confections,"International, Filipino, Bakery",4.1,Very Good,114,P,800,3,"UP Town Center, Diliman, Quezon City","UP Town Center, Diliman, Quezon City, Quezon City",Quezon City,,162,14.6489604342,121.0750078037,0,0
Conti's,"Italian, Bakery",4.1,Very Good,151,P,1500,4,Blue Ridge,"Blue Ridge, Quezon City",Quezon City,,162,14.6199500000,121.0728560000,0,0
Kumori,"Bakery, Coffee",4.1,Very Good,175,P,500,2,"The Block, SM City North EDSA, Bago Bantay, Quezon City","The Block, SM City North EDSA, Bago Bantay, Quezon City, Quezon City",Quezon City,,162,14.6562312340,121.0324133188,0,0
Krispy Kreme,"Bakery, Coffee",4.1,Very Good,129,P,500,2,"Bonifacio High Street, Bonifacio Global City, Taguig City","Bonifacio High Street, Bonifacio Global City, Taguig City, Taguig City",Taguig City,,162,14.5503390000,121.0508310000,0,0
LAVA Cheese Tarts,"Bakery, Japanese",4.1,Very Good,82,P,450,2,"SM Aura Premier, Bonifacio Global City, Taguig City","SM Aura Premier, Bonifacio Global City, Taguig City, Taguig City",Taguig City,,162,14.5461840068,121.0541579872,0,0
Batter or Dough,"Bakery, Coffee",4.1,Very Good,41,P,500,2,"The Block, SM City North EDSA, Bago Bantay, Quezon City","The Block, SM City North EDSA, Bago Bantay, Quezon City, Quezon City",Quezon City,,162,14.6565666289,121.0326751694,0,0
Kumori,"Bakery, Coffee",4.1,Very Good,47,P,500,2,"Robinsons Place Manila, Ermita, Manila","Robinsons Place Manila, Ermita, Manila, Manila",Manila,,162,14.5763816373,120.9837070853,0,0
PAUL,"Bakery, French, Coffee",4.0,Very Good,242,P,1000,3,"SM Aura Premier, Bonifacio Global City, Taguig City","SM Aura Premier, Bonifacio Global City, Taguig City, Taguig City",Taguig City,,162,14.5470621806,121.0544171557,0,0
Vanderlust Bistro + Patisserie,"European, Bakery, Desserts",4.0,Very Good,150,P,1200,3,Tomas Morato,"Tomas Morato, Quezon City",Quezon City,,162,14.6311491184,121.0347709805,0,1
Banapple,"Filipino, American, Italian, Bakery",4.0,Very Good,238,P,800,3,"Alabang Town Center, Alabang, Muntinlupa City","Alabang Town Center, Alabang, Muntinlupa City, Muntinlupa City",Muntinlupa City,,162,14.4239914135,121.0301837325,0,0
Banapple,"Filipino, American, Italian, Bakery",4.0,Very Good,269,P,800,3,"Il Terrazzo, South Triangle, Quezon City","Il Terrazzo, South Triangle, Quezon City, Quezon City",Quezon City,,162,14.6364141287,121.0356685147,0,0
Banapple,"Filipino, American, Italian, Bakery",4.0,Very Good,172,P,800,3,"Tuscany, McKinley Hill, Taguig City","Tuscany, McKinley Hill, Taguig City, Taguig City",Taguig City,,162,14.5375620761,121.0518003255,0,0
Bizu Patisserie & Bistro,"French, Bakery, European",4.0,Very Good,156,P,3000,4,"Greenbelt 2, San Lorenzo, Makati City","Greenbelt 2, San Lorenzo, Makati City, Makati City",Makati City,,162,14.5520500000,121.0203350000,0,1
Banapple,"Filipino, American, Italian, Bakery",4.0,Very Good,109,P,800,3,"Ayala Fairview Terraces, Novaliches, Quezon City","Ayala Fairview Terraces, Novaliches, Quezon City, Quezon City",Quezon City,,162,14.7363973863,121.0603978112,0,0
The Baker's Table,Bakery,4.0,Very Good,107,P,300,1,Teachers Village,"Teachers Village, Quezon City",Quezon City,,162,14.6463720000,121.0587300000,0,0
Yamato Bakery Cafe,Bakery,4.0,Very Good,53,P,200,1,Bel-Air,"Bel-Air, Makati City",Makati City,,162,14.5582370000,121.0334420000,0,0
Auntie Anne's,Bakery,3.9,Good,59,P,250,1,"Glorietta 4, Glorietta Complex, Makati City","Glorietta 4, Glorietta Complex, Makati City, Makati City",Makati City,,162,14.5505495280,121.0249279439,0,0
LAVA Cheese Tarts,"Bakery, Japanese",4.0,Very Good,26,P,450,2,"Uptown Place Mall, Bonifacio Global City, Taguig City","Uptown Place Mall, Bonifacio Global City, Taguig City, Taguig City",Taguig City,,162,14.5568224608,121.0538240522,0,0
Banapple,"Filipino, American, Italian, Bakery",3.9,Good,236,P,800,3,"Market! Market!, Bonifacio Global City, Taguig City","Market! Market!, Bonifacio Global City, Taguig City, Taguig City",Taguig City,,162,14.5489220000,121.0557320000,0,0
Conti's,"Italian, Bakery",3.9,Good,263,P,1500,4,"Trinoma Mall, Bagong Pag-Asa, Quezon City","Trinoma Mall, Bagong Pag-Asa, Quezon City, Quezon City",Quezon City,,162,14.6530000000,121.0336666667,0,0
Larcy's Cupcakery Cafe,"Bakery, American, Filipino",3.9,Good,318,P,600,2,BF Homes,"BF Homes, Parañaque City",Parañaque City,,162,14.4512681257,121.0182666779,0,0
Banapple,"Filipino, American, Italian, Bakery",3.9,Good,223,P,800,3,Blue Ridge,"Blue Ridge, Quezon City",Quezon City,,162,14.6185055600,121.0719750000,0,0
Banapple,"Filipino, American, Italian, Bakery",3.9,Good,137,P,800,3,"Robinsons Galleria, Ortigas, Quezon City","Robinsons Galleria, Ortigas, Quezon City, Quezon City",Quezon City,,162,14.5917577765,121.0595867783,0,0
Conti's,"Italian, Bakery",3.9,Good,147,P,1500,4,BF Homes,"BF Homes, Parañaque City",Parañaque City,,162,14.4450389568,121.0287189111,0,0
Pan De Amerikana,"Bakery, Filipino",3.9,Good,125,P,200,1,White Plains,"White Plains, Quezon City",Quezon City,,162,14.6121527800,121.0705639000,0,0
Cello's Doughnuts,"Bakery, Coffee",3.9,Good,86,P,400,2,Loyola Heights,"Loyola Heights, Quezon City",Quezon City,,162,14.6389372664,121.0743020475,0,0
Kumori,"Bakery, Japanese",3.9,Good,75,P,300,1,"The Landmark, Glorietta Complex, Makati City","The Landmark, Glorietta Complex, Makati City, Makati City",Makati City,,162,14.5520740000,121.0236170000,0,0
Conti's,"Italian, Bakery",3.9,Good,77,P,1500,4,"Alabang Town Center, Alabang, Muntinlupa City","Alabang Town Center, Alabang, Muntinlupa City, Muntinlupa City",Muntinlupa City,,162,14.4236244933,121.0294957459,0,0
Karen's Kitchen,Bakery,3.9,Good,43,P,800,3,Kapitolyo,"Kapitolyo, Pasig City",Pasig City,,162,14.5728012453,121.0624376312,0,0
Nathaniel's Bakeshop,"Bakery, Filipino",3.9,Good,57,P,300,1,Tomas Morato,"Tomas Morato, Quezon City",Quezon City,,162,14.6361912686,121.0281147435,0,0
The Round Robin Cafe,"Bakery, Beverages, Filipino, American, Desserts, Coffee",3.9,Good,53,P,450,2,Sikatuna Village,"Sikatuna Village, Quezon City",Quezon City,,162,14.6418804577,121.0610935092,0,1
Deli de San Honore,"American, Bakery",3.9,Good,31,P,600,2,Tagaytay City,"Tagaytay City, Tagaytay City",Tagaytay City,,162,14.0929507325,120.9058975428,0,0
Amor Bakery,"Bakery, Desserts, Bubble Tea, Coffee",3.8,Good,259,P,300,1,Sampaloc,"Sampaloc, Manila",Manila,,162,14.6062575027,120.9888837487,0,0
Vanilla Cupcake Bakery,"American, Bakery",3.8,Good,161,P,1000,3,"Two Parkade, Bonifacio Global City, Taguig City","Two Parkade, Bonifacio Global City, Taguig City, Taguig City",Taguig City,,162,14.5517210000,121.0502470000,0,0
Vanilla Cupcake Bakery,"American, Bakery",3.8,Good,213,P,1000,3,"Trinoma Mall, Bagong Pag-Asa, Quezon City","Trinoma Mall, Bagong Pag-Asa, Quezon City, Quezon City",Quezon City,,162,14.6537134854,121.0343196988,0,0
J.CO Donuts & Coffee,"Bakery, Coffee",3.8,Good,134,P,500,2,"SM City North EDSA, Bago Bantay, Quezon City","SM City North EDSA, Bago Bantay, Quezon City, Quezon City",Quezon City,,162,14.6566230686,121.0309733078,0,0
Lia's Cakes in Season,Bakery,3.8,Good,141,P,300,1,Kapitolyo,"Kapitolyo, Pasig City",Pasig City,,162,14.5709032959,121.0608728975,0,0
Baker & Cook,"Bakery, European",3.8,Good,83,P,1200,3,"S Maison, Conrad Manila, Mall of Asia Complex (MOA), Pasay City","S Maison, Conrad Manila, Mall of Asia Complex (MOA), Pasay City, Pasay City",Pasay City,,162,14.5329350368,120.9803670645,0,1
The Chocolate Kiss Cafe,"Bakery, Desserts, Asian",3.8,Good,159,P,1000,3,Diliman,"Diliman, Quezon City",Quezon City,,162,14.6581342851,121.0667395592,0,0
Wicked,"Bakery, Desserts",3.8,Good,64,P,500,2,"Shangri-La Plaza, Ortigas, Mandaluyong City","Shangri-La Plaza, Ortigas, Mandaluyong City, Mandaluyong City",Mandaluyong City,,162,14.5810027778,121.0547111111,0,0
Bizu,"French, Bakery, European",3.8,Good,92,P,3000,4,"Promenade, Greenhills Shopping Centre, Greenhills, San Juan City","Promenade, Greenhills Shopping Centre, Greenhills, San Juan City, San Juan City",San Juan City,,162,14.6032761982,121.0512259975,0,0
The Cheesecake Fairy,"Bakery, Desserts, Coffee",3.8,Good,53,P,700,3,"Evia Lifestyle Center, Alabang, Muntinlupa City","Evia Lifestyle Center, Alabang, Muntinlupa City, Muntinlupa City",Muntinlupa City,,162,14.3757989098,121.0111967102,0,0
Sugarhouse,"Bakery, Desserts, Coffee",3.8,Good,49,P,950,3,"Power Plant Mall, Rockwell, Makati City","Power Plant Mall, Rockwell, Makati City, Makati City",Makati City,,162,14.5644340000,121.0363640000,0,0
The Breadery,"Bakery, Coffee",3.8,Good,47,P,300,1,Ortigas,"Ortigas, Pasig City",Pasig City,,162,14.5866201862,121.0611753166,0,0
Conti's,"Italian, Bakery",3.7,Good,65,P,1500,4,"Robinsons Place Manila, Ermita, Manila","Robinsons Place Manila, Ermita, Manila, Manila",Manila,,162,14.5754315444,120.9842264280,0,0
Chocolat,"Bakery, Coffee",3.9,Good,106,P,350,2,"North Wing, SM Mall of Asia, Mall of Asia Complex (MOA), Pasay City","North Wing, SM Mall of Asia, Mall of Asia Complex (MOA), Pasay City, Pasay City",Pasay City,,162,14.5362379420,120.9824404120,0,0
Conti's,"Italian, Bakery",3.8,Good,65,P,1500,4,Addition Hills,"Addition Hills, Mandaluyong City",Mandaluyong City,,162,14.5882194906,121.0454002395,0,0
J.CO Donuts & Coffee,"Bakery, Coffee",3.8,Good,47,P,500,2,"Shopwise Arcade, Cubao, Quezon City","Shopwise Arcade, Cubao, Quezon City, Quezon City",Quezon City,,162,14.6204558603,121.0548255220,0,0
Icings Bakery & Cafe,"Bakery, Filipino, American, Coffee",3.8,Good,52,P,800,3,"Market! Market!, Bonifacio Global City, Taguig City","Market! Market!, Bonifacio Global City, Taguig City, Taguig City",Taguig City,,162,14.5489220000,121.0557320000,0,0
Banapple,"Filipino, American, Italian, Bakery",3.8,Good,18,P,800,3,"Tutuban Center Mall, Tondo, Manila","Tutuban Center Mall, Tondo, Manila, Manila",Manila,,162,14.6078063764,120.9726620838,0,0
Conti's,"Italian, Bakery",3.8,Good,27,P,1500,4,"Ayala Malls The 30th, Ugong, Pasig City","Ayala Malls The 30th, Ugong, Pasig City, Pasig City",Pasig City,,162,14.5803900000,121.0646520000,0,0
Eric Kayser,Bakery,3.8,Good,41,P,500,2,"Power Plant Mall, Rockwell, Makati City","Power Plant Mall, Rockwell, Makati City, Makati City",Makati City,,162,14.5654980000,121.0364190000,0,0
Chocolat,"Bakery, Coffee",3.8,Good,38,P,350,2,Addition Hills,"Addition Hills, San Juan City",San Juan City,,162,14.5965678721,121.0394132137,0,0
Lord Stow's Bakery,Bakery,3.8,Good,23,P,400,2,"Market! Market!, Bonifacio Global City, Taguig City","Market! Market!, Bonifacio Global City, Taguig City, Taguig City",Taguig City,,162,14.5489220000,121.0557320000,0,0
Purple Oven,Bakery,3.8,Good,22,P,300,1,"ATC Corporate Center, Alabang, Muntinlupa City","ATC Corporate Center, Alabang, Muntinlupa City, Muntinlupa City",Muntinlupa City,,162,14.4247632427,121.0278676450,0,0
Pan De Amerikana,"Bakery, Filipino",3.7,Good,207,P,200,1,Concepcion Dos,"Concepcion Dos, Marikina City",Marikina City,,162,14.6443811499,121.1144714803,0,0
Jipan Cafe & Bakeshop,"Japanese, Bakery, Coffee",3.7,Good,178,P,900,3,"Glorietta 4, Glorietta Complex, Makati City","Glorietta 4, Glorietta Complex, Makati City, Makati City",Makati City,,162,14.5512890000,121.0262640000,0,0
Pink Chiffon,"Bakery, Italian",3.7,Good,143,P,350,2,Concepcion Dos,"Concepcion Dos, Marikina City",Marikina City,,162,14.6408154896,121.1218894646,0,0
Conti's,"Italian, Bakery",3.7,Good,139,P,1500,4,"Robinsons Magnolia, New Manila, Quezon City","Robinsons Magnolia, New Manila, Quezon City, Quezon City",Quezon City,,162,14.6145652948,121.0385069624,0,0
Vanilla Cupcake Bakery,"American, Bakery",3.7,Good,114,P,800,3,"Alabang Town Center, Alabang, Muntinlupa City","Alabang Town Center, Alabang, Muntinlupa City, Muntinlupa City",Muntinlupa City,,162,14.4228237609,121.0293556005,0,0
Banapple,"Filipino, American, Italian, Bakery",3.7,Good,132,P,800,3,Blue Ridge,"Blue Ridge, Quezon City",Quezon City,,162,14.6205908188,121.0727121681,0,0
Kitchen Of Cakes & Coffee,"Bakery, Coffee",3.7,Good,116,P,600,2,Tomas Morato,"Tomas Morato, Quezon City",Quezon City,,162,14.6326666667,121.0348333333,0,0
Conti's,"Italian, Bakery",3.7,Good,92,P,1500,4,"Blue Bay Walk, Libertad, Pasay City","Blue Bay Walk, Libertad, Pasay City, Pasay City",Pasay City,,162,14.5374994395,120.9899043292,0,0
PABLO mini,"Bakery, Japanese",3.7,Good,88,P,600,2,"Bonifacio High Street, Bonifacio Global City, Taguig City","Bonifacio High Street, Bonifacio Global City, Taguig City, Taguig City",Taguig City,,162,14.5504220000,121.0505960000,0,0
J.CO Donuts & Coffee,"Bakery, Coffee",3.7,Good,101,P,500,2,Libis,"Libis, Quezon City",Quezon City,,162,14.6092972222,121.0807638889,0,0
Scout's Honor,"Bakery, Desserts",3.7,Good,48,P,500,2,"Ayala Malls Vertis North, Bagong Pag-asa, Quezon City","Ayala Malls Vertis North, Bagong Pag-asa, Quezon City, Quezon City",Quezon City,,162,14.6511584047,121.0356380045,0,0
Mr. Park's Bread & Cake,"Bakery, Desserts, Coffee",3.7,Good,105,P,300,1,Ortigas,"Ortigas, Pasig City",Pasig City,,162,14.5883801018,121.0618089885,0,0
Vanilla Cupcake Bakery,"American, Bakery",3.7,Good,69,P,1000,3,Tomas Morato,"Tomas Morato, Quezon City",Quezon City,,162,14.6405880924,121.0367937014,0,0
Nono's by Classic Confections,"International, Filipino, Bakery",3.7,Good,46,P,800,3,"The Podium, Ortigas, Mandaluyong City","The Podium, Ortigas, Mandaluyong City, Mandaluyong City",Mandaluyong City,,162,14.5847457179,121.0589494184,0,0
Pie Face,"Bakery, Coffee",3.7,Good,57,P,250,1,Libis,"Libis, Quezon City",Quezon City,,162,14.6110480000,121.0806160000,0,0
J.CO Donuts & Coffee,"Bakery, Coffee",3.6,Good,80,P,500,2,"SM Megamall, Ortigas, Mandaluyong City","SM Megamall, Ortigas, Mandaluyong City, Mandaluyong City",Mandaluyong City,,162,14.5841400000,121.0574700000,0,0
Conti's,"Italian, Bakery",3.7,Good,63,P,1500,4,"Westgate Center, Filinvest City, Mutinlupa City","Westgate Center, Filinvest City, Mutinlupa City, Muntinlupa City",Muntinlupa City,,162,14.4214177640,121.0353496671,0,0
J.CO Donuts & Coffee,"Bakery, Coffee",3.7,Good,46,P,500,2,Tomas Morato,"Tomas Morato, Quezon City",Quezon City,,162,14.6332269148,121.0348413885,0,0
Krispy Kreme,"Bakery, Coffee",3.7,Good,38,P,500,2,"Glorietta 4, Glorietta Complex, Makati City","Glorietta 4, Glorietta Complex, Makati City, Makati City",Makati City,,162,14.5510190000,121.0262970000,0,0
Nord's Bread Hub,Bakery,3.7,Good,31,P,500,2,"The Block, SM City North EDSA, Bago Bantay, Quezon City","The Block, SM City North EDSA, Bago Bantay, Quezon City, Quezon City",Quezon City,,162,14.6561627926,121.0323982313,0,0
The Breadery,"Bakery, Coffee",3.7,Good,46,P,300,1,"UP Town Center, Diliman, Quezon City","UP Town Center, Diliman, Quezon City, Quezon City",Quezon City,,162,14.6486467610,121.0749977455,0,0
Conti's,"Italian, Bakery",3.6,Good,60,P,1500,4,Greenhills,"Greenhills, San Juan City",San Juan City,,162,14.6011877362,121.0538046062,0,0
Conti's,"Italian, Bakery",3.7,Good,34,P,1500,4,"The Block, SM City North EDSA, Bago Bantay, Quezon City","The Block, SM City North EDSA, Bago Bantay, Quezon City, Quezon City",Quezon City,,162,14.6561070016,121.0324015841,0,0
Cinnabon,Bakery,3.8,Good,27,P,400,2,"The Podium, Ortigas, Mandaluyong City","The Podium, Ortigas, Mandaluyong City, Mandaluyong City",Mandaluyong City,,162,14.5854631249,121.0591472313,0,0
Cinnabon,Bakery,3.7,Good,32,P,400,2,"SM Megamall, Ortigas, Mandaluyong City","SM Megamall, Ortigas, Mandaluyong City, Mandaluyong City",Mandaluyong City,,162,14.5832398369,121.0559426621,0,0
J.CO Donuts & Coffee,"Bakery, Coffee",3.7,Good,26,P,500,2,"Paseo Center, Salcedo Village, Makati City","Paseo Center, Salcedo Village, Makati City, Makati City",Makati City,,162,14.5576840000,121.0227600000,0,0
Lord Stow's Bakery,Bakery,3.7,Good,36,P,400,2,Binondo,"Binondo, Manila",Manila,,162,14.6006819211,120.9757385775,0,0
BOULANGERIE22,Bakery,3.6,Good,28,P,250,1,"Greenfield District, Highway Hills, Mandaluyong City","Greenfield District, Highway Hills, Mandaluyong City, Mandaluyong City",Mandaluyong City,,162,14.5782623420,121.0538803786,0,0
Flour Jar,"Bakery, Coffee",3.7,Good,26,P,500,2,Almanza,"Almanza, Las Piñas City",Las Piñas City,,162,14.4264078763,121.0121485591,0,0
La Carnita Modern Mexican Cantina,Mexican,4.4,Very Good,112,P,500,2,"Regis Center, Loyola Heights, Quezon City","Regis Center, Loyola Heights, Quezon City, Quezon City",Quezon City,,162,14.6406562143,121.0743409395,0,1
Bugis Singapore Street Food,"Singaporean, Street Food",4.3,Very Good,430,P,500,2,Banawe,"Banawe, Quezon City",Quezon City,,162,14.6273976809,121.0052566230,0,0
Buen Comer,"Filipino, Tex-Mex",4.3,Very Good,93,P,250,1,Teachers Village,"Teachers Village, Quezon City",Quezon City,1101,162,14.6440071346,121.0581155866,0,0
Wai Ying Fastfood,"Filipino, Chinese",4.2,Very Good,534,P,600,2,Binondo,"Binondo, Manila",Manila,,162,14.6018904895,120.9759692475,0,0
Kanto Freestyle Breakfast,"Filipino, American",4.2,Very Good,185,P,350,2,Poblacion,"Poblacion, Makati City",Makati City,,162,14.5666287126,121.0310497508,0,0
DRIVE-BY Taco Shop,Mexican,4.2,Very Good,181,P,400,2,BF Homes,"BF Homes, Parañaque City",Parañaque City,1720,162,14.4500960000,121.0184770000,0,0
Tori Tori Kushiyaki Snack Bar,Japanese,4.2,Very Good,120,P,450,2,Greater San Juan,"Greater San Juan, San Juan City",San Juan City,,162,14.5970860000,121.0375160000,0,0
La Carnita Modern Mexican Cantina,Mexican,4.2,Very Good,76,P,500,2,"The Food Hive, Tandang Sora, Quezon City","The Food Hive, Tandang Sora, Quezon City, Quezon City",Quezon City,,162,14.6642536483,121.0438787565,0,0
Caution Hot!,"Ramen, Japanese, Chinese",4.1,Very Good,497,P,400,2,Teachers Village,"Teachers Village, Quezon City",Quezon City,,162,14.6470699543,121.0580545664,0,0
Friuli Trattoria,Italian,4.1,Very Good,836,P,400,2,Teachers Village,"Teachers Village, Quezon City",Quezon City,,162,14.6469775059,121.0577846691,0,0
Sweet Ecstasy,"Burger, Beverages",4.1,Very Good,325,P,600,2,Bel-Air,"Bel-Air, Makati City",Makati City,,162,14.5570910000,121.0341290000,0,0
The Snack Shack,"Fast Food, Burger",4.1,Very Good,374,P,200,1,Sikatuna Village,"Sikatuna Village, Quezon City",Quezon City,,162,14.6359770000,121.0594840000,0,0
Karnevore,"American, Asian",4.1,Very Good,130,P,450,2,San Roque,"San Roque, Marikina City",Marikina City,,162,14.6216536142,121.1026077345,0,0
Santorini,"Korean, Japanese",4.1,Very Good,170,P,400,2,Sampaloc,"Sampaloc, Manila",Manila,,162,14.6076039268,120.9884535894,0,0
Beni's Falafel,Middle Eastern,4.1,Very Good,211,P,450,2,"A.Venue Mall, Poblacion, Makati City","A.Venue Mall, Poblacion, Makati City, Makati City",Makati City,,162,14.5664190000,121.0299280000,0,0
Wabi-Sabi,"Japanese, Thai, Vietnamese",4.1,Very Good,79,P,400,2,"POS Building, South Triangle, Tomas Morato, Quezon City","POS Building, South Triangle, Tomas Morato, Quezon City, Quezon City",Quezon City,,162,14.6357831776,121.0352282971,0,0
Bread Broth & Beyond,"Mediterranean, American, Filipino, Italian, Pizza, Coffee",4.1,Very Good,64,P,800,3,"SM Cherry Shaw, Pleasant Hills, Mandaluyong City","SM Cherry Shaw, Pleasant Hills, Mandaluyong City, Mandaluyong City",Mandaluyong City,,162,14.5871480975,121.0458800197,0,0
Bon Banhmi,"Vietnamese, Asian",4.1,Very Good,119,P,400,2,San Antonio,"San Antonio, Makati City",Makati City,,162,14.5626886112,121.0054235905,0,0
Pappare Ristoranti,Asian,4.1,Very Good,66,P,500,2,"The Food Hive, Tandang Sora, Quezon City","The Food Hive, Tandang Sora, Quezon City, Quezon City",Quezon City,,162,14.6642701904,121.0438740626,0,0
Tori Tori Kushiyaki Snack Bar,Japanese,4.1,Very Good,41,P,450,2,"Pearl Plaza, Ortigas, Pasig City","Pearl Plaza, Ortigas, Pasig City, Pasig City",Pasig City,,162,14.5801271312,121.0598191246,0,1
Any Any,Asian,4.1,Very Good,35,P,500,2,"Century City Mall, Poblacion, Makati City","Century City Mall, Poblacion, Makati City, Makati City",Makati City,,162,14.5657369877,121.0276815668,0,0
Komoro Japanese Dining,Japanese,4.0,Very Good,209,P,500,2,"SM Megamall, Ortigas, Mandaluyong City","SM Megamall, Ortigas, Mandaluyong City, Mandaluyong City",Mandaluyong City,,162,14.5862924718,121.0569796711,0,0
Meshwe,Middle Eastern,4.0,Very Good,196,P,300,1,"Z Compound, Teachers Village, Quezon City","Z Compound, Teachers Village, Quezon City, Quezon City",Quezon City,,162,14.6429610000,121.0585880000,0,0
Indonyaki,Indonesian,4.0,Very Good,137,P,500,2,Diliman,"Diliman, Quezon City",Quezon City,,162,14.6482468026,121.0571610555,0,0
Caution Hot!,"Ramen, Japanese, Chinese",4.0,Very Good,92,P,400,2,Kapitolyo,"Kapitolyo, Pasig City",Pasig City,,162,14.5715513068,121.0607689619,0,0
Lan Zhou La Mien,Chinese,4.0,Very Good,129,P,500,2,Binondo,"Binondo, Manila",Manila,,162,14.6021169534,120.9760222212,0,0
Grape Escape,"Mediterranean, Italian",4.0,Very Good,66,P,500,2,Teachers Village,"Teachers Village, Quezon City",Quezon City,1101,162,14.6465103976,121.0597463697,0,0
Wabi-Sabi,"Japanese, Thai, Vietnamese",4.0,Very Good,70,P,500,2,San Antonio,"San Antonio, Makati City",Makati City,,162,14.5591297389,121.0082258284,0,0
UNANI Yakitori + Sushi,Japanese,4.0,Very Good,54,P,400,2,Sikatuna Village,"Sikatuna Village, Quezon City",Quezon City,,162,14.6392400824,121.0612836540,0,0
Don Bao,Japanese,4.0,Very Good,37,P,500,2,Kapitolyo,"Kapitolyo, Pasig City",Pasig City,,162,14.5730442880,121.0585910082,0,0
Three Guys And A Grill,American,4.0,Very Good,50,P,500,2,Poblacion,"Poblacion, Makati City",Makati City,,162,14.5666180042,121.0298598558,0,1
Original Pares & Mami House,Filipino,4.0,Very Good,39,P,300,1,La Loma,"La Loma, Quezon City",Quezon City,,162,14.6271858415,120.9928379953,0,0
Crosta,Pizza,4.0,Very Good,30,P,500,2,Poblacion,"Poblacion, Makati City",Makati City,,162,14.5630926192,121.0304874927,0,0
Kanto Freestyle Breakfast,"Filipino, American",3.9,Good,857,P,350,2,Kapitolyo,"Kapitolyo, Pasig City",Pasig City,,162,14.5739217059,121.0605979711,0,0
Kanto Freestyle Breakfast,"Filipino, American",3.9,Good,296,P,350,2,Plainview,"Plainview, Mandaluyong City",Mandaluyong City,,162,14.5810492988,121.0312499106,0,0
Goto Monster,Filipino,3.9,Good,164,P,350,2,La Paz,"La Paz, Makati City",Makati City,,162,14.5670070781,121.0091555491,0,0
Yo! Panda,"Desserts, Asian, Coffee",3.9,Good,204,P,400,2,"SM Megamall, Ortigas, Mandaluyong City","SM Megamall, Ortigas, Mandaluyong City, Mandaluyong City",Mandaluyong City,,162,14.5850169766,121.0563858971,0,0
Tri - Mo Shawarma Co.,"Middle Eastern, Turkish",3.9,Good,210,P,400,2,Fairview,"Fairview, Quezon City",Quezon City,,162,14.7200621490,121.0656898096,0,0
Big Brat Burger,"Burger, Steak, American",3.9,Good,89,P,400,2,BF Homes,"BF Homes, Parañaque City",Parañaque City,,162,14.4456564919,121.0218688846,0,0
Banh Mi Kitchen,"Vietnamese, Asian",3.9,Good,73,P,400,2,"SM Megamall, Ortigas, Mandaluyong City","SM Megamall, Ortigas, Mandaluyong City, Mandaluyong City",Mandaluyong City,,162,14.5856808450,121.0562591627,0,0
Juju Eats,Healthy Food,3.9,Good,126,P,650,2,Magallanes,"Magallanes, Makati City",Makati City,,162,14.5347148535,121.0216043517,0,0
Faburrito,"Mexican, Tex-Mex",3.9,Good,124,P,500,2,"The Columns, Salcedo Village, Makati City","The Columns, Salcedo Village, Makati City, Makati City",Makati City,,162,14.5620090972,121.0163180530,0,0
Mandi's Grill Grub,Filipino,3.9,Good,55,P,400,2,"BENNT Building, Concepcion Dos, Marikina City","BENNT Building, Concepcion Dos, Marikina City, Marikina City",Marikina City,,162,14.6390907039,121.1219853535,0,0
CargoFish,Seafood,3.9,Good,71,P,500,2,"Uptown Place Mall, Bonifacio Global City, Taguig City","Uptown Place Mall, Bonifacio Global City, Taguig City, Taguig City",Taguig City,,162,14.5558096522,121.0544248670,0,0
Mang Raul's BBQ,"Filipino, Grill, BBQ",3.9,Good,121,P,150,1,Almanza,"Almanza, Las Piñas City",Las Piñas City,,162,14.4183703246,121.0142118484,0,0
Go Sushi,"Japanese, Sushi",3.9,Good,41,P,500,2,Project 8,"Project 8, Quezon City",Quezon City,,162,14.6708535203,121.0324247181,0,0
Pat Pat's Kansi,Filipino,3.9,Good,101,P,500,2,San Antonio,"San Antonio, Makati City",Makati City,,162,14.5662561875,121.0090358555,0,0
New Po Heng Lumpia House,"Chinese, Filipino",3.9,Good,57,P,100,1,Binondo,"Binondo, Manila",Manila,,162,14.5990658358,120.9749372676,0,0
PappaRam Malaysian Kitchen,Malaysian,3.9,Good,43,P,500,2,Calumpang,"Calumpang, Marikina City",Marikina City,,162,14.6234382293,121.0935666785,0,0
Nathaniel's Bakeshop,"Bakery, Filipino",3.9,Good,57,P,300,1,Tomas Morato,"Tomas Morato, Quezon City",Quezon City,,162,14.6361912686,121.0281147435,0,0
Bliss Bowls,Healthy Food,3.9,Good,39,P,500,2,"SM Megamall, Ortigas, Mandaluyong City","SM Megamall, Ortigas, Mandaluyong City, Mandaluyong City",Mandaluyong City,,162,14.5860069380,121.0576964915,0,0
Krispy Tomato Brick Oven Pizza,"American, Italian",3.8,Good,40,P,500,2,Loyola Heights,"Loyola Heights, Quezon City",Quezon City,,162,14.6394498056,121.0744301230,0,1
Bakmi Nyonya,Indonesian,3.9,Good,37,P,350,2,"Pioneer Street Market,Highway Hills, Mandaluyong City","Pioneer Street Market,Highway Hills, Mandaluyong City, Mandaluyong City",Mandaluyong City,,162,14.5731143778,121.0534653068,0,0
Auntie May's,"Filipino, American",3.9,Good,29,P,550,2,"Pioneer Street Market,Highway Hills, Mandaluyong City","Pioneer Street Market,Highway Hills, Mandaluyong City, Mandaluyong City",Mandaluyong City,,162,14.5730965308,121.0534646362,0,0
Dong Bei Dumpling,Chinese,3.8,Good,164,P,200,1,Binondo,"Binondo, Manila",Manila,,162,14.6007961270,120.9753161296,0,0
8065 Bagnet,Filipino,3.8,Good,225,P,400,2,San Antonio,"San Antonio, Makati City",Makati City,,162,14.5644853866,121.0094291344,0,0
Kanto Freestyle Breakfast,"Filipino, American",3.8,Good,105,P,350,2,Tomas Morato,"Tomas Morato, Quezon City",Quezon City,,162,14.6323919058,121.0343190283,0,0
Shawarma Snack Center,"Lebanese, Arabian, Middle Eastern",3.9,Good,142,P,500,2,Ermita,"Ermita, Manila",Manila,,162,14.5746634847,120.9818402678,0,0
Sweet Ecstasy,"Burger, Beverages",3.8,Good,92,P,600,2,"Uptown Parade, Bonifacio Global City, Taguig City","Uptown Parade, Bonifacio Global City, Taguig City, Taguig City",Taguig City,,162,14.5581279743,121.0540704802,0,0
Taco Bell,"Mexican, Fast Food",3.8,Good,145,P,400,2,"Gateway Mall, Cubao, Quezon City","Gateway Mall, Cubao, Quezon City, Quezon City",Quezon City,,162,14.6219450000,121.0529100000,0,0
Rodic's Diner,"Fast Food, Filipino",3.8,Good,233,P,250,1,Diliman,"Diliman, Quezon City",Quezon City,,162,14.6530050000,121.0530710000,0,0
Love Desserts,Desserts,3.8,Good,102,P,500,2,Fairview,"Fairview, Quezon City",Quezon City,,162,14.7058096059,121.0730276629,0,0
Taco Bell,"Mexican, Fast Food",3.8,Good,142,P,400,2,"Trinoma Mall, Bagong Pag-Asa, Quezon City","Trinoma Mall, Bagong Pag-Asa, Quezon City, Quezon City",Quezon City,,162,14.6526365730,121.0334432870,0,0
Tambai,Japanese,3.8,Good,121,P,300,1,Poblacion,"Poblacion, Makati City",Makati City,,162,14.5630121422,121.0307718068,0,0
The Snack Shack,"Fast Food, Burger",3.8,Good,159,P,200,1,Marikina Heights,"Marikina Heights, Marikina City",Marikina City,,162,14.6486850376,121.1122103781,0,0
Eat & Meet Restaurant,"Asian, Steak",3.8,Good,77,P,400,2,Concepcion Dos,"Concepcion Dos, Marikina City",Marikina City,,162,14.6427186745,121.1109638214,0,0
Viet Asia Restaurant,"Asian, Vietnamese, Healthy Food",3.8,Good,61,P,500,2,BF Homes,"BF Homes, Parañaque City",Parañaque City,,162,14.4545732221,121.0163981840,0,0
Tom Sawyer's,American,3.8,Good,88,P,400,2,"Tiendesitas, Ugong, Pasig City","Tiendesitas, Ugong, Pasig City, Pasig City",Pasig City,,162,14.5856480734,121.0773993284,0,0
Juju Eats,Healthy Food,3.8,Good,78,P,650,2,Libis,"Libis, Quezon City",Quezon City,,162,14.6078939747,121.0812459514,0,0
Big Scoop,"Desserts, Ice Cream, Filipino",3.7,Good,70,P,400,2,Greater San Juan,"Greater San Juan, San Juan City",San Juan City,,162,14.6078329803,121.0272302851,0,0
B.Wings,"Fast Food, American, Filipino",3.8,Good,93,P,400,2,Loyola Heights,"Loyola Heights, Quezon City",Quezon City,,162,14.6406043119,121.0733565688,0,0
Hunger Buster,Burger,3.8,Good,69,P,300,1,"University Mall, Malate, Manila","University Mall, Malate, Manila, Manila",Manila,,162,14.5631562220,120.9943795949,0,0
Cafe Mithi,Filipino,3.8,Good,44,P,500,2,Sikatuna Village,"Sikatuna Village, Quezon City",Quezon City,,162,14.6364118580,121.0611642525,0,0
Mai Wei Fang,"Chinese, Asian, Bakery, Dumplings, Oriental, Tea",3.8,Good,31,P,500,2,"Robinsons Place Manila, Ermita, Manila","Robinsons Place Manila, Ermita, Manila, Manila",Manila,,162,14.5760065328,120.9835183248,0,0
Chimara,Healthy Food,3.8,Good,79,P,500,2,"Greenbelt 3, San Lorenzo, Makati City","Greenbelt 3, San Lorenzo, Makati City, Makati City",Makati City,,162,14.5518470000,121.0214570000,0,0
H.I.D. Burgers,"American, Burger",3.8,Good,50,P,400,2,San Antonio,"San Antonio, Makati City",Makati City,,162,14.5599471780,121.0109170899,0,0
Papa Beer,American,3.8,Good,28,P,400,2,"Grub Hub Food Park, Tandang Sora, Quezon City","Grub Hub Food Park, Tandang Sora, Quezon City, Quezon City",Quezon City,,162,14.6715631861,121.0439860448,0,0
Casamigos Cantina,"Filipino, Mexican",3.8,Good,29,P,500,2,Concepcion Dos,"Concepcion Dos, Marikina City",Marikina City,,162,14.6381752676,121.1165488511,0,0
Hunchos,Mexican,3.8,Good,30,P,500,2,Concepcion Dos,"Concepcion Dos, Marikina City",Marikina City,,162,14.6444204004,121.1205939576,0,0
Oji-San Yakitori Bar,Japanese,3.8,Good,21,P,500,2,"Open Kitchen Congressional, Tandang Sora, Quezon City","Open Kitchen Congressional, Tandang Sora, Quezon City, Quezon City",Quezon City,,162,14.6732114960,121.0602861643,0,0
Elar's Lechon,Filipino,3.8,Good,44,P,350,2,Banawe,"Banawe, Quezon City",Quezon City,,162,14.6195720000,121.0033510000,0,0
The Snack Shack,"Fast Food, Burger",3.8,Good,33,P,200,1,Diliman,"Diliman, Quezon City",Quezon City,,162,14.6597444214,121.0684427619,0,0
Taka Ramen,Ramen,3.8,Good,26,P,500,2,"Open Kitchen P. Tuazon, Cubao, Quezon City","Open Kitchen P. Tuazon, Cubao, Quezon City, Quezon City",Quezon City,,162,14.6152378337,121.0460288823,0,0
Banh Mi Kitchen,"Vietnamese, Asian",3.8,Good,21,P,400,2,"Pearl Plaza, Ortigas, Pasig City","Pearl Plaza, Ortigas, Pasig City, Pasig City",Pasig City,,162,14.5801371900,121.0597822443,0,0
de Original Jamaican Pattie Shop and Juice Bar,Street Food,3.7,Good,29,P,180,1,"Greenbelt 1, San Lorenzo, Makati City","Greenbelt 1, San Lorenzo, Makati City, Makati City",Makati City,,162,14.5530000000,121.0225000000,0,0
Pan De Amerikana,"Bakery, Filipino",3.7,Good,207,P,200,1,Concepcion Dos,"Concepcion Dos, Marikina City",Marikina City,,162,14.6443811499,121.1144714803,0,0
Big Boy's Diner,"American, Burger",3.7,Good,101,P,500,2,Banawe,"Banawe, Quezon City",Quezon City,,162,14.6376526692,121.0057125986,0,1
8 Street Bites,American,3.7,Good,145,P,400,2,"SM City Manila, Ermita, Manila","SM City Manila, Ermita, Manila, Manila",Manila,,162,14.5902032739,120.9827924520,0,0
Amber's Best,Filipino,3.7,Good,145,P,250,1,San Antonio,"San Antonio, Makati City",Makati City,,162,14.5643455262,121.0117110238,0,0
Tasty Dumplings,"Taiwanese, Chinese",3.7,Good,133,P,500,2,Binondo,"Binondo, Manila",Manila,,162,14.6004960119,120.9748376906,0,0
Chubby Chicken,American,3.7,Good,157,P,300,1,Loyola Heights,"Loyola Heights, Quezon City",Quezon City,,162,14.6363742280,121.0731091350,0,0
Chomp Chomp,"Asian, Singaporean",3.7,Good,127,P,500,2,Malate,"Malate, Manila",Manila,,162,14.5651811180,120.9950400889,0,0
Pizza Warehouse,Pizza,3.7,Good,176,P,450,2,"Glorietta 3, Glorietta Complex, Makati CIty","Glorietta 3, Glorietta Complex, Makati CIty, Makati City",Makati City,,162,14.5505358981,121.0251384974,0,0
Udderly Delicious Milkshakes and Desserts,Beverages,3.7,Good,166,P,300,1,Concepcion Dos,"Concepcion Dos, Marikina City",Marikina City,,162,14.6406714606,121.1218884587,0,0
Tipsy Beans,"Filipino, American, Coffee",3.7,Good,71,P,500,2,Highway Hills,"Highway Hills, Mandaluyong City",Mandaluyong City,,162,14.5791261109,121.0482775793,0,0
Burrito Brothers,Mexican,3.7,Good,174,P,500,2,Concepcion Dos,"Concepcion Dos, Marikina City",Marikina City,,162,14.6391198991,121.1219199747,0,0
Boyong's - Chef B's Grilled Burger,"Burger, Filipino",3.7,Good,116,P,350,2,San Roque,"San Roque, Marikina City",Marikina City,,162,14.6244718137,121.0968198627,0,0
SweetLand Kitchen Central,"Desserts, American",3.7,Good,35,P,400,2,Del Monte,"Del Monte, Quezon City",Quezon City,,162,14.6339795232,121.0179957748,0,1
Chevy Burger,Burger,3.7,Good,108,P,400,2,Calumpang,"Calumpang, Marikina City",Marikina City,,162,14.6243559980,121.0959002003,0,0
Uncle Moe's Shawarma Hub,"Middle Eastern, Iranian",3.7,Good,123,P,500,2,BF Homes,"BF Homes, Parañaque City",Parañaque City,,162,14.4464480512,121.0206571966,0,0
Buddha-Bar Manila,"Asian, Chinese, Japanese",4.2,Very Good,156,P,2500,4,Poblacion,"Poblacion, Makati City",Makati City,,162,14.5649870000,121.0282470000,0,1
VU's Sky Bar and Lounge,European,4.2,Very Good,83,P,2000,4,"Marco Polo Ortigas Manila, Ortigas, Pasig City","Marco Polo Ortigas Manila, Ortigas, Pasig City, Pasig City",Pasig City,,162,14.5875361618,121.0634424537,0,0
Pura Vida,Latin American,4.2,Very Good,110,P,700,3,Poblacion,"Poblacion, Makati City",Makati City,,162,14.5638581232,121.0314738751,0,0
Firefly Roofdeck - City Garden Grand Hotel,"Finger Food, American, Asian, BBQ, Bar Food, Continental",4.1,Very Good,167,P,1000,3,"City Garden Grand Hotel, Poblacion, Makati City","City Garden Grand Hotel, Poblacion, Makati City, Makati City",Makati City,,162,14.5647089685,121.0292573646,0,0
High Street Lounge - Shangri-La at the Fort,International,4.1,Very Good,81,P,1700,4,"Shangri-La at the Fort, Bonifacio Global City, Taguig City","Shangri-La at the Fort, Bonifacio Global City, Taguig City, Taguig City",Taguig City,,162,14.5527887226,121.0468094051,0,1
Moonshine,"American, Filipino",4.0,Very Good,85,P,1600,4,"The Sapphire Bloc, Ortigas, Pasig City","The Sapphire Bloc, Ortigas, Pasig City, Pasig City",Pasig City,,162,14.5877074809,121.0632027313,0,0
Windows By the Bay - Hotel Jen Manila,"American, Healthy Food, Sandwich",3.8,Good,14,P,800,3,"Hotel Jen Manila, Buendia, Pasay City","Hotel Jen Manila, Buendia, Pasay City, Pasay City",Pasay City,,162,14.5587915992,120.9881132841,0,0
Straight Up,Finger Food,3.8,Good,23,P,1500,4,"Seda Vertis North, Bagong Pag-Asa, Quezon City ","Seda Vertis North, Bagong Pag-Asa, Quezon City , Quezon City",Quezon City,,162,14.6502570000,121.0357460000,0,0
Oz Bar - Holiday Inn & Suites Makati,"American, Finger Food",3.7,Good,20,P,1500,4,"Holiday Inn & Suites Makati, Glorietta Complex, Makati City","Holiday Inn & Suites Makati, Glorietta Complex, Makati City, Makati City",Makati City,1224,162,14.5504051154,121.0250291973,0,0
Pacific Lounge - Pan Pacific Manila,"American, American",3.7,Good,18,P,2000,4,"Pan Pacific Manila, Malate, Manila","Pan Pacific Manila, Malate, Manila, Manila",Manila,,162,14.5727415391,120.9844825789,0,0
Prohibition Liquor Lounge,Finger Food,3.7,Good,32,P,700,3,"Greenbelt 3, San Lorenzo, Makati City","Greenbelt 3, San Lorenzo, Makati City, Makati City",Makati City,,162,14.5519830000,121.0221180000,0,0
C Lounge,Finger Food,3.7,Good,35,P,1900,4,"Conrad Manila, Mall of Asia Complex (MOA), Pasay City","Conrad Manila, Mall of Asia Complex (MOA), Pasay City, Pasay City",Pasay City,1300,162,14.5315696571,120.9803513065,0,1
Lobby Lounge - Edsa Shangri-La,"Finger Food, Tea",3.6,Good,27,P,2000,4,"Edsa Shangri-La, Ortigas, Mandaluyong City","Edsa Shangri-La, Ortigas, Mandaluyong City, Mandaluyong City",Mandaluyong City,,162,14.5815363393,121.0570889711,0,0
Straight Up,Finger Food,3.6,Good,28,P,1500,4,Bonifacio Global City,"Bonifacio Global City, Taguig City",Taguig City,,162,14.5506423415,121.0531645641,0,0
Le Bar - Sofitel Philippine Plaza Manila,French,3.5,Good,47,P,2500,4,"Sofitel Philippine Plaza Manila, CCP Complex, Pasay City","Sofitel Philippine Plaza Manila, CCP Complex, Pasay City, Pasay City",Pasay City,,162,14.5545466367,120.9808840603,0,0
Lobby Lounge - Okada Manila,International,3.4,Average,16,P,3000,4,"Okada Manila, Entertainment City, Parañaque City","Okada Manila, Entertainment City, Parañaque City, Parañaque City",Parañaque City,,162,14.5127942635,120.9804575890,0,0
The Malt Room - Hotel Rembrandt,"Beverages, American",3.5,Good,31,P,1500,4,"Hotel Rembrandt, South Triangle, Tomas Morato, Quezon City","Hotel Rembrandt, South Triangle, Tomas Morato, Quezon City, Quezon City",Quezon City,,162,14.6375971978,121.0359488055,0,1
Center Stage Family KTV & Resto Bar,"Italian, Filipino, American",3.4,Average,39,P,1000,3,"SM by the Bay, SM Mall of Asia, Mall of Asia Complex (MOA), Pasay City","SM by the Bay, SM Mall of Asia, Mall of Asia Complex (MOA), Pasay City, Pasay City",Pasay City,,162,14.5398552757,120.9798748791,0,0
Moonshine,"American, Filipino",3.5,Good,33,P,1600,4,"Glorietta 1, Glorietta Complex, Makati City","Glorietta 1, Glorietta Complex, Makati City, Makati City",Makati City,,162,14.5513410000,121.0244790000,0,0
FYRE Rooftop Lounge,Finger Food,3.4,Average,28,P,800,3,Poblacion,"Poblacion, Makati City",Makati City,,162,14.5651310000,121.0310260000,0,1
Monkey Mic Family KTV,"American, Filipino",3.4,Average,23,P,1000,3,Tandang Sora,"Tandang Sora, Quezon City",Quezon City,,162,14.6724976191,121.0621117428,0,0
Music Bank,"Asian, American, Filipino",3.4,Average,21,P,700,3,"HK Sun Plaza, Libertad, Pasay City","HK Sun Plaza, Libertad, Pasay City, Pasay City",Pasay City,,162,14.5453382826,120.9877957776,0,0
The Lounge - New World Makati Hotel,Finger Food,3.4,Average,12,P,2500,4,"New World Makati Hotel, San Lorenzo, Makati City","New World Makati Hotel, San Lorenzo, Makati City, Makati City",Makati City,,162,14.5509691354,121.0216107220,0,0
Salon De Ning - The Peninsula,Drinks Only,3.4,Average,20,P,3500,4,"The Peninsula, Urdaneta, Makati City","The Peninsula, Urdaneta, Makati City, Makati City",Makati City,,162,14.5549110000,121.0254330000,0,0
The Lobby Lounge - Crimson Hotel,"European, Middle Eastern, Mediterranean",3.3,Average,11,P,1200,3,"Crimson Hotel, Filinvest City, Muntinlupa City","Crimson Hotel, Filinvest City, Muntinlupa City, Muntinlupa City",Muntinlupa City,,162,14.4199974709,121.0424404219,0,0
Lobby Lounge - Diamond Hotel,"French, Coffee",3.3,Average,23,P,1500,4,"Diamond Hotel, Malate, Manila","Diamond Hotel, Malate, Manila, Manila",Manila,,162,14.5708426157,120.9824340418,0,0
Music Bank,"Asian, American, Filipino",3.3,Average,27,P,700,3,Tomas Morato,"Tomas Morato, Quezon City",Quezon City,,162,14.6347528905,121.0361526534,0,0
The Red Piano,"European, American, International, Spanish, Asian, Italian, French, Steak",3.4,Average,23,P,1700,4,"The Plaza at Arya Residences, Bonifacio Global City, Taguig City","The Plaza at Arya Residences, Bonifacio Global City, Taguig City, Taguig City",Taguig City,,162,14.5474616739,121.0478987172,0,0
HidN Lounge,"Finger Food, Fusion, Bar Food, Beverages, Filipino",3.3,Average,16,P,900,3,Tomas Morato,"Tomas Morato, Quezon City",Quezon City,,162,14.6348459929,121.0306148976,0,1
Society Lounge,"French, Asian",3.3,Average,11,P,2300,4,Urdaneta,"Urdaneta, Makati City",Makati City,,162,14.5570480000,121.0261620000,0,0
Avenue 75,Finger Food,3.3,Average,18,P,800,3,BF Homes,"BF Homes, Parañaque City",Parañaque City,,162,14.4454277778,121.0225305556,0,0
Music Match,Filipino,3.2,Average,15,P,1000,3,"Home Depot, Ugong, Pasig City","Home Depot, Ugong, Pasig City, Pasig City",Pasig City,,162,14.5850581845,121.0657934099,0,0
Music 21 Plaza,"Filipino, Finger Food",3.2,Average,31,P,1000,3,Tomas Morato,"Tomas Morato, Quezon City",Quezon City,,162,14.6357575503,121.0312743858,0,0
Lounge Lizard,American,3.2,Average,13,P,800,3,BF Homes,"BF Homes, Parañaque City",Parañaque City,,162,14.4553120000,121.0124570000,0,0
Club Lounge - Hotel H2O,Finger Food,3.2,Average,10,P,2000,4,"Manila Ocean Park, Ermita, Manila","Manila Ocean Park, Ermita, Manila, Manila",Manila,,162,14.5791987946,120.9726711363,0,0
Music Match,Filipino,3.2,Average,12,P,1000,3,Tomas Morato,"Tomas Morato, Quezon City",Quezon City,,162,14.6331983676,121.0351062566,0,0
Music Bank,"Asian, American, Filipino",3.2,Average,9,P,700,3,Libis,"Libis, Quezon City",Quezon City,,162,14.6091086677,121.0769396648,0,0
Vanity Club,Drinks Only,3.1,Average,23,P,1000,3,Tomas Morato,"Tomas Morato, Quezon City",Quezon City,,162,14.6304950000,121.0344340000,0,0
Karaoke Pop,Finger Food,3.1,Average,9,P,700,3,"Manhattan Parkview, Cubao, Quezon City","Manhattan Parkview, Cubao, Quezon City, Quezon City",Quezon City,,162,14.6227355449,121.0545640066,0,0
Song Hits,"Filipino, Finger Food",3.1,Average,8,P,1000,3,"Metrowalk Commercial Complex, Ugong, Pasig City","Metrowalk Commercial Complex, Ugong, Pasig City, Pasig City",Pasig City,,162,14.5872412200,121.0639896244,0,0
Star Sisig ATBP,Filipino,3.1,Average,14,P,500,2,Plainview,"Plainview, Mandaluyong City",Mandaluyong City,1550,162,14.5711366060,121.0306256264,0,0
Turtles Family KTV,Filipino,3.1,Average,5,P,600,2,Project 6,"Project 6, Quezon City",Quezon City,,162,14.6620438079,121.0440980271,0,0
Nostalgia Bar Lounge,Finger Food,3.1,Average,6,P,2300,4,"Joy~Nostalg Hotel & Suites Manila, Ortigas, Pasig City","Joy~Nostalg Hotel & Suites Manila, Ortigas, Pasig City, Pasig City",Pasig City,,162,14.5876153320,121.0598948970,0,0
The Lounge - AG New World Manila Bay Hotel,Drinks Only,3.1,Average,3,P,1300,3,"AG New World Manila Bay Hotel, Malate, Manila","AG New World Manila Bay Hotel, Malate, Manila, Manila",Manila,,162,14.5735952705,120.9824615344,0,0
Music 21 Plaza,"Filipino, Finger Food",3.1,Average,5,P,1000,3,Pio del Pilar,"Pio del Pilar, Makati City",Makati City,,162,14.5568055861,121.0131862387,0,0
Lobby Lounge - Pan Pacific Manila,"Middle Eastern, Filipino",3.1,Average,5,P,2000,4,"Pan Pacific Manila, Malate, Manila","Pan Pacific Manila, Malate, Manila, Manila",Manila,1004,162,14.5725611226,120.9844886139,0,0
Turtles Family KTV,Filipino,3.0,Average,21,P,600,2,BF Homes,"BF Homes, Parañaque City",Parañaque City,,162,14.4458266222,121.0218192637,0,0
Lush Bar and Lounge - Luxent Hotel,"Asian, European, American",3.0,Average,8,P,2500,4,Tomas Morato,"Tomas Morato, Quezon City",Quezon City,,162,14.6350004064,121.0343813896,0,0
Lobby Lounge - Hotel Jen Manila,Finger Food,3.0,Average,2,P,3500,4,"Hotel Jen Manila, Buendia, Pasay City","Hotel Jen Manila, Buendia, Pasay City, Pasay City",Pasay City,,162,14.5577807467,120.9879754856,0,0
Rockstar KTV,"Filipino, American, Asian",2.9,Average,8,P,1000,3,"SM Aura Premier, Bonifacio Global City, Taguig City","SM Aura Premier, Bonifacio Global City, Taguig City, Taguig City",Taguig City,,162,14.5457770471,121.0534304380,0,0
Music 21 Plaza,"Filipino, Finger Food",2.9,Average,5,P,1000,3,Baclaran,"Baclaran, Pasay City",Pasay City,,162,14.5373017935,120.9954665601,0,0
Music 21 Plaza,"Filipino, Finger Food",2.9,Average,6,P,1000,3,Malate,"Malate, Manila",Manila,,162,14.5719095453,120.9840433672,0,0
Turtles Family KTV,Filipino,2.9,Average,8,P,600,2,Fairview,"Fairview, Quezon City",Quezon City,,162,14.7052323633,121.0802253708,0,0
Music Platinum,Filipino,2.9,Average,5,P,1200,3,"Metrowalk Commercial Complex, Ugong, Pasig City","Metrowalk Commercial Complex, Ugong, Pasig City, Pasig City",Pasig City,,162,14.5867382931,121.0643688217,0,1
I'm A Singer Family KTV & Restaurant,Finger Food,2.9,Average,5,P,900,3,Diliman,"Diliman, Quezon City",Quezon City,,162,14.6450834407,121.0520095378,0,0
Jardin Garden Club - Remington Hotel,"Spanish, Filipino",2.9,Average,6,P,1000,3,Newport City,"Newport City, Pasay City",Pasay City,,162,14.5180000000,121.0192500000,0,0
Turtles Family KTV,Filipino,2.9,Average,4,P,600,2,New Manila,"New Manila, Quezon City",Quezon City,,162,14.6242534832,121.0352883115,0,0
Lobby Lounge - Ramada Manila Central,Drinks Only,2.9,Average,2,P,1500,4,Binondo,"Binondo, Manila",Manila,,162,14.5999970087,120.9750522673,0,0
The Club Chicago,Finger Food,2.8,Average,6,P,1000,3,Ugong,"Ugong, Pasig City",Pasig City,,162,14.5860374382,121.0638669133,0,0
Music 21 Plaza,"Filipino, Finger Food",2.7,Average,6,P,1000,3,Alabang,"Alabang, Muntinlupa City",Muntinlupa City,,162,14.4276294107,121.0233343765,0,0
Celebrity Lounge Family KTV and Restobar,"American, Filipino",2.6,Average,13,P,600,2,Addition Hills,"Addition Hills, Mandaluyong City",Mandaluyong City,,162,14.5884401282,121.0433141515,0,0
Red Box,"Filipino, Japanese",2.3,Poor,70,P,1500,4,"Greenbelt 3, San Lorenzo, Makati City","Greenbelt 3, San Lorenzo, Makati City, Makati City",Makati City,,162,14.5519710000,121.0217820000,0,0
Upperstar Family KTV,"Filipino, Korean, Asian",0,Not rated,0,P,900,3,Batasan Hills,"Batasan Hills, Quezon City",Quezon City,,162,14.6826557931,121.0793036968,0,0
Lemon Box Family KTV Bar,"Asian, Chinese",0,Not rated,3,P,800,3,Binondo,"Binondo, Manila",Manila,,162,14.6032476471,120.9731458873,0,0
Music 11 Plaza,Finger Food,0,Not rated,3,P,900,3,Bel-Air,"Bel-Air, Makati City",Makati City,,162,14.5629140000,121.0258510000,0,0
Perfect Hits Family KTV & Resto Bar,"Filipino, American",0,Not rated,2,P,800,3,Manggahan,"Manggahan, Pasig City",Pasig City,,162,14.6077126137,121.1042063311,0,0
Turtles Family KTV,Filipino,0,Not rated,0,P,600,2,West Triangle,"West Triangle, Quezon City",Quezon City,,162,14.6434000000,121.0273830000,0,0
Playlist,Finger Food,0,Not rated,3,P,700,3,"Metrowalk Commercial Complex, Ugong, Pasig City","Metrowalk Commercial Complex, Ugong, Pasig City, Pasig City",Pasig City,,162,14.5875471937,121.0643963143,0,0
Lanai Lounge at Antonio's,Finger Food,0,Not rated,3,P,1500,4,Tagaytay City,"Tagaytay City, Tagaytay City",Tagaytay City,,162,14.1004519764,120.8936428651,0,0
Mad Voice Family KTV & Restaurant,American,0,Not rated,2,P,500,2,San Antonio,"San Antonio, Parañaque City",Parañaque City,,162,14.4592040000,121.0313020000,0,0
The Lounge - Grand Hyatt Manila,European,0,Not rated,3,P,2500,4,"Grand Hyatt Manila, Bonifacio Global City, Taguig City","Grand Hyatt Manila, Bonifacio Global City, Taguig City, Taguig City",Taguig City,1634,162,14.5567070000,121.0520060000,0,0
Bar Rouge - New World Makati Hotel,Finger Food,0,Not rated,3,P,1400,4,"New World Makati Hotel, San Lorenzo, Makati City","New World Makati Hotel, San Lorenzo, Makati City, Makati City",Makati City,,162,14.5514828531,121.0217180103,0,0
Dos Lunas - The Sulô Riviera,Drinks Only,0,Not rated,0,P,1300,3,"The Sulô Riviera, Diliman, Quezon City","The Sulô Riviera, Diliman, Quezon City, Quezon City",Quezon City,,162,14.6447032632,121.0491157696,0,0
Turtles Family KTV,Filipino,0,Not rated,2,P,600,2,Concepcion Uno,"Concepcion Uno, Marikina City",Marikina City,,162,14.6504960316,121.1065381765,0,0
Fort 101 Family KTV,"American, Asian",0,Not rated,1,P,800,3,"The Fort Strip, Bonifacio Global City, Taguig City","The Fort Strip, Bonifacio Global City, Taguig City, Taguig City",Taguig City,,162,14.5495660000,121.0487610000,0,0
S n S Music Lounge,Filipino,0,Not rated,1,P,950,3,BF Homes,"BF Homes, Parañaque City",Parañaque City,,162,14.4448204490,121.0287598148,0,0
Tree Top Lounge - Acacia Hotel,International,0,Not rated,1,P,1200,3,"Acacia Hotel, Filinvest City, Muntinlupa City","Acacia Hotel, Filinvest City, Muntinlupa City, Muntinlupa City",Muntinlupa City,,162,14.4206205956,121.0355380923,0,0
Brothers Family KTV & Restaurant,"Filipino, Korean",0,Not rated,1,P,1200,3,Malate,"Malate, Manila",Manila,,162,14.5704272646,120.9858028963,0,0
Ped Xing,Finger Food,0,Not rated,0,P,500,2,"The Nest Food and Lifestyle Park, Palingon, Taguig City","The Nest Food and Lifestyle Park, Palingon, Taguig City, Taguig City",Taguig City,,162,14.5377321359,121.0751154274,0,0
Opera Karaoke Bar,Filipino,0,Not rated,0,P,800,3,Santa Cruz,"Santa Cruz, Manila",Manila,,162,14.6053497161,120.9815365076,0,0
The Lounge at Felipe and Sons,Drinks Only,0,Not rated,1,P,700,3,"Net Quad, Bonifacio Global City, Taguig City","Net Quad, Bonifacio Global City, Taguig City, Taguig City",Taguig City,,162,14.5529240472,121.0472761095,0,0
Mames Billiards Station,"Asian, American",0,Not rated,0,P,700,3,Project 2,"Project 2, Quezon City",Quezon City,,162,14.6280344955,121.0629693791,0,0
V Lounge Bar,Drinks Only,0,Not rated,0,P,1000,3,Diliman,"Diliman, Quezon City",Quezon City,,162,14.6403311755,121.0550602153,0,0
Playtaste,American,0,Not rated,0,P,0,1,Addition Hills,"Addition Hills, Mandaluyong City",Mandaluyong City,,162,14.5903590166,121.0382635519,0,0
Blu Cafe and Lounge,Coffee,0,Not rated,0,P,2000,4,Santa Cruz,"Santa Cruz, Manila",Manila,,162,14.6014962860,120.9800123423,0,0
Scarlet Wine Lounge,Finger Food,0,Not rated,0,P,0,1,Bonifacio Global City,"Bonifacio Global City, Taguig City",Taguig City,,162,14.5494370000,121.0476720000,0,0
The Belle & Dragon,"Japanese, Asian, European",4.8,Excellent,246,P,1800,4,Legaspi Village,"Legaspi Village, Makati City",Makati City,,162,14.5557505905,121.0195279867,0,1
Raging Bull Chophouse & Bar - Shangri-La at the Fort,Steak,4.7,Excellent,174,P,2500,4,"Shangri-La at the Fort, Bonifacio Global City, Taguig City","Shangri-La at the Fort, Bonifacio Global City, Taguig City, Taguig City",Taguig City,,162,14.5521520148,121.0467835888,0,1
Waterside - Solaire Resort & Casino,Latin American,4.6,Excellent,155,P,1800,4,"Solaire Resort & Casino, Entertainment City, Parañaque City","Solaire Resort & Casino, Entertainment City, Parañaque City, Parañaque City",Parañaque City,,162,14.5224444073,120.9805155918,0,1
The Penthouse 8747,International,4.3,Very Good,154,P,1400,4,Salcedo Village,"Salcedo Village, Makati City",Makati City,,162,14.5578563580,121.0243619978,0,1
The PigPen,American,4.3,Very Good,106,P,900,3,Legaspi Village,"Legaspi Village, Makati City",Makati City,,162,14.5576519154,121.0183598846,0,0
i Darts DASH,"Asian, American, Finger Food",4.2,Very Good,34,P,1000,3,"Bonifacio High Street Central, Bonifacio Global City, Taguig City","Bonifacio High Street Central, Bonifacio Global City, Taguig City, Taguig City",Taguig City,,162,14.5521309210,121.0494232178,0,0
Ziggurat,"Indian, African",4.2,Very Good,176,P,1000,3,Poblacion,"Poblacion, Makati City",Makati City,,162,14.5635663948,121.0294263437,0,1
Gourmet Bar By Novotel,International,4.2,Very Good,53,P,1900,4,"Novotel Manila, Araneta Center, Quezon City","Novotel Manila, Araneta Center, Quezon City, Quezon City",Quezon City,,162,14.6198813125,121.0543611646,0,0
El Chupacabra,Tex-Mex,4.1,Very Good,668,P,700,3,Poblacion,"Poblacion, Makati City",Makati City,,162,14.5627418299,121.0307081044,0,0
Polilya,"Finger Food, Asian, European, American",4.1,Very Good,55,P,700,3,Poblacion,"Poblacion, Makati City",Makati City,,162,14.5639356794,121.0315241665,0,0
The Fat Seed Cafe + Roastery,"American, Asian",4.1,Very Good,59,P,1000,3,"UP Town Center, Diliman, Quezon City","UP Town Center, Diliman, Quezon City, Quezon City",Quezon City,,162,14.6519638244,121.0749494657,0,0
Encima Roofdeck Restaurant,"Mexican, Tex-Mex, Asian",4.1,Very Good,61,P,1200,3,"City Garden Hotel, Poblacion, Makati City","City Garden Hotel, Poblacion, Makati City, Makati City",Makati City,1210,162,14.5642575860,121.0291641578,0,1
A'Toda Madre,"Mexican, Finger Food",4.1,Very Good,67,P,1000,3,Poblacion,"Poblacion, Makati City",Makati City,,162,14.5639762422,121.0294216499,0,0
ABV,"European, Finger Food",4.1,Very Good,60,P,1400,4,Bel-Air,"Bel-Air, Makati City",Makati City,,162,14.5584030000,121.0334480000,0,0
Filling Station,"American, Filipino",4.0,Very Good,492,P,1600,4,Poblacion,"Poblacion, Makati City",Makati City,1210,162,14.5631435663,121.0298005119,0,0
Tipsy Pig Gastropub,"American, Steak",4.0,Very Good,438,P,800,3,"Capitol Commons, Oranbo, Pasig City","Capitol Commons, Oranbo, Pasig City, Pasig City",Pasig City,,162,14.5747358453,121.0625066981,0,0
Vue Bar - The Bellevue Manila,American,4.0,Very Good,48,P,1500,4,"The Bellevue Manila, Filinvest City, Muntinlupa City","The Bellevue Manila, Filinvest City, Muntinlupa City, Muntinlupa City",Muntinlupa City,,162,14.4239203024,121.0395912454,0,0
Siam Thai BBQ & Sports Bar,"Thai, BBQ",4.0,Very Good,57,P,1100,3,"Pioneer Center Supermart, Kapitolyo, Pasig City","Pioneer Center Supermart, Kapitolyo, Pasig City, Pasig City",Pasig City,,162,14.5734304302,121.0574832559,0,1
Vatos Urban Tacos,"Mexican, Korean",4.0,Very Good,50,P,1000,3,"Net Park, Bonifacio Global City, Taguig City","Net Park, Bonifacio Global City, Taguig City, Taguig City",Taguig City,,162,14.5498216226,121.0470129177,0,1
Element,"European, Mediterranean, International",4.0,Very Good,20,P,1500,4,Poblacion,"Poblacion, Makati City",Makati City,,162,14.5651632705,121.0309555382,0,1
Chotto Matte,Japanese,4.0,Very Good,48,P,1500,4,"Net Park, Bonifacio Global City, Taguig City","Net Park, Bonifacio Global City, Taguig City, Taguig City",Taguig City,,162,14.5500646907,121.0469706729,0,1
Draft Restaurant & Brewery,"American, European, Asian",4.0,Very Good,23,P,1700,4,"Power Plant Mall, Rockwell, Makati City","Power Plant Mall, Rockwell, Makati City, Makati City",Makati City,,162,14.5648647293,121.0363846645,0,0
Lobo Filipino Tavern,Filipino,4.0,Very Good,39,P,500,2,Poblacion,"Poblacion, Makati City",Makati City,,162,14.5628213336,121.0300905258,0,0
Wok by 4900,Asian,4.0,Very Good,31,P,600,2,Poblacion,"Poblacion, Makati City",Makati City,,162,14.5628145190,121.0300982371,0,0
Mandalay,"Asian, European",4.0,Very Good,29,P,1800,4,Legaspi Village,"Legaspi Village, Makati City",Makati City,,162,14.5558245799,121.0195031762,0,0
Big Bad Wolf,"American, Asian, Filipino, Italian, Pizza",3.9,Good,132,P,1200,3,"Burgos Circle, Bonifacio Global City, Taguig City","Burgos Circle, Bonifacio Global City, Taguig City, Taguig City",Taguig City,,162,14.5515523006,121.0438767448,0,0
Dillingers 1903,American,3.9,Good,218,P,1200,3,"Greenbelt 3, San Lorenzo, Makati City","Greenbelt 3, San Lorenzo, Makati City, Makati City",Makati City,,162,14.5518650000,121.0221710000,0,1
Skewered,Asian,3.9,Good,38,P,800,3,"Festival Mall, Filinvest City, Muntinlupa City ","Festival Mall, Filinvest City, Muntinlupa City , Muntinlupa City",Muntinlupa City,,162,14.4154812000,121.0414929000,0,0
Sky Deck - The Bayleaf Hotel,Asian,3.9,Good,196,P,1500,4,"The Bayleaf Hotel, Intramuros, Manila","The Bayleaf Hotel, Intramuros, Manila, Manila",Manila,,162,14.5900439619,120.9799472988,0,0
Draft Restaurant & Brewery,"American, European, Asian",3.9,Good,150,P,1700,4,"Greenbelt 2, San Lorenzo, Makati City","Greenbelt 2, San Lorenzo, Makati City, Makati City",Makati City,,162,14.5521500000,121.0201230000,0,0
Rue Bourbon,"American, Finger Food",3.9,Good,188,P,1000,3,"Burgos Circle, Bonifacio Global City, Taguig City","Burgos Circle, Bonifacio Global City, Taguig City, Taguig City",Taguig City,,162,14.5522678685,121.0468895361,0,0
Draft Restaurant & Brewery,"American, European, Asian",3.9,Good,116,P,1700,4,"Molito Commercial Complex, Alabang, Mutinlupa City","Molito Commercial Complex, Alabang, Mutinlupa City, Muntinlupa City",Muntinlupa City,,162,14.4229393575,121.0264675319,0,0
The Brewery at The Palace,Finger Food,3.9,Good,99,P,1000,3,"The Palace, Bonifacio Global City, Taguig City","The Palace, Bonifacio Global City, Taguig City, Taguig City",Taguig City,,162,14.5578200000,121.0543290000,0,0
McLaren's Pub,American,3.9,Good,91,P,1000,3,Greenhills,"Greenhills, San Juan City",San Juan City,,162,14.5973819278,121.0404934734,0,0
Barcino,Spanish,3.9,Good,83,P,1700,4,"Power Plant Mall, Rockwell, Makati City","Power Plant Mall, Rockwell, Makati City, Makati City",Makati City,,162,14.5650590000,121.0362080000,0,0
The Beech,"Filipino, Finger Food, American",3.9,Good,96,P,650,2,Tomas Morato,"Tomas Morato, Quezon City",Quezon City,,162,14.6397586261,121.0329594836,0,0
Alegria Cozinha Moderna & Sangria Bar,Latin American,3.9,Good,73,P,1200,3,"Bonifacio High Street, Bonifacio Global City, Taguig City","Bonifacio High Street, Bonifacio Global City, Taguig City, Taguig City",Taguig City,,162,14.5520450000,121.0497030000,0,0
The Perfect Pint,"Filipino, Spanish, Italian",3.9,Good,55,P,1400,4,"Greenbelt 2, San Lorenzo, Makati City","Greenbelt 2, San Lorenzo, Makati City, Makati City",Makati City,,162,14.5516937918,121.0203762352,0,1
The Minokaua,Filipino,3.9,Good,26,P,700,3,Malate,"Malate, Manila",Manila,,162,14.5693359907,120.9865334630,0,0
Mirèio,"French, Mediterranean",3.9,Good,31,P,4000,4,"Raffles Hotel, San Lorenzo, Makati City","Raffles Hotel, San Lorenzo, Makati City, Makati City",Makati City,,162,14.5510246286,121.0229380801,0,0
Yes Please,Finger Food,3.9,Good,43,P,1000,3,Bonifacio Global City,"Bonifacio Global City, Taguig City",Taguig City,,162,14.5583620000,121.0558770000,0,0
Alamat Filipino Pub & Deli,Filipino,3.9,Good,46,P,700,3,Poblacion,"Poblacion, Makati City",Makati City,,162,14.5636355140,121.0312995315,0,0
Tomatito Sexy Tapas Bar,Spanish,3.8,Good,135,P,1500,4,Bonifacio Global City,"Bonifacio Global City, Taguig City",Taguig City,,162,14.5511914328,121.0530458763,0,0
Rue Bourbon,"American, Finger Food",3.8,Good,186,P,1000,3,"Eastwood Citywalk 1, Libis, Quezon City","Eastwood Citywalk 1, Libis, Quezon City, Quezon City",Quezon City,,162,14.6095365988,121.0811450332,0,0
Tipsy Pig Gastropub,"American, Steak, American, Steak",3.8,Good,160,P,800,3,"Burgos Circle, Bonifacio Global City, Taguig City","Burgos Circle, Bonifacio Global City, Taguig City, Taguig City",Taguig City,,162,14.5505271360,121.0442331433,0,0
Barcino,Spanish,3.8,Good,150,P,1700,4,"Greenbelt 2, San Lorenzo, Makati City","Greenbelt 2, San Lorenzo, Makati City, Makati City",Makati City,,162,14.5521500000,121.0201230000,0,1
Rue Bourbon,"American, Finger Food",3.8,Good,149,P,1000,3,Salcedo Village,"Salcedo Village, Makati City",Makati City,,162,14.5611699237,121.0248193145,0,0
Pablo's Pub and Restaurant,"American, Spanish, Filipino",3.8,Good,99,P,1250,3,"The Forum, Bonifacio Global City, Taguig City","The Forum, Bonifacio Global City, Taguig City, Taguig City",Taguig City,,162,14.5478728494,121.0489883646,0,1
Tipple & Slaw,"American, European",3.8,Good,80,P,1300,3,"The Forum, Bonifacio Global City, Taguig City","The Forum, Bonifacio Global City, Taguig City, Taguig City",Taguig City,,162,14.5474344136,121.0485625640,0,0
Game Over PH,"American, Italian",3.8,Good,87,P,700,3,Loyola Heights,"Loyola Heights, Quezon City",Quezon City,,162,14.6361075743,121.0667707399,0,0
Skippy's Bar & Grill,"Australian, Steak",3.8,Good,65,P,1500,4,"The Forum, Bonifacio Global City, Taguig City","The Forum, Bonifacio Global City, Taguig City, Taguig City",Taguig City,,162,14.5474260000,121.0490570000,0,0
Barcino,Spanish,3.8,Good,95,P,1700,4,"Burgos Circle, Bonifacio Global City, Taguig City","Burgos Circle, Bonifacio Global City, Taguig City, Taguig City",Taguig City,,162,14.5519365333,121.0460010544,0,0
Churchill,Finger Food,3.8,Good,17,P,1000,3,"Estancia Mall, Oranbo, Pasig City","Estancia Mall, Oranbo, Pasig City, Pasig City",Pasig City,,162,14.5758653817,121.0642444342,0,0
St. Patrick's,"Irish, American",3.8,Good,110,P,900,3,Kapitolyo,"Kapitolyo, Pasig City",Pasig City,,162,14.5706514894,121.0605584085,0,0
Rue Bourbon,"American, Finger Food",3.8,Good,93,P,1000,3,Tomas Morato,"Tomas Morato, Quezon City",Quezon City,,162,14.6367064094,121.0363072157,0,0
Barcino,Spanish,3.8,Good,30,P,1700,4,"Ayala Malls The 30th, Ugong, Pasig City","Ayala Malls The 30th, Ugong, Pasig City, Pasig City",Pasig City,,162,14.5806505153,121.0641867667,0,0
Little Persia,"Middle Eastern, Iranian",3.8,Good,58,P,700,3,San Antonio,"San Antonio, Makati City",Makati City,,162,14.5590716516,121.0085436702,0,0
Trellis,"Filipino, Healthy Food",3.8,Good,81,P,1000,3,Diliman,"Diliman, Quezon City",Quezon City,,162,14.6454727001,121.0526951775,0,0
Finders Keepers,Drinks Only,3.8,Good,78,P,600,2,San Lorenzo,"San Lorenzo, Makati City",Makati City,,162,14.5449660000,121.0164410000,0,0
TAS Roofdeck,"Grill, Filipino",3.8,Good,56,P,600,2,BF Homes,"BF Homes, Parañaque City",Parañaque City,,162,14.4449659044,121.0265308991,0,0
Bank Bar,Finger Food,3.8,Good,51,P,2000,4,Bonifacio Global City,"Bonifacio Global City, Taguig City",Taguig City,,162,14.5487704880,121.0474836454,0,0
RM 16,Finger Food,3.8,Good,32,P,500,2,Kapitolyo,"Kapitolyo, Pasig City",Pasig City,,162,14.5716230194,121.0607149825,0,0
Long Bar - Raffles Hotel,"Asian, International",3.9,Good,34,P,2300,4,"Raffles Hotel, San Lorenzo, Makati City","Raffles Hotel, San Lorenzo, Makati City, Makati City",Makati City,,162,14.5505647806,121.0233179480,0,0
LIT,"Drinks Only, Japanese, Steak",3.8,Good,21,P,1000,3,"Serendra, Bonifacio Global City, Taguig City","Serendra, Bonifacio Global City, Taguig City, Taguig City",Taguig City,,162,14.5496166667,121.0535888889,0,0
Sky High Bar - Ace Hotel & Suites,"American, Asian",3.7,Good,137,P,1200,3,"Ace Hotel & Suites, Kapitolyo, Pasig City","Ace Hotel & Suites, Kapitolyo, Pasig City, Pasig City",Pasig City,,162,14.5734914341,121.0589772463,0,0
Bugsy's Bar & Bistro,American,3.7,Good,162,P,1500,4,"Burgos Circle, Bonifacio Global City, Taguig City","Burgos Circle, Bonifacio Global City, Taguig City, Taguig City",Taguig City,,162,14.5513780327,121.0441778228,0,0
Kite Kebab Bar,Mediterranean,3.7,Good,73,P,600,2,Poblacion,"Poblacion, Makati City",Makati City,,162,14.5631312352,121.0304667056,0,0
Alchemy Bistro Bar,"European, Italian",3.7,Good,91,P,1300,3,Poblacion,"Poblacion, Makati City",Makati City,,162,14.5628739033,121.0302098841,0,1
Punta,Latin American,3.7,Good,60,P,1100,3,"Liberty Center, Pleasant Hills, Mandaluyong City","Liberty Center, Pleasant Hills, Mandaluyong City, Mandaluyong City",Mandaluyong City,,162,14.5885098885,121.0413420573,0,0
The Perfect Pint,"Filipino, Spanish, Italian",3.7,Good,68,P,1400,4,"Molito Commercial Complex, Alabang, Mutinlupa City","Molito Commercial Complex, Alabang, Mutinlupa City, Muntinlupa City",Muntinlupa City,,162,14.4239573191,121.0262633488,0,1
Barcino,Spanish,3.7,Good,45,P,1700,4,"Ayala Malls Vertis North, Bagong Pag-asa, Quezon City","Ayala Malls Vertis North, Bagong Pag-asa, Quezon City, Quezon City",Quezon City,,162,14.6517150301,121.0359357297,0,1
Barcino,Spanish,3.7,Good,58,P,1700,4,"SM Aura Premier, Bonifacio Global City, Taguig City","SM Aura Premier, Bonifacio Global City, Taguig City, Taguig City",Taguig City,,162,14.5468606488,121.0547044873,0,0
Barcino,Spanish,3.7,Good,56,P,1700,4,"Alabang Town Center, Alabang, Muntinlupa City","Alabang Town Center, Alabang, Muntinlupa City, Muntinlupa City",Muntinlupa City,,162,14.4222834435,121.0298927128,0,0
Nommu,Japanese,3.7,Good,38,P,1000,3,"Metrowalk Commercial Complex, Ugong, Pasig City","Metrowalk Commercial Complex, Ugong, Pasig City, Pasig City",Pasig City,,162,14.5874576404,121.0645552352,0,0
Reserve Gastro Tavern,Asian,3.7,Good,60,P,1400,4,"Burgos Circle, Bonifacio Global City, Taguig City","Burgos Circle, Bonifacio Global City, Taguig City, Taguig City",Taguig City,,162,14.5523418591,121.0448889434,0,0
Z Hostel Roofdeck,Finger Food,3.7,Good,62,P,700,3,Poblacion,"Poblacion, Makati City",Makati City,,162,14.5637922490,121.0314158723,0,0
Snaps - Sofitel Philippine Plaza Manila,"Filipino, American",3.7,Good,43,P,3500,4,"Sofitel Philippine Plaza Manila, CCP Complex, Pasay City","Sofitel Philippine Plaza Manila, CCP Complex, Pasay City, Pasay City",Pasay City,,162,14.5545450142,120.9808837250,0,0
Hops & Brews,American,3.7,Good,21,P,1000,3,"I'M Hotel, Poblacion, Makati City","I'M Hotel, Poblacion, Makati City, Makati City",Makati City,,162,14.5645966908,121.0295671597,0,0
Cerveseria,Spanish,3.7,Good,48,P,1800,4,"Greenbelt 3, San Lorenzo, Makati City","Greenbelt 3, San Lorenzo, Makati City, Makati City",Makati City,,162,14.5520010000,121.0218860000,0,1
Blind Pig,Finger Food,3.7,Good,52,P,2600,4,Legaspi Village,"Legaspi Village, Makati City",Makati City,,162,14.5534108253,121.0161688551,0,0
Lan Kwai Speakeasy & Hong Kong Cuisine,"Asian, Chinese",3.7,Good,34,P,800,3,Loyola Heights,"Loyola Heights, Quezon City",Quezon City,,162,14.6361915930,121.0731520504,0,0
Tap Station,Finger Food,3.7,Good,18,P,1400,4,"Circuit Makati, Olympia, Makati City","Circuit Makati, Olympia, Makati City, Makati City",Makati City,1207,162,14.5755817814,121.0194538906,0,0
El Guapo's Tex-Mex Eats,Tex-Mex,3.7,Good,33,P,700,3,Kapitolyo,"Kapitolyo, Pasig City",Pasig City,,162,14.5689397820,121.0600065440,0,0
OTO,Finger Food,3.7,Good,18,P,800,3,Poblacion,"Poblacion, Makati City",Makati City,,162,14.5639901959,121.0322108120,0,0
Bugsy's,American,3.6,Good,145,P,1500,4,Salcedo Village,"Salcedo Village, Makati City",Makati City,,162,14.5587799168,121.0224512592,0,1
Relik Restaurant and Bar,Spanish,3.6,Good,83,P,1400,4,"Commercenter Building, Bonifacio Global City, Taguig City","Commercenter Building, Bonifacio Global City, Taguig City, Taguig City",Taguig City,,162,14.5538520000,121.0474060000,0,1
Donu Pork & Beef Grill,Korean,3.6,Good,90,P,800,3,Poblacion,"Poblacion, Makati City",Makati City,,162,14.5624543186,121.0290823504,0,0
H&J Sports Bar and Restaurant,"American, Indian",3.6,Good,61,P,1100,3,Poblacion,"Poblacion, Makati City",Makati City,,162,14.5628683867,121.0306544602,0,0
Cable Car,"American, Filipino, Finger Food",3.6,Good,44,P,900,3,"The Sapphire Bloc, Ortigas, Pasig City","The Sapphire Bloc, Ortigas, Pasig City, Pasig City",Pasig City,,162,14.5880309751,121.0628573969,0,0
121,Filipino,3.6,Good,53,P,900,3,"BGC Stopover Pavilion, Bonifacio Global City, Taguig City","BGC Stopover Pavilion, Bonifacio Global City, Taguig City, Taguig City",Taguig City,,162,14.5541916152,121.0460791737,0,0
The Keg,"American, Asian",3.6,Good,87,P,950,3,"The Fort Strip, Bonifacio Global City, Taguig City","The Fort Strip, Bonifacio Global City, Taguig City, Taguig City",Taguig City,,162,14.5495308492,121.0485323891,0,0
Bugsy's,American,3.6,Good,56,P,1500,4,"Westgate Center, Filinvest City, Mutinlupa City","Westgate Center, Filinvest City, Mutinlupa City, Muntinlupa City",Muntinlupa City,,162,14.4215953812,121.0341497138,0,1
Barcino,Spanish,3.6,Good,70,P,1700,4,"City Golf Plaza, Ugong, Pasig City","City Golf Plaza, Ugong, Pasig City, Pasig City",Pasig City,,162,14.5845987319,121.0674852133,0,0
En Route Distillery,Finger Food,3.6,Good,72,P,1000,3,Tomas Morato,"Tomas Morato, Quezon City",Quezon City,,162,14.6299910000,121.0344660000,0,0
Cafe Havana,Mexican,3.6,Good,61,P,1500,4,"Greenbelt 3, San Lorenzo, Makati City","Greenbelt 3, San Lorenzo, Makati City, Makati City",Makati City,,162,14.5519710000,121.0217820000,0,1
Fred's Revolucion,Filipino,3.6,Good,63,P,900,3,"Cubao Expo, Cubao, Quezon City","Cubao Expo, Cubao, Quezon City, Quezon City",Quezon City,,162,14.6223679810,121.0570346564,0,0
Rue Bourbon,"American, Finger Food",3.6,Good,43,P,1000,3,BF Homes,"BF Homes, Parañaque City",Parañaque City,,162,14.4524784850,121.0177805275,0,0
19 East,"Filipino, Spanish",3.6,Good,52,P,800,3,Sucat,"Sucat, Muntinlupa City",Muntinlupa City,,162,14.4590525558,121.0459115356,0,0
Hungry Meeples,"American, Filipino",3.6,Good,36,P,700,3,Tandang Sora,"Tandang Sora, Quezon City",Quezon City,,162,14.6725417297,121.0620758683,0,0
Casa Marcos X Baguio Craft Brewery,"Spanish, Spanish, Spanish",3.6,Good,23,P,1800,4,"Il Terrazzo, South Triangle, Quezon City","Il Terrazzo, South Triangle, Quezon City, Quezon City",Quezon City,,162,14.6360203116,121.0356423631,0,0
Carousel Creamery,"Ice Cream, American, Desserts, Finger Food",4.9,Excellent,285,P,450,2,Greenhills,"Greenhills, San Juan City",San Juan City,,162,14.6025001245,121.0527592152,0,0
Llaollao,"Ice Cream, Desserts",4.7,Excellent,187,P,400,2,"Glorietta 2, Glorietta Complex, Makati City","Glorietta 2, Glorietta Complex, Makati City, Makati City",Makati City,,162,14.5509606978,121.0256585106,0,0
Le Petit Souffle,"French, Japanese, Desserts",4.6,Excellent,498,P,1100,3,"Century City Mall, Poblacion, Makati City","Century City Mall, Poblacion, Makati City, Makati City",Makati City,,162,14.5654430000,121.0275350000,0,0
Tsujiri,"Japanese, Desserts",4.6,Excellent,177,P,500,2,"S Maison, Conrad Manila, Mall of Asia Complex (MOA), Pasay City","S Maison, Conrad Manila, Mall of Asia Complex (MOA), Pasay City, Pasay City",Pasay City,,162,14.5331765007,120.9813594818,0,0
Bellefleur by Beatrix,Desserts,4.6,Excellent,46,P,400,2,"Unimart, Greenhills Shopping Centre, Greenhills, San Juan City","Unimart, Greenhills Shopping Centre, Greenhills, San Juan City, San Juan City",San Juan City,,162,14.6027188011,121.0477860645,0,0
Le Petit Souffle,"French, Japanese, Desserts",4.5,Excellent,191,P,1100,3,"SM Megamall, Ortigas, Mandaluyong City","SM Megamall, Ortigas, Mandaluyong City, Mandaluyong City",Mandaluyong City,,162,14.5832427572,121.0559694842,0,1
St. Louis House of Fine Ice Cream & Dessert,"Desserts, Ice Cream, French",4.5,Excellent,145,P,1100,3,"Bonifacio High Street Central, Bonifacio Global City, Taguig City","Bonifacio High Street Central, Bonifacio Global City, Taguig City, Taguig City",Taguig City,,162,14.5513024192,121.0491680726,0,0
Hobing Korean Dessert Cafe,"Korean, Desserts, Coffee",4.4,Very Good,207,P,600,2,"BGC Stopover Pavilion, Bonifacio Global City, Taguig City","BGC Stopover Pavilion, Bonifacio Global City, Taguig City, Taguig City",Taguig City,,162,14.5543600000,121.0458780000,0,0
Cafe Seolhwa,"Desserts, Korean, Coffee",4.4,Very Good,392,P,700,3,"The Forum, Bonifacio Global City, Taguig City","The Forum, Bonifacio Global City, Taguig City, Taguig City",Taguig City,,162,14.5502084545,121.0509986803,0,0
Hobing Korean Dessert Cafe,"Korean, Desserts, Coffee",4.3,Very Good,140,P,600,2,"SM Megamall, Ortigas, Mandaluyong City","SM Megamall, Ortigas, Mandaluyong City, Mandaluyong City",Mandaluyong City,,162,14.5837310908,121.0562115535,0,0
Ikigai Kakigori Cafe,"Japanese, Desserts, Coffee",4.4,Very Good,109,P,400,2,"POS Building, South Triangle, Tomas Morato, Quezon City","POS Building, South Triangle, Tomas Morato, Quezon City, Quezon City",Quezon City,,162,14.6362110568,121.0354338214,0,0
Manila Creamery,"Ice Cream, Desserts",4.4,Very Good,72,P,400,2,"UP Town Center, Diliman, Quezon City","UP Town Center, Diliman, Quezon City, Quezon City",Quezon City,,162,14.6519745287,121.0752790421,0,0
Papa Diddi's Handcrafted Ice Cream,"Ice Cream, Desserts, American",4.3,Very Good,255,P,500,2,Sikatuna Village,"Sikatuna Village, Quezon City",Quezon City,,162,14.6392310000,121.0613640000,0,0
BLK 513,"Ice Cream, Desserts",4.2,Very Good,375,P,400,2,"SM Megamall, Ortigas, Mandaluyong City","SM Megamall, Ortigas, Mandaluyong City, Mandaluyong City",Mandaluyong City,,162,14.5857726702,121.0568854585,0,0
Gelatissimo,"Desserts, Ice Cream",4.2,Very Good,130,P,600,2,"Greenbelt 5, San Lorenzo, Makati City","Greenbelt 5, San Lorenzo, Makati City, Makati City",Makati City,,162,14.5536960000,121.0227860000,0,0
Seol Bang,"Desserts, Coffee",4.2,Very Good,111,P,500,2,"Venice Grand Canal Mall, McKinley Hill, Taguig City","Venice Grand Canal Mall, McKinley Hill, Taguig City, Taguig City",Taguig City,,162,14.5332920398,121.0519981384,0,0
Mad Mark's Creamery & Good Eats,"American, Ice Cream, Desserts",4.1,Very Good,592,P,800,3,"Glorietta 3, Glorietta Complex, Makati CIty","Glorietta 3, Glorietta Complex, Makati CIty, Makati City",Makati City,,162,14.5521776519,121.0250657424,0,0
Mad Mark's Creamery & Good Eats,"American, Ice Cream, Desserts",4.1,Very Good,554,P,800,3,Kapitolyo,"Kapitolyo, Pasig City",Pasig City,,162,14.5709376921,121.0608551279,0,1
Baskin Robbins,"Ice Cream, Desserts",4.1,Very Good,154,P,300,1,"Bonifacio High Street, Bonifacio Global City, Taguig City","Bonifacio High Street, Bonifacio Global City, Taguig City, Taguig City",Taguig City,,162,14.5518000000,121.0484330000,0,0
Vampire Penguin,Desserts,4.1,Very Good,66,P,500,2,"Ayala Malls The 30th, Ugong, Pasig City","Ayala Malls The 30th, Ugong, Pasig City, Pasig City",Pasig City,,162,14.5808133000,121.0647275000,0,0
Froozy,"Desserts, Ice Cream",4.0,Very Good,28,P,400,2,"Robinsons Galleria, Ortigas, Quezon City","Robinsons Galleria, Ortigas, Quezon City, Quezon City",Quezon City,,162,14.5917577765,121.0595867783,0,0
Crepe Amelie,"Desserts, Coffee",4.0,Very Good,65,P,700,3,Salcedo Village,"Salcedo Village, Makati City",Makati City,,162,14.5589781926,121.0198803619,0,0
Starr's Famous Shakes,"Desserts, Beverages",4.0,Very Good,80,P,400,2,"UP Town Center, Diliman, Quezon City","UP Town Center, Diliman, Quezon City, Quezon City",Quezon City,,162,14.6508823621,121.0751955584,0,0
Llaollao,"Ice Cream, Desserts",4.1,Very Good,70,P,400,2,"SM Megamall, Ortigas, Mandaluyong City","SM Megamall, Ortigas, Mandaluyong City, Mandaluyong City",Mandaluyong City,,162,14.5859540493,121.0580545664,0,0
Mad Mark's Creamery & Good Eats,"American, Ice Cream, Desserts",4.0,Very Good,247,P,800,3,"Bonifacio High Street, Bonifacio Global City, Taguig City","Bonifacio High Street, Bonifacio Global City, Taguig City, Taguig City",Taguig City,,162,14.5518000000,121.0484330000,0,0
Farmacy,Desserts,4.0,Very Good,374,P,700,3,"Net Lima, Bonifacio Global City, Taguig City","Net Lima, Bonifacio Global City, Taguig City, Taguig City",Taguig City,,162,14.5494558842,121.0463007912,0,1
Churreria La Lola,Desserts,4.0,Very Good,264,P,400,2,"Power Plant Mall, Rockwell, Makati City","Power Plant Mall, Rockwell, Makati City, Makati City",Makati City,,162,14.5647210000,121.0360680000,0,0
Sugar Factory,"American, Desserts",4.0,Very Good,159,P,2000,4,"Shangri-La at the Fort, Bonifacio Global City, Taguig City","Shangri-La at the Fort, Bonifacio Global City, Taguig City, Taguig City",Taguig City,,162,14.5523380000,121.0462230000,0,1
Ice Flower,"Desserts, Korean, Coffee",4.0,Very Good,148,P,700,3,"Molito Commercial Complex, Alabang, Mutinlupa City","Molito Commercial Complex, Alabang, Mutinlupa City, Muntinlupa City",Muntinlupa City,,162,14.4231520421,121.0265178233,0,0
BLK 513,"Ice Cream, Desserts",4.0,Very Good,125,P,400,2,"SM City North EDSA, Bago Bantay, Quezon City","SM City North EDSA, Bago Bantay, Quezon City, Quezon City",Quezon City,,162,14.6565267319,121.0307959467,0,0
The Dessert Kitchen,"Desserts, Ice Cream",4.0,Very Good,136,P,900,3,"Power Plant Mall, Rockwell, Makati City","Power Plant Mall, Rockwell, Makati City, Makati City",Makati City,,162,14.5654980000,121.0364190000,0,0
Crepe Amelie,"Desserts, Coffee",4.0,Very Good,122,P,700,3,"A.Venue Mall, Poblacion, Makati City","A.Venue Mall, Poblacion, Makati City, Makati City",Makati City,,162,14.5658280000,121.0297700000,0,0
BLK 513,"Ice Cream, Desserts",4.0,Very Good,133,P,400,2,"S Maison, Conrad Manila, Mall of Asia Complex (MOA), Pasay City","S Maison, Conrad Manila, Mall of Asia Complex (MOA), Pasay City, Pasay City",Pasay City,,162,14.5331765007,120.9813594818,0,0
Cold Stone Creamery,"Desserts, Ice Cream",4.0,Very Good,159,P,450,2,"SM City North EDSA, Bago Bantay, Quezon City","SM City North EDSA, Bago Bantay, Quezon City, Quezon City",Quezon City,,162,14.6568001725,121.0310443863,0,0
