name,cuisines,aggregate_rating,rating_text,votes,currency,average_cost_for_two,price_range,locality,locality_verbose,city,zipcode,country_id,latitude,longitude,has_online_delivery,has_table_booking
Café Cre Asion,"Desserts, Cafe Food, Coffee and Tea",4.7,Excellent,767,$,30,2,CBD,"CBD, Sydney",Sydney,2000,14,-33.8780559000,151.2105775997,0,0
Trio,"Mediterranean, Cafe Food, Coffee and Tea",4.7,Excellent,574,$,70,3,Bondi Beach,"Bondi Beach, Sydney",Sydney,2026,14,-33.8933384422,151.2726928666,0,0
Bourke Street Bakery,"Cafe Food, Bakery, Desserts, Coffee and Tea",4.7,Excellent,1953,$,30,2,Surry Hills,"Surry Hills, Sydney",Sydney,2010,14,-33.8895111054,151.2149925157,0,0
The Grounds of Alexandria Cafe,"Coffee and Tea, Salad, Poké, Cafe Food",4.6,Excellent,3092,$,80,3,"The Grounds of Alexandria, Alexandria","The Grounds of Alexandria, Alexandria, Sydney",Sydney,2015,14,-33.9108453718,151.1942721158,0,0
La Renaissance Cafe Patisserie,"Desserts, Bakery, French, Patisserie, Cafe Food, Coffee and Tea",4.6,Excellent,759,$,40,2,The Rocks,"The Rocks, Sydney",Sydney,2000,14,-33.8592169881,151.2084536254,0,0
Circa,"Cafe Food, Coffee and Tea",4.6,Excellent,887,$,45,2,Parramatta,"Parramatta, Sydney",Sydney,2150,14,-33.8187161886,151.0051136836,0,0
Revolver,"Coffee and Tea, Cafe Food",4.5,Excellent,741,$,45,2,Annandale,"Annandale, Sydney",Sydney,02038,14,-33.8760219365,151.1720925942,0,0
Social Brew Cafe,"Cafe Food, Coffee and Tea",4.5,Excellent,255,$,70,3,Pyrmont,"Pyrmont, Sydney",Sydney,2009,14,-33.8716167514,151.1952286586,0,0
Rustic Pearl,"Turkish, Cafe Food, Coffee and Tea",4.5,Excellent,592,$,50,2,Surry Hills,"Surry Hills, Sydney",Sydney,2010,14,-33.8863209702,151.2137395889,0,0
John Smith Cafe,"Cafe Food, Coffee and Tea",4.5,Excellent,504,$,40,2,Alexandria,"Alexandria, Sydney",Sydney,2017,14,-33.9004407695,151.2007509917,0,0
Black Star Pastry,"Bakery, Desserts, Coffee and Tea",4.5,Excellent,258,$,30,2,"The Galeries, CBD","The Galeries, CBD, Sydney",Sydney,2000,14,-33.8721478910,151.2079486996,0,0
Campos Coffee,"Cafe Food, Coffee and Tea",4.5,Excellent,706,$,20,1,Newtown,"Newtown, Sydney",Sydney,2042,14,-33.8932992012,151.1831664294,0,0
The Mews,"Cafe Food, Coffee and Tea",4.5,Excellent,78,$,45,2,"Myahgah Mews, Mosman","Myahgah Mews, Mosman, Sydney",Sydney,2088,14,-33.8249417953,151.2409489229,0,1
Devon,"Coffee and Tea, Cafe Food",4.4,Very Good,1429,$,60,3,Surry Hills,"Surry Hills, Sydney",Sydney,2010,14,-33.8860604548,151.2076989189,0,0
Three Williams,"Cafe Food, Coffee and Tea",4.4,Very Good,1260,$,55,2,Surry Hills,"Surry Hills, Sydney",Sydney,2016,14,-33.8919630476,151.2074615434,0,0
Mad Spuds Cafe,"Irish, Healthy Food, Salad, Cafe Food, Coffee and Tea",4.4,Very Good,840,$,65,3,Surry Hills,"Surry Hills, Sydney",Sydney,2010,14,-33.8880730266,151.2134770677,0,0
Cuckoo Callay,"Coffee and Tea, Cafe Food",4.4,Very Good,612,$,50,2,Newtown,"Newtown, Sydney",Sydney,2042,14,-33.8983500122,151.1791394278,0,0
Pasticceria Papa,"Coffee and Tea, Italian, Cafe Food",4.4,Very Good,471,$,20,1,Haberfield,"Haberfield, Sydney",Sydney,2045,14,-33.8805772014,151.1390843242,0,0
The Wedge Espresso,"Coffee and Tea, Cafe Food",4.4,Very Good,427,$,40,2,Glebe,"Glebe, Sydney",Sydney,2037,14,-33.8829901547,151.1914628372,0,0
Flour and Stone,"Bakery, Coffee and Tea, Desserts, Cafe Food",4.4,Very Good,233,$,35,2,Woolloomooloo,"Woolloomooloo, Sydney",Sydney,2011,14,-33.8736037755,151.2154384330,0,0
The Q on Harris,"Cafe Food, Coffee and Tea",4.4,Very Good,130,$,35,2,Ultimo,"Ultimo, Sydney",Sydney,2007,14,-33.8796447350,151.1993720010,0,0
Blackwood Pantry,"Coffee and Tea, Cafe Food",4.4,Very Good,100,$,60,3,Cronulla,"Cronulla, Sydney",Sydney,,14,-34.0537741615,151.1528393626,0,0
Single O,"Cafe Food, Coffee and Tea",4.3,Very Good,494,$,60,3,Surry Hills,"Surry Hills, Sydney",Sydney,2010,14,-33.8813278991,151.2097726017,0,0
Le Monde,Modern Australian,4.3,Very Good,564,$,40,2,Surry Hills,"Surry Hills, Sydney",Sydney,2010,14,-33.8845649811,151.2112458050,0,0
West Juliett,"Healthy Food, Burger, Juices, Beverages, Bakery, Coffee and Tea, Cafe Food",4.3,Very Good,384,$,50,2,Marrickville,"Marrickville, Sydney",Sydney,2204,14,-33.9045812248,151.1719903350,0,0
Element 6,"Cafe Food, Coffee and Tea",4.3,Very Good,363,$,30,2,West Ryde,"West Ryde, Sydney",Sydney,2114,14,-33.8067037848,151.0912270099,0,0
XS Espresso,"Cafe Food, Coffee and Tea",4.3,Very Good,102,$,45,2,Parramatta,"Parramatta, Sydney",Sydney,2151,14,-33.7923890441,150.9977714717,0,0
Wicks Park Cafe,"Cafe Food, Coffee and Tea",4.3,Very Good,317,$,45,2,Marrickville,"Marrickville, Sydney",Sydney,2204,14,-33.9094624685,151.1623078957,0,0
Chez Sun,"French, Cafe Food, Coffee and Tea",4.3,Very Good,119,$,45,2,Darlinghurst,"Darlinghurst, Sydney",Sydney,2010,14,-33.8800488978,151.2150206789,0,1
The Tea Cosy,"Desserts, Cafe Food, Coffee and Tea",4.3,Very Good,236,$,30,2,The Rocks,"The Rocks, Sydney",Sydney,2000,14,-33.8573387708,151.2087268755,0,0
Harry's Bondi,"Coffee and Tea, Cafe Food",4.3,Very Good,184,$,85,3,Bondi Beach,"Bondi Beach, Sydney",Sydney,2026,14,-33.8886254944,151.2782815844,0,1
Brasserie Bread,"Bakery, Cafe Food, Coffee and Tea",4.3,Very Good,225,$,40,2,Botany Bay,"Botany Bay, Sydney",Sydney,,14,-33.9593121036,151.2096391618,0,0
Bambini Trust Wine Room,"Italian, Cafe Food, Coffee and Tea",4.3,Very Good,271,$,120,4,CBD,"CBD, Sydney",Sydney,2000,14,-33.8724070570,151.2101699039,0,1
Bourke Street Bakery,"Cafe Food, Bakery, Desserts, Coffee and Tea",4.3,Very Good,256,$,30,2,Marrickville,"Marrickville, Sydney",Sydney,2204,14,-33.9080286217,151.1628875881,0,0
Vine And Grind,"Coffee and Tea, Cafe Food",4.3,Very Good,66,$,30,2,Liverpool,"Liverpool, Sydney",Sydney,2170,14,-33.9197340940,150.9243114665,0,0
Coffee Alchemy,Coffee and Tea,4.3,Very Good,205,$,30,2,Marrickville,"Marrickville, Sydney",Sydney,2204,14,-33.9036281504,151.1671261489,0,0
Bogota Coffee Mascot,"Cafe Food, Coffee and Tea",4.3,Very Good,65,$,40,2,Mascot,"Mascot, Sydney",Sydney,2020,14,-33.9306237196,151.1943006143,0,0
Flower Child,"Bakery, Cafe Food, Coffee and Tea",4.2,Very Good,360,$,50,2,"Westfield Chatswood, Chatswood","Westfield Chatswood, Chatswood, Sydney",Sydney,,14,-33.7965024194,151.1840512231,0,0
Auvers Cafe,"Cafe Food, Coffee and Tea",4.2,Very Good,166,$,60,3,Rhodes,"Rhodes, Sydney",Sydney,2138,14,-33.8283740449,151.0869711792,0,0
Brewtown Newtown,"Cafe Food, Coffee and Tea",4.2,Very Good,1106,$,40,2,Newtown,"Newtown, Sydney",Sydney,2042,14,-33.8940996031,151.1823154986,0,0
Cornersmith,"Coffee and Tea, Cafe Food",4.2,Very Good,516,$,55,2,Marrickville,"Marrickville, Sydney",Sydney,2204,14,-33.9125629788,151.1541248113,0,1
KIN by us.,"Salad, Asian, Australian, Healthy Food, Vegetarian, Modern Australian, Cafe Food, Coffee and Tea",4.2,Very Good,342,$,40,2,Macquarie Park,"Macquarie Park, Sydney",Sydney,2113,14,-33.7792758013,151.1158094555,0,1
Flour Drum Newtown,"Cafe Food, Coffee and Tea",4.2,Very Good,105,$,45,2,Newtown,"Newtown, Sydney",Sydney,2042,14,-33.9035805660,151.1796262488,0,0
The Fine Food Store,"Cafe Food, Coffee and Tea",4.2,Very Good,416,$,50,2,The Rocks,"The Rocks, Sydney",Sydney,2000,14,-33.8585554683,151.2086527795,0,0
The Copper Mill,"Sandwich, Cafe Food, Coffee and Tea",4.2,Very Good,286,$,30,2,Alexandria,"Alexandria, Sydney",Sydney,2043,14,-33.9063665759,151.1884523928,0,0
Bangbang Cafe,"Cafe Food, Coffee and Tea",4.2,Very Good,272,$,40,2,Surry Hills,"Surry Hills, Sydney",Sydney,2010,14,-33.8814314431,151.2123850733,0,0
Cavalier Specialty Coffee,"Cafe Food, Coffee and Tea",4.2,Very Good,155,$,40,2,St Leonards,"St Leonards, Sydney",Sydney,2065,14,-33.8243476929,151.1983145401,0,0
The Wooden Whisk,"Cafe Food, Coffee and Tea",4.2,Very Good,174,$,62,3,St Leonards,"St Leonards, Sydney",Sydney,,14,-33.8239402026,151.1987654865,0,0
Shenkin Espresso Bar,"Cafe Food, Coffee and Tea",4.2,Very Good,319,$,30,2,Newtown,"Newtown, Sydney",Sydney,2043,14,-33.8956973232,151.1812365800,0,0
Cafe Felix,"Coffee and Tea, Cafe Food",4.2,Very Good,287,$,50,2,Newtown,"Newtown, Sydney",Sydney,2042,14,-33.8930876890,151.1831422895,0,0
Le Trader,"French, Healthy Food, Cafe Food, Coffee and Tea",4.2,Very Good,132,$,100,4,Pyrmont,"Pyrmont, Sydney",Sydney,2009,14,-33.8706758357,151.1946496368,0,0
Cafe Kentaro,"Japanese, Fusion, Cafe Food, Coffee and Tea",4.2,Very Good,76,$,40,2,Surry Hills,"Surry Hills, Sydney",Sydney,,14,-33.8906853190,151.2147112191,0,0
Room 10,"Cafe Food, Coffee and Tea",4.2,Very Good,159,$,40,2,Potts Point,"Potts Point, Sydney",Sydney,2011,14,-33.8724911257,151.2243021280,0,0
John Montagu,"Sandwich, Cafe Food, Coffee and Tea",4.2,Very Good,135,$,40,2,Woolloomooloo,"Woolloomooloo, Sydney",Sydney,2011,14,-33.8726108260,151.2182721868,0,0
The Reformatory Caffeine Lab,"Cafe Food, Coffee and Tea",4.2,Very Good,91,$,25,1,Surry Hills,"Surry Hills, Sydney",Sydney,2010,14,-33.8840943176,151.2100555748,0,0
Welcome Dose,"Cafe Food, Coffee and Tea",4.2,Very Good,47,$,40,2,The Cannery Rosebery,"The Cannery Rosebery, Sydney",Sydney,2018,14,-33.9168625485,151.2028776482,0,0
Monty's Sandwich Shop,"Coffee and Tea, Sandwich, Cafe Food",4.2,Very Good,58,$,25,1,Bondi Junction,"Bondi Junction, Sydney",Sydney,2022,14,-33.8923755013,151.2477476522,0,0
Oh! Matcha,"Japanese, Cafe Food, Coffee and Tea",4.1,Very Good,737,$,25,1,"Regent Place Arcade, CBD","Regent Place Arcade, CBD, Sydney",Sydney,2000,14,-33.8748792547,151.2061221153,0,0
Cafe Oratnek,"Japanese, Asian, Cafe Food, Coffee and Tea",4.1,Very Good,281,$,35,2,Redfern,"Redfern, Sydney",Sydney,,14,-33.8901039197,151.2042046711,0,0
Celsius Coffee Co,"Cafe Food, Coffee and Tea",4.1,Very Good,295,$,50,2,Kirribilli,"Kirribilli, Sydney",Sydney,2061,14,-33.8495066663,151.2201882899,0,0
Bread & Circus,"Coffee and Tea, Cafe Food",4.1,Very Good,538,$,60,3,Alexandria,"Alexandria, Sydney",Sydney,,14,-33.9022022755,151.1953848973,0,0
Reuben Hills,"Cafe Food, Coffee and Tea",4.1,Very Good,1464,$,55,2,Surry Hills,"Surry Hills, Sydney",Sydney,2010,14,-33.8828782624,151.2110305578,0,0
Orto Trading Co.,"Modern Australian, Cafe Food, Coffee and Tea",4.1,Very Good,530,$,60,3,Surry Hills,"Surry Hills, Sydney",Sydney,2010,14,-33.8865578269,151.2105601654,0,1
Bowery Lane,Modern Australian,4.1,Very Good,529,$,80,3,"Wintergarden, CBD","Wintergarden, CBD, Sydney",Sydney,2000,14,-33.8649571832,151.2100837380,0,1
Wild Pear Cafe,"Cafe Food, Coffee and Tea",4.1,Very Good,304,$,50,2,Dural,"Dural, Sydney",Sydney,2158,14,-33.6775347110,151.0262947530,0,0
Four ate Five,"Cafe Food, Coffee and Tea",4.1,Very Good,550,$,55,2,Surry Hills,"Surry Hills, Sydney",Sydney,2010,14,-33.8881529050,151.2134502456,0,0
Clipper Café,"Cafe Food, Coffee and Tea",4.1,Very Good,512,$,45,2,Glebe,"Glebe, Sydney",Sydney,2037,14,-33.8840698241,151.1923151091,0,0
Joe Black,"Sandwich, Australian, Modern Australian, Coffee and Tea, Cafe Food",4.1,Very Good,266,$,30,2,Surry Hills,"Surry Hills, Sydney",Sydney,2010,14,-33.8779584757,151.2110486627,0,0
Workshop Espresso,"Coffee and Tea, Cafe Food",4.1,Very Good,352,$,25,1,CBD,"CBD, Sydney",Sydney,2000,14,-33.8726183421,151.2068996206,0,0
Indigo,"Modern Australian, Coffee and Tea, Cafe Food",4.1,Very Good,189,$,50,2,Double Bay,"Double Bay, Sydney",Sydney,2028,14,-33.8763977237,151.2440177053,0,0
The Weston Eatery,"Cafe Food, Coffee and Tea",4.1,Very Good,108,$,50,2,Canley Vale,"Canley Vale, Sydney",Sydney,2166,14,-33.8872850927,150.9431268275,0,0
Sub-Station Cafe,"Sandwich, Cafe Food, Coffee and Tea",4.1,Very Good,133,$,35,2,Alexandria,"Alexandria, Sydney",Sydney,,14,-33.9034378125,151.1956065148,0,0
A Brewer's Tale Café,"Coffee and Tea, Cafe Food",4.1,Very Good,91,$,45,2,Darlinghurst,"Darlinghurst, Sydney",Sydney,2010,14,-33.8789872704,151.2192032486,0,1
Gumption by Coffee Alchemy,Coffee and Tea,4.1,Very Good,190,$,20,1,"The Strand Arcade, CBD","The Strand Arcade, CBD, Sydney",Sydney,2000,14,-33.8695161010,151.2077361345,0,0
Bourke Street Bakery,"Cafe Food, Bakery, Desserts, Coffee and Tea",4.1,Very Good,225,$,30,2,Alexandria,"Alexandria, Sydney",Sydney,,14,-33.9210275237,151.1938322336,0,0
The Rusty Rabbit,"Healthy Food, Burger, Australian, Modern Australian, Coffee and Tea, Cafe Food",4.1,Very Good,77,$,45,2,Burwood,"Burwood, Sydney",Sydney,,14,-33.8783445535,151.1024071276,0,0
Roastville Coffee,"Cafe Food, Coffee and Tea",4.1,Very Good,82,$,45,2,Marrickville,"Marrickville, Sydney",Sydney,2204,14,-33.9078836497,151.1634169892,0,0
Tripod Cafe,"Coffee and Tea, Modern Australian, Cafe Food",4.1,Very Good,131,$,40,2,Redfern,"Redfern, Sydney",Sydney,2008,14,-33.8915706303,151.1958120391,0,0
Vargabar Espresso,"Cafe Food, Coffee and Tea",4.1,Very Good,210,$,60,3,Newtown,"Newtown, Sydney",Sydney,2042,14,-33.8968041045,151.1804278940,0,0
Fleetwood Macchiato,"Cafe Food, Coffee and Tea",4.1,Very Good,154,$,45,2,Erskineville,"Erskineville, Sydney",Sydney,2043,14,-33.8993142771,151.1828522757,0,0
Palomino Espresso,"Sandwich, Cafe Food, Coffee and Tea",4.1,Very Good,144,$,25,1,CBD,"CBD, Sydney",Sydney,2000,14,-33.8675253627,151.2059400603,0,0
Espresso on Sussex Lane,"Cafe Food, Coffee and Tea",4.1,Very Good,32,$,45,2,CBD,"CBD, Sydney",Sydney,2000,14,-33.8663589038,151.2039119750,0,1
Bertoni,"Italian, Coffee and Tea, Cafe Food",4.1,Very Good,96,$,90,3,Balmain,"Balmain, Sydney",Sydney,2041,14,-33.8574849425,151.1811131984,0,0
Bourke Street Bakery,"Cafe Food, Bakery, Desserts, Coffee and Tea",4.1,Very Good,41,$,30,2,Barangaroo,"Barangaroo, Sydney",Sydney,,14,-33.8647275049,151.2015647069,0,0
La Piadina,"Italian, Pizza, Cafe Food, Coffee and Tea",4.1,Very Good,100,$,35,2,Bondi Beach,"Bondi Beach, Sydney",Sydney,2026,14,-33.8862730978,151.2735209987,0,0
Swallow Coffee Traders,"Cafe Food, Coffee and Tea, Healthy Food, Juices, Sandwich, Tea, Vegan, Vegetarian",4.1,Very Good,68,$,30,2,Rockdale,"Rockdale, Sydney",Sydney,2216,14,-33.9527094448,151.1370927841,0,0
The Grounds of the City,"Cafe Food, Coffee and Tea",4.0,Very Good,249,$,70,3,CBD,"CBD, Sydney",Sydney,2000,14,-33.8721350858,151.2069649994,0,0
Haven Specialty Coffee,"Cafe Food, Coffee and Tea",4.0,Very Good,561,$,40,2,Surry Hills,"Surry Hills, Sydney",Sydney,2010,14,-33.8847792978,151.2071309611,0,1
Bills,"Cafe Food, Coffee and Tea",4.0,Very Good,887,$,110,4,Surry Hills,"Surry Hills, Sydney",Sydney,2010,14,-33.8842059299,151.2141932175,0,1
Concrete Jungle,"Cafe Food, Coffee and Tea",4.0,Very Good,157,$,55,2,Chippendale,"Chippendale, Sydney",Sydney,,14,-33.8852922639,151.2017843127,0,0
The Paramount Coffee Project,"Cafe Food, Coffee and Tea",4.0,Very Good,755,$,50,2,Surry Hills,"Surry Hills, Sydney",Sydney,2010,14,-33.8793427250,151.2110409513,0,0
Kusuka,"Fusion, Indonesian, Cafe Food, Coffee and Tea",4.0,Very Good,206,$,40,2,Chinatown,"Chinatown, Sydney",Sydney,2000,14,-33.8826464056,151.2034727633,0,0
Cooh,"Healthy Food, Salad, Cafe Food, Salad, Coffee and Tea",4.0,Very Good,181,$,55,2,Alexandria,"Alexandria, Sydney",Sydney,2015,14,-33.9107849920,151.1956806108,0,1
Cook & Archie's,"Modern Australian, Coffee and Tea, Cafe Food",4.0,Very Good,193,$,60,3,Surry Hills,"Surry Hills, Sydney",Sydney,2010,14,-33.8867000520,151.2076784670,0,1
The Baron,"Australian, Cafe Food, Coffee and Tea",4.0,Very Good,258,$,50,2,Castle Hill,"Castle Hill, Sydney",Sydney,2154,14,-33.7316261204,151.0066267848,0,0
Black Star Pastry,"Bakery, Desserts, Coffee and Tea",4.0,Very Good,254,$,30,2,The Cannery Rosebery,"The Cannery Rosebery, Sydney",Sydney,2018,14,-33.9175608986,151.2020270526,0,0
The Rabbit Hole Organic Tea Bar,"Cafe Food, Coffee and Tea",4.0,Very Good,132,$,50,2,Redfern,"Redfern, Sydney",Sydney,2016,14,-33.8892767617,151.1986823380,0,0
Earth to Table,"Healthy Food, Vegetarian, Vegan, Cafe Food, Coffee and Tea",4.0,Very Good,231,$,60,3,Bondi Junction,"Bondi Junction, Sydney",Sydney,2022,14,-33.8951351607,151.2503383309,0,0
The Usual Cafe,"Cafe Food, Coffee and Tea",4.0,Very Good,147,$,35,2,Cabramatta,"Cabramatta, Sydney",Sydney,2166,14,-33.8939790980,150.9343600273,0,0
Mentmore & Morley,"Cafe Food, Coffee and Tea",4.0,Very Good,122,$,45,2,Rosebery,"Rosebery, Sydney",Sydney,2018,14,-33.9161408213,151.2031009421,0,0
Restaurant Hubert,"French, European",4.9,Excellent,290,$,150,4,CBD,"CBD, Sydney",Sydney,2000,14,-33.8653714379,151.2100612745,0,0
Bare Grill,"Burger, Modern Australian, American",4.9,Excellent,168,$,50,2,Surry Hills,"Surry Hills, Sydney",Sydney,,14,-33.8827262891,151.2157921493,0,1
KOI Dessert Bar,"Desserts, Modern Australian",4.7,Excellent,684,$,150,4,"Kensington Street, Chippendale","Kensington Street, Chippendale, Sydney",Sydney,2008,14,-33.8854523042,151.2018107995,0,1
Chat Thai,"Thai, Salad",4.6,Excellent,1730,$,55,2,Chinatown,"Chinatown, Sydney",Sydney,2000,14,-33.8791322916,151.2063893303,0,1
Mappen Noodle Restaurant,"Japanese, Asian",4.6,Excellent,1121,$,25,1,"SkyView Shopping Plaza, CBD","SkyView Shopping Plaza, CBD, Sydney",Sydney,2000,14,-33.8761872830,151.2060503662,0,0
Chophouse,"Steak, Modern Australian",4.6,Excellent,676,$,130,4,CBD,"CBD, Sydney",Sydney,2000,14,-33.8655078520,151.2102721632,0,0
Bistro Papillon,French,4.6,Excellent,433,$,80,3,CBD,"CBD, Sydney",Sydney,2000,14,-33.8678477368,151.2053704262,0,1
Felix Bistro and Bar,French,4.6,Excellent,644,$,120,4,"Ivy, CBD","Ivy, CBD, Sydney",Sydney,2000,14,-33.8667208140,151.2078507990,0,0
Mamak,Malaysian,4.5,Excellent,2268,$,70,3,Chinatown,"Chinatown, Sydney",Sydney,2000,14,-33.8774827653,151.2042291462,0,0
Ms. G's,"Asian, Vietnamese, Salad",4.5,Excellent,1280,$,100,4,Potts Point,"Potts Point, Sydney",Sydney,2011,14,-33.8726626033,151.2225848436,0,0
Ryo's,"Japanese, Ramen",4.5,Excellent,697,$,50,2,Crows Nest,"Crows Nest, Sydney",Sydney,2065,14,-33.8286483661,151.2065951899,0,0
Kepos Street Kitchen,Middle Eastern,4.5,Excellent,681,$,55,2,Redfern,"Redfern, Sydney",Sydney,2016,14,-33.8971466834,151.2127589062,0,0
Five Points Burgers,"Burger, American",4.5,Excellent,309,$,40,2,North Sydney,"North Sydney, Sydney",Sydney,2060,14,-33.8372646586,151.2089501694,0,0
SaltVine,"Bar Food, Lebanese, Tapas",4.5,Excellent,70,$,80,3,Surry Hills,"Surry Hills, Sydney",Sydney,,14,-33.8900284961,151.2130995467,0,1
Contessa Balmain,Modern Australian,4.5,Excellent,161,$,60,3,Balmain,"Balmain, Sydney",Sydney,2041,14,-33.8563893450,151.1776119098,0,0
Cappello Pizzeria,"Italian, Pizza",4.5,Excellent,187,$,60,3,Balmain,"Balmain, Sydney",Sydney,2041,14,-33.8574601629,151.1925373972,0,1
Il Grappolo,"Italian, Pizza",4.5,Excellent,130,$,100,4,Rozelle,"Rozelle, Sydney",Sydney,2039,14,-33.8606407974,151.1674084514,0,1
Song Kitchen,"Mediterranean, Modern Australian",4.5,Excellent,34,$,50,2,Surry Hills,"Surry Hills, Sydney",Sydney,,14,-33.8773783814,151.2118667364,0,1
Mr. Wong,"Cantonese, Chinese, Yum Cha",4.4,Very Good,1383,$,120,4,"Establishment, CBD","Establishment, CBD, Sydney",Sydney,2000,14,-33.8641846264,151.2081629410,0,0
Ippudo,"Japanese, Ramen",4.4,Very Good,1626,$,70,3,"Westfield Pitt Street Mall, CBD","Westfield Pitt Street Mall, CBD, Sydney",Sydney,2000,14,-33.8697905860,151.2090554461,0,0
Home Thai,"Thai, Salad",4.4,Very Good,1180,$,60,3,CBD,"CBD, Sydney",Sydney,2000,14,-33.8746203746,151.2042267993,0,0
Toko,Japanese,4.4,Very Good,1232,$,100,4,Surry Hills,"Surry Hills, Sydney",Sydney,2010,14,-33.8868712227,151.2136661634,0,1
Nomad,Mediterranean,4.4,Very Good,552,$,105,4,Surry Hills,"Surry Hills, Sydney",Sydney,2010,14,-33.8798880123,151.2102503702,0,1
Manpuku,"Japanese, Ramen",4.4,Very Good,227,$,30,2,Chatswood,"Chatswood, Sydney",Sydney,2067,14,-33.7946465072,151.1896318942,0,0
Gojima,"Japanese, Burger",4.4,Very Good,214,$,55,2,"The Star, Pyrmont","The Star, Pyrmont, Sydney",Sydney,,14,-33.8692967351,151.1958334968,0,0
Thai Pothong,Thai,4.4,Very Good,860,$,100,4,Newtown,"Newtown, Sydney",Sydney,2042,14,-33.8970356446,151.1795726046,0,1
Hartsyard,American,4.4,Very Good,719,$,100,4,Enmore,"Enmore, Sydney",Sydney,2042,14,-33.8983244096,151.1768582091,0,0
Malay Chinese Takeaway,"Chinese, Malaysian",4.4,Very Good,336,$,35,2,CBD,"CBD, Sydney",Sydney,2000,14,-33.8659282286,151.2095818296,0,0
The Sultan's Table,"Turkish, Kebab",4.4,Very Good,565,$,50,2,Enmore,"Enmore, Sydney",Sydney,2042,14,-33.8988929517,151.1722310633,0,0
Hugos Manly,"Modern Australian, Tapas",4.4,Very Good,430,$,130,4,"Manly Wharf, Manly","Manly Wharf, Manly, Sydney",Sydney,,14,-33.7998310355,151.2838096172,0,1
Tan Viet Noodle House,"Asian, Vietnamese",4.4,Very Good,381,$,35,2,Cabramatta,"Cabramatta, Sydney",Sydney,2166,14,-33.8949517613,150.9341789782,0,0
Bar H Dining,Japanese,4.4,Very Good,370,$,100,4,Surry Hills,"Surry Hills, Sydney",Sydney,2010,14,-33.8800923201,151.2098943070,0,1
Bloodwood,Modern Australian,4.4,Very Good,574,$,100,4,Enmore,"Enmore, Sydney",Sydney,2042,14,-33.9000584093,151.1781275645,0,0
Buffalo Dining Club,Italian,4.4,Very Good,460,$,70,3,Darlinghurst,"Darlinghurst, Sydney",Sydney,02010,14,-33.8775595917,151.2219947577,0,0
Phamish,Vietnamese,4.4,Very Good,512,$,75,3,Darlinghurst,"Darlinghurst, Sydney",Sydney,2010,14,-33.8781836648,151.2167859078,0,0
Embers Mezze Bar,Lebanese,4.4,Very Good,238,$,100,4,Darlinghurst,"Darlinghurst, Sydney",Sydney,2010,14,-33.8786039790,151.2144621089,0,0
Nourishing Quarter,"Vietnamese, Pho, Vegetarian, Vegan",4.4,Very Good,253,$,40,2,Surry Hills,"Surry Hills, Sydney",Sydney,2016,14,-33.8905556247,151.2094973400,0,1
Inferno Grill & Cafe,"Burger, Sandwich",4.4,Very Good,111,$,65,3,Maroubra,"Maroubra, Sydney",Sydney,2035,14,-33.9435009643,151.2400567532,0,0
Vina Vegan Restaurant,"Vietnamese, Vegetarian, Vegan",4.4,Very Good,141,$,45,2,Newtown,"Newtown, Sydney",Sydney,2042,14,-33.8999818815,151.1778429151,0,1
Moim Japanese Kitchen,Japanese,4.4,Very Good,159,$,60,3,Kirrawee,"Kirrawee, Sydney",Sydney,2232,14,-34.0340611270,151.0712301359,0,0
Masuya Japanese Seafood Restaurant,"Japanese, Hot Pot, Sushi",4.3,Very Good,608,$,80,3,CBD,"CBD, Sydney",Sydney,2000,14,-33.8650585199,151.2098124996,0,0
Chefs Gallery,Chinese,4.3,Very Good,1519,$,70,3,"Regent Place Arcade, CBD","Regent Place Arcade, CBD, Sydney",Sydney,2000,14,-33.8745393700,151.2063722313,0,1
Suminoya Japanese,Japanese BBQ,4.3,Very Good,389,$,80,3,CBD,"CBD, Sydney",Sydney,2000,14,-33.8671264300,151.2092029676,0,0
Bar Luca,"Burger, Modern Australian",4.3,Very Good,453,$,60,3,CBD,"CBD, Sydney",Sydney,2000,14,-33.8638967601,151.2115200609,0,0
Encasa,Spanish,4.3,Very Good,617,$,80,3,Chinatown,"Chinatown, Sydney",Sydney,2000,14,-33.8785321639,151.2072459608,0,1
Miso Japanese Restaurant,Japanese,4.3,Very Good,458,$,60,3,"World Square, CBD","World Square, CBD, Sydney",Sydney,2000,14,-33.8775114360,151.2071618065,0,0
Yulli's,"Australian, Asian, Vegan",4.3,Very Good,563,$,75,3,Surry Hills,"Surry Hills, Sydney",Sydney,2010,14,-33.8864456610,151.2137687579,0,0
Belly Bao,"Asian, Taiwanese",4.3,Very Good,295,$,40,2,Newtown,"Newtown, Sydney",Sydney,2000,14,-33.8947402532,151.1826269701,0,0
The Winery,Modern Australian,4.3,Very Good,1106,$,100,4,Surry Hills,"Surry Hills, Sydney",Sydney,2010,14,-33.8814180826,151.2143303454,0,1
Longrain Restaurant,"Thai, Fusion",4.3,Very Good,1042,$,100,4,Surry Hills,"Surry Hills, Sydney",Sydney,2010,14,-33.8793830858,151.2109168991,0,1
Bodega,"Latin American, Tapas",4.3,Very Good,807,$,80,3,Surry Hills,"Surry Hills, Sydney",Sydney,2010,14,-33.8835061933,151.2099184468,0,0
Ayam Goreng 99,Indonesian,4.3,Very Good,372,$,40,2,Kingsford,"Kingsford, Sydney",Sydney,2032,14,-33.9223117529,151.2270933017,0,0
Churrasco,"BBQ, Brazilian",4.3,Very Good,270,$,110,4,Coogee,"Coogee, Sydney",Sydney,,14,-33.9207150881,151.2556635216,0,0
Do Dee Paidang Thai,"Thai, Asian, Vegetarian",4.3,Very Good,244,$,35,2,Chinatown,"Chinatown, Sydney",Sydney,2000,14,-33.8805716345,151.2030459568,0,0
Fratelli Paradiso,Italian,4.3,Very Good,455,$,70,3,Potts Point,"Potts Point, Sydney",Sydney,2011,14,-33.8688994810,151.2253572419,0,0
Malacca Straits on Broadway,"Asian, Malaysian",4.3,Very Good,316,$,40,2,"The Quadrant, Ultimo","The Quadrant, Ultimo, Sydney",Sydney,2007,14,-33.8839946735,151.1969663948,0,0
Toriciya Japanese,"Japanese, Sushi",4.3,Very Good,240,$,100,4,Cammeray,"Cammeray, Sydney",Sydney,2062,14,-33.8229639449,151.2191519514,0,0
Gigi Pizzeria,"Italian, Pizza, Vegan",4.3,Very Good,416,$,80,3,Enmore,"Enmore, Sydney",Sydney,2042,14,-33.8992486016,151.1777886003,0,0
Claire's Kitchen at Le Salon,French,4.3,Very Good,319,$,120,4,Darlinghurst,"Darlinghurst, Sydney",Sydney,2010,14,-33.8777146362,151.2130666897,0,1
Betty's Burgers and Concrete Co.,"Burger, American",4.3,Very Good,141,$,40,2,Darling Harbour,"Darling Harbour, Sydney",Sydney,,14,-33.8751938069,151.2009545043,0,0
A Tavola,Italian,4.3,Very Good,429,$,90,3,Darlinghurst,"Darlinghurst, Sydney",Sydney,2010,14,-33.8780809519,151.2217650935,0,1
Brown Sugar,"Mediterranean, Modern Australian",4.3,Very Good,316,$,115,4,Bondi Beach,"Bondi Beach, Sydney",Sydney,2026,14,-33.8881954883,151.2731568888,0,0
Bare Grill,"Burger, Modern Australian, American",4.3,Very Good,127,$,50,2,La Perouse,"La Perouse, Sydney",Sydney,2036,14,-33.9881731819,151.2327299640,0,0
The Rice Den,"Cantonese, Chinese",4.3,Very Good,265,$,80,3,St Leonards,"St Leonards, Sydney",Sydney,2065,14,-33.8219751417,151.1962693557,0,0
Malabar,Indian,4.3,Very Good,262,$,80,3,Darlinghurst,"Darlinghurst, Sydney",Sydney,2010,14,-33.8761641791,151.2220410258,0,1
Salmon & Bear,"Seafood, Poké",4.3,Very Good,135,$,65,3,"East Village Shopping Centre, Zetland","East Village Shopping Centre, Zetland, Sydney",Sydney,,14,-33.9068480000,151.2127710000,0,0
Radio Cairo,"African, Caribbean, Indian, Sri Lankan",4.3,Very Good,313,$,60,3,Cremorne,"Cremorne, Sydney",Sydney,2090,14,-33.8285074369,151.2303055823,0,0
Yang San Park,Korean BBQ,4.3,Very Good,153,$,40,2,Chinatown,"Chinatown, Sydney",Sydney,2000,14,-33.8772659251,151.2038643658,0,0
Bishop Sessa,"European, Modern Australian",4.3,Very Good,230,$,150,4,Surry Hills,"Surry Hills, Sydney",Sydney,2010,14,-33.8897045359,151.2130653486,0,0
Lucio Pizzeria,"Italian, Pizza",4.3,Very Good,282,$,75,3,Darlinghurst,"Darlinghurst, Sydney",Sydney,2010,14,-33.8781538808,151.2167346105,0,0
LP's Quality Meats,Australian,4.3,Very Good,180,$,75,3,Chippendale,"Chippendale, Sydney",Sydney,2008,14,-33.8874996809,151.2007288635,0,0
Masala Theory,Indian,4.3,Very Good,82,$,75,3,Surry Hills,"Surry Hills, Sydney",Sydney,2010,14,-33.8903741637,151.2129553780,0,1
Mjølner,"BBQ, Modern Australian",4.3,Very Good,66,$,80,3,Redfern,"Redfern, Sydney",Sydney,,14,-33.8901754467,151.2075118348,0,0
Bambini Trust Wine Room,"Italian, Cafe Food, Coffee and Tea",4.3,Very Good,271,$,120,4,CBD,"CBD, Sydney",Sydney,2000,14,-33.8724070570,151.2101699039,0,1
Chester White Cured Diner,Italian,4.3,Very Good,106,$,80,3,Potts Point,"Potts Point, Sydney",Sydney,2011,14,-33.8718937350,151.2233442441,0,0
Jasmins Lebanese Restaurant,Lebanese,4.3,Very Good,144,$,30,2,Lakemba,"Lakemba, Sydney",Sydney,2195,14,-33.9188513009,151.0762103275,0,0
Big Bite on Pitt,Sandwich,4.3,Very Good,113,$,20,1,CBD,"CBD, Sydney",Sydney,2000,14,-33.8732488538,151.2086048350,0,0
Sydney Madang,"Hot Pot, Korean BBQ, BBQ, Korean",4.2,Very Good,1035,$,50,2,CBD,"CBD, Sydney",Sydney,2000,14,-33.8761054449,151.2074695900,0,1
Din Tai Fung,"Chinese, Taiwanese, Yum Cha",4.2,Very Good,2101,$,70,3,"World Square, CBD","World Square, CBD, Sydney",Sydney,2000,14,-33.8776386450,151.2067413703,0,1
Masuya Suisan,"Sushi, Japanese",4.2,Very Good,335,$,80,3,Chinatown,"Chinatown, Sydney",Sydney,2000,14,-33.8796283123,151.2070763111,0,0
Kanzo,"Japanese, Sushi",4.2,Very Good,291,$,40,2,Parramatta,"Parramatta, Sydney",Sydney,2150,14,-33.8139960000,151.0048100000,0,0
Sushi Rio,"Japanese, Sushi",4.2,Very Good,440,$,30,2,CBD,"CBD, Sydney",Sydney,2000,14,-33.8761903450,151.2043263763,0,0
The Potting Shed,Modern Australian,4.2,Very Good,428,$,65,3,"The Grounds of Alexandria, Alexandria","The Grounds of Alexandria, Alexandria, Sydney",Sydney,,14,-33.9114577932,151.1942962557,0,0
Ze Pickle,"American, Burger",4.2,Very Good,127,$,55,2,Surry Hills,"Surry Hills, Sydney",Sydney,,14,-33.8840392072,151.2099948898,0,1
Spice I Am,Thai,4.2,Very Good,706,$,60,3,Surry Hills,"Surry Hills, Sydney",Sydney,2000,14,-33.8794863538,151.2093280256,0,0
Chat Thai,"Thai, Salad",4.2,Very Good,628,$,55,2,"Westfield Pitt Street Mall, CBD","Westfield Pitt Street Mall, CBD, Sydney",Sydney,,14,-33.8698724302,151.2090812624,0,1
Hurricane's Grill,"Steak, Modern Australian, Salad",4.2,Very Good,809,$,120,4,Bondi Beach,"Bondi Beach, Sydney",Sydney,2026,14,-33.8905116510,151.2746864185,0,0
Sushi Hotaru,"Japanese, Sushi",4.2,Very Good,525,$,30,2,"The Galeries, CBD","The Galeries, CBD, Sydney",Sydney,2000,14,-33.8724969715,151.2079191953,0,0
New Shanghai,"Chinese, Dumplings",4.2,Very Good,431,$,50,2,Ashfield,"Ashfield, Sydney",Sydney,2131,14,-33.8882778715,151.1244642735,0,0
Jazushi,"Japanese, Sushi",4.2,Very Good,463,$,60,3,Surry Hills,"Surry Hills, Sydney",Sydney,2010,14,-33.8870348784,151.2094547600,0,0
Busshari Authentic Japanese Restaurant,"Japanese, Sushi, Teriyaki",4.2,Very Good,240,$,50,2,Potts Point,"Potts Point, Sydney",Sydney,2011,14,-33.8725729673,151.2250256538,0,1
Chiswick,Modern Australian,4.2,Very Good,505,$,110,4,Woollahra,"Woollahra, Sydney",Sydney,2025,14,-33.8859112705,151.2399407476,0,0
Oiden Bowl Restaurant,"Japanese, Salad, Poké",4.2,Very Good,432,$,30,2,"SkyView Shopping Plaza, CBD","SkyView Shopping Plaza, CBD, Sydney",Sydney,2000,14,-33.8760656392,151.2061361969,0,0
Ester,Modern Australian,4.2,Very Good,286,$,150,4,Chippendale,"Chippendale, Sydney",Sydney,2008,14,-33.8876182468,151.2008643150,0,1
Chinese Noodle Restaurant,"Chinese, Vegetarian, Salad",4.2,Very Good,340,$,40,2,"Prince Centre, Chinatown","Prince Centre, Chinatown, Sydney",Sydney,2000,14,-33.8808190844,151.2038647011,0,0
Pastizzi Cafe,"European, Italian",4.2,Very Good,333,$,65,3,Newtown,"Newtown, Sydney",Sydney,2042,14,-33.9034241772,151.1796225607,0,0
La Rosa The Strand,"Italian, Grill",4.2,Very Good,323,$,150,4,"The Strand Arcade, CBD","The Strand Arcade, CBD, Sydney",Sydney,2000,14,-33.8697204337,151.2076003477,0,0
The Butler,"Contemporary, Modern Australian",4.2,Very Good,186,$,95,3,Potts Point,"Potts Point, Sydney",Sydney,2011,14,-33.8716434755,151.2228148431,0,1
Tapavino,"Spanish, Tapas",4.2,Very Good,285,$,85,3,Circular Quay,"Circular Quay, Sydney",Sydney,2000,14,-33.8626609288,151.2092338130,0,1
Il Baretto,Italian,4.2,Very Good,384,$,70,3,Surry Hills,"Surry Hills, Sydney",Sydney,,14,-33.8875962593,151.2153703719,0,0
Tea Journal,Tea,4.0,Very Good,48,$,20,1,Chatswood,"Chatswood, Sydney",Sydney,,14,-33.7980066790,151.1810930818,0,0
T Totaler,"Beverages, Tea",4.0,Very Good,39,$,12,1,"The Galeries, CBD","The Galeries, CBD, Sydney",Sydney,,14,-33.8724677423,151.2078209594,0,0
Top Juice,"Juices, Healthy Food, Salad",3.8,Good,76,$,15,1,"Westfield Pitt Street Mall, CBD","Westfield Pitt Street Mall, CBD, Sydney",Sydney,2000,14,-33.8703069827,151.2090631574,0,0
No Fail Fruit And Bubble Tea,Bubble Tea,3.7,Good,21,$,20,1,CBD,"CBD, Sydney",Sydney,2000,14,-33.8776745529,151.2049372494,0,0
Tea Shop Express,"Bubble Tea, Crepes, Tea",3.6,Good,36,$,10,1,"HSBC Centre, CBD","HSBC Centre, CBD, Sydney",Sydney,2000,14,-33.8743734635,151.2070598826,0,0
Beau Tea,Beverages,3.6,Good,29,$,15,1,Cabramatta,"Cabramatta, Sydney",Sydney,,14,-33.8941135182,150.9355790913,0,0
Teabags,Tea,3.6,Good,24,$,15,1,Canley Heights,"Canley Heights, Sydney",Sydney,2166,14,-33.8838769375,150.9255751222,0,0
Cafe Nho,"Beverages, Desserts, Vietnamese, Coffee and Tea",3.4,Average,15,$,25,1,Cabramatta,"Cabramatta, Sydney",Sydney,2166,14,-33.8954282092,150.9358188137,0,0
Gong Cha,Bubble Tea,3.4,Average,18,$,10,1,Cabramatta,"Cabramatta, Sydney",Sydney,,14,-33.8949715206,150.9359482303,0,0
PaletTé,"Bubble Tea, Tea",3.3,Average,20,$,20,1,CBD,"CBD, Sydney",Sydney,,14,-33.8769104619,151.2057982385,0,0
Chatime,Bubble Tea,3.3,Average,23,$,15,1,"Sussex Centre, Chinatown","Sussex Centre, Chinatown, Sydney",Sydney,2000,14,-33.8783195017,151.2039213628,0,0
Chatime,Bubble Tea,3.3,Average,22,$,15,1,"Event Cinemas, CBD","Event Cinemas, CBD, Sydney",Sydney,2000,14,-33.8752976367,151.2063819543,0,0
Stone & Peel,"Juices, Healthy Food",3.3,Average,16,$,30,2,"Chatswood Interchange, Chatswood","Chatswood Interchange, Chatswood, Sydney",Sydney,,14,-33.7968554311,151.1810116097,0,0
Chatime,Bubble Tea,3.2,Average,19,$,15,1,Cabramatta,"Cabramatta, Sydney",Sydney,2166,14,-33.8952726403,150.9364900366,0,0
ShareTea,Bubble Tea,3.2,Average,11,$,15,1,"Westfield Parramatta, Parramatta","Westfield Parramatta, Parramatta, Sydney",Sydney,,14,-33.8174047730,151.0032394901,0,0
Cafe Nho,"Beverages, Desserts, Vietnamese, Coffee and Tea",3.2,Average,8,$,25,1,Canley Heights,"Canley Heights, Sydney",Sydney,,14,-33.8842137233,150.9273688495,0,0
Gong Cha,Bubble Tea,3.2,Average,7,$,10,1,CBD,"CBD, Sydney",Sydney,,14,-33.8748260869,151.2066387758,0,0
The Moment,Bubble Tea,3.1,Average,16,$,0,1,Chinatown,"Chinatown, Sydney",Sydney,,14,-33.8773995366,151.2047323957,0,0
Top Juice,"Juices, Healthy Food",3.1,Average,10,$,15,1,"MLC Tower, CBD","MLC Tower, CBD, Sydney",Sydney,2000,14,-33.8680328648,151.2093970925,0,0
Cafe Nho,"Beverages, Desserts, Vietnamese, Coffee and Tea",3.1,Average,11,$,25,1,Bankstown,"Bankstown, Sydney",Sydney,2200,14,-33.9184673540,151.0330743715,0,0
Top Juice,"Juices, Healthy Food",3.1,Average,9,$,15,1,"Central Park, Chippendale","Central Park, Chippendale, Sydney",Sydney,2008,14,-33.8847804111,151.2005508319,0,0
Chatime,Bubble Tea,3.1,Average,7,$,15,1,"Chatswood Chase, Chatswood","Chatswood Chase, Chatswood, Sydney",Sydney,,14,-33.7951221217,151.1862633750,0,0
Crazy Ray's Beverage Depot,Juices,3.1,Average,6,$,15,1,Maroubra,"Maroubra, Sydney",Sydney,2035,14,-33.9465048368,151.2564319745,0,0
Chatime,Bubble Tea,3.1,Average,10,$,15,1,Eastwood,"Eastwood, Sydney",Sydney,,14,-33.7915879675,151.0812458396,0,0
Chatime,Bubble Tea,3.1,Average,5,$,15,1,"QVB, CBD","QVB, CBD, Sydney",Sydney,,14,-33.8726030316,151.2067075074,0,0
Tamayaki,Japanese,3.0,Average,50,$,15,1,Chinatown,"Chinatown, Sydney",Sydney,2000,14,-33.8765043356,151.2038167566,0,0
Coco,Bubble Tea,3.0,Average,16,$,10,1,Chinatown,"Chinatown, Sydney",Sydney,2000,14,-33.8838964210,151.2025869638,0,0
Happy Cup,Beverages,3.0,Average,13,$,10,1,Cabramatta,"Cabramatta, Sydney",Sydney,2166,14,-33.8952122495,150.9383706003,0,0
Boost Juice,"Juices, Beverages",3.0,Average,7,$,15,1,"The Galeries, CBD","The Galeries, CBD, Sydney",Sydney,2000,14,-33.8723419176,151.2075413391,0,0
Sharetea,Bubble Tea,3.0,Average,11,$,15,1,Chinatown,"Chinatown, Sydney",Sydney,,14,-33.8784542249,151.2040350214,0,0
Chatime,Bubble Tea,3.0,Average,13,$,15,1,Kingsford,"Kingsford, Sydney",Sydney,2032,14,-33.9200537669,151.2264177203,0,0
Chatime,Bubble Tea,3.0,Average,11,$,15,1,"Central Station, Chinatown","Central Station, Chinatown, Sydney",Sydney,2000,14,-33.8839387281,151.2041892484,0,0
Top Juice,"Juices, Healthy Food",3.0,Average,4,$,15,1,"Top Ryde Shopping Centre, Ryde","Top Ryde Shopping Centre, Ryde, Sydney",Sydney,,14,-33.8122240952,151.1061672494,0,0
Chatime,Bubble Tea,3.0,Average,9,$,15,1,"Castle Towers, Castle Hill","Castle Towers, Castle Hill, Sydney",Sydney,,14,-33.7319704768,151.0044776648,0,0
Chatime,Bubble Tea,3.0,Average,11,$,15,1,"World Square, CBD","World Square, CBD, Sydney",Sydney,,14,-33.8773945262,151.2066367641,0,0
Durga Paan and Falooda House,Beverages,3.0,Average,10,$,0,1,Parramatta,"Parramatta, Sydney",Sydney,2150,14,-33.8218715257,151.0083608329,0,0
Chatime,Bubble Tea,3.0,Average,9,$,15,1,Chinatown,"Chinatown, Sydney",Sydney,2000,14,-33.8797382604,151.2037574127,0,0
Chatime,Bubble Tea,3.0,Average,5,$,15,1,T1 Sydney International Airport,"T1 Sydney International Airport, Sydney",Sydney,,14,-33.9374060000,151.1660490000,0,0
Top Juice,"Juices, Healthy Food",3.0,Average,4,$,15,1,"World Square, CBD","World Square, CBD, Sydney",Sydney,2000,14,-33.8774616102,151.2069810927,0,0
Chatime,Bubble Tea,3.0,Average,4,$,15,1,"Westfield Hurstville, Hurstville","Westfield Hurstville, Hurstville, Sydney",Sydney,2220,14,-33.9663358002,151.1056173965,0,0
Chatime,Bubble Tea,3.0,Average,5,$,15,1,"Stockland Merrylands Shopping Centre, Holroyd","Stockland Merrylands Shopping Centre, Holroyd, Sydney",Sydney,2160,14,-33.8349286703,150.9895766527,0,0
King-T,"Bubble Tea, Desserts",2.9,Average,8,$,10,1,Burwood,"Burwood, Sydney",Sydney,2134,14,-33.8778334941,151.1030176655,0,0
Früt Marbled Juicery,Juices,2.9,Average,17,$,15,1,Burwood,"Burwood, Sydney",Sydney,2134,14,-33.8777975862,151.1035413668,0,0
Teabags,Tea,2.9,Average,19,$,15,1,Cabramatta,"Cabramatta, Sydney",Sydney,,14,-33.8947163194,150.9341296926,0,0
Top Juice,"Juices, Healthy Food",2.9,Average,9,$,15,1,"Broadway Shopping Centre, Glebe","Broadway Shopping Centre, Glebe, Sydney",Sydney,,14,-33.8837942717,151.1944900453,0,0
Top Juice ,"Juices, Healthy Food",2.9,Average,4,$,15,1,"Castle Towers, Castle Hill","Castle Towers, Castle Hill, Sydney",Sydney,,14,-33.7298281952,151.0065852106,0,0
Comebuy,Bubble Tea,2.9,Average,7,$,15,1,Cabramatta,"Cabramatta, Sydney",Sydney,2166,14,-33.8948905353,150.9367072955,0,0
Top Juice,"Juices, Healthy Food",2.9,Average,5,$,15,1,"Westfield Eastgardens, Eastgardens","Westfield Eastgardens, Eastgardens, Sydney",Sydney,2036,14,-33.9447010000,151.2233750000,0,0
Thanh Thuy,Juices,2.9,Average,4,$,10,1,Cabramatta,"Cabramatta, Sydney",Sydney,,14,-33.8953038098,150.9376202524,0,0
Boost Juice,"Juices, Beverages",2.9,Average,5,$,15,1,"Macquarie Centre, Macquarie Park","Macquarie Centre, Macquarie Park, Sydney",Sydney,,14,-33.7768139360,151.1199474335,0,0
Top Juice,"Juices, Healthy Food",2.9,Average,5,$,15,1,Hurstville,"Hurstville, Sydney",Sydney,2220,14,-33.9660621822,151.1052251235,0,0
Top Juice,"Juices, Healthy Food",2.9,Average,9,$,15,1,"Westfield Chatswood, Chatswood","Westfield Chatswood, Chatswood, Sydney",Sydney,2067,14,-33.7968097374,151.1844401434,0,0
Fresh Blend,Healthy Food,2.9,Average,7,$,35,2,Mosman,"Mosman, Sydney",Sydney,2088,14,-33.8309967804,151.2447398901,0,0
Tenfourteen,Juices,2.9,Average,7,$,12,1,Kingsford,"Kingsford, Sydney",Sydney,2032,14,-33.9223871479,151.2267486379,0,0
Gong Cha,Bubble Tea,2.9,Average,4,$,10,1,"The Galeries, CBD","The Galeries, CBD, Sydney",Sydney,,14,-33.8729070140,151.2072590366,0,0
Thu Phung N,Beverages,2.9,Average,6,$,10,1,Cabramatta,"Cabramatta, Sydney",Sydney,2166,14,-33.8943255845,150.9370834753,0,0
De Juice,Juices,2.9,Average,4,$,20,1,"Dixon House Food Court, CBD","Dixon House Food Court, CBD, Sydney",Sydney,,14,-33.8788940225,151.2041979656,0,0
Boost Juice,"Juices, Beverages",2.9,Average,4,$,15,1,"Broadway Shopping Centre, Glebe","Broadway Shopping Centre, Glebe, Sydney",Sydney,,14,-33.8837789632,151.1947844178,0,0
Crush Juice Bar,Juices,2.9,Average,5,$,20,1,"Colonial Centre, CBD","Colonial Centre, CBD, Sydney",Sydney,,14,-33.8672801014,151.2109316513,0,0
Top Juice,"Juices, Healthy Food",2.8,Average,7,$,15,1,"DFO Homebush, Homebush","DFO Homebush, Homebush, Sydney",Sydney,2140,14,-33.8550411978,151.0772225261,0,0
Top Juice,"Juices, Healthy Food",2.8,Average,5,$,15,1,"East Village Shopping Centre, Zetland","East Village Shopping Centre, Zetland, Sydney",Sydney,,14,-33.9050670000,151.2131790000,0,0
ShareTea,Bubble Tea,2.8,Average,4,$,15,1,"Westfield Liverpool, Liverpool","Westfield Liverpool, Liverpool, Sydney",Sydney,,14,-33.9188707764,150.9243272245,0,0
Chatime,Bubble Tea,2.8,Average,4,$,15,1,"Broadway Shopping Centre, Glebe","Broadway Shopping Centre, Glebe, Sydney",Sydney,,14,-33.8838944727,151.1942637339,0,0
Boost Juice,"Juices, Beverages",2.8,Average,4,$,15,1,"World Square, CBD","World Square, CBD, Sydney",Sydney,,14,-33.8769970313,151.2063866481,0,0
Gong Cha,Bubble Tea,2.8,Average,5,$,10,1,Kingsford,"Kingsford, Sydney",Sydney,2032,14,-33.9216676932,151.2266772240,0,0
Boost Juice,"Juices, Beverages",2.8,Average,4,$,15,1,"Westfield Bondi Junction, Bondi Junction","Westfield Bondi Junction, Bondi Junction, Sydney",Sydney,,14,-33.8916151600,151.2501727045,0,0
Boost Juice,"Juices, Beverages",2.8,Average,5,$,15,1,Blacktown,"Blacktown, Sydney",Sydney,,14,-33.7701712285,150.9059031308,0,0
Pressed Juices,Juices,2.8,Average,4,$,20,1,"MLC Tower, CBD","MLC Tower, CBD, Sydney",Sydney,2000,14,-33.8685637483,151.2090722099,0,0
Jane's Juice,Juices,2.8,Average,4,$,20,1,Potts Point,"Potts Point, Sydney",Sydney,2011,14,-33.8748272004,151.2224175409,0,0
Juice Circle,"Juices, Beverages",2.8,Average,4,$,20,1,"Westfield Miranda, Miranda","Westfield Miranda, Miranda, Sydney",Sydney,,14,-34.0352636316,151.1020772159,0,0
Boost Juice,"Juices, Beverages",2.8,Average,4,$,15,1,"Westfield Miranda, Miranda","Westfield Miranda, Miranda, Sydney",Sydney,,14,-34.0351752781,151.1022425070,0,0
Chatime,Bubble Tea,2.7,Average,9,$,15,1,"Strathfield Plaza, Strathfield","Strathfield Plaza, Strathfield, Sydney",Sydney,2135,14,-33.8729663071,151.0942227021,0,0
Sharetea,Bubble Tea,2.7,Average,8,$,15,1,"Westfield Hurstville, Hurstville","Westfield Hurstville, Hurstville, Sydney",Sydney,,14,-33.9673732604,151.1035520956,0,0
Beau Tea,Beverages,2.7,Average,5,$,15,1,Chatswood,"Chatswood, Sydney",Sydney,,14,-33.7964765077,151.1824197695,0,0
EasyWay Tea,Bubble Tea,2.7,Average,7,$,15,1,"Macquarie Centre, Macquarie Park","Macquarie Centre, Macquarie Park, Sydney",Sydney,,14,-33.7769295901,151.1200805381,0,0
Sexy Tea,"Tea, Chinese",2.7,Average,7,$,0,1,Burwood,"Burwood, Sydney",Sydney,,14,-33.8787907538,151.1029197648,0,0
ShareTea,Bubble Tea,2.7,Average,5,$,15,1,"SkyView Shopping Plaza, CBD","SkyView Shopping Plaza, CBD, Sydney",Sydney,,14,-33.8760275037,151.2061247975,0,0
ShareTea,Bubble Tea,2.7,Average,4,$,15,1,Eastwood,"Eastwood, Sydney",Sydney,,14,-33.7906837869,151.0805846751,0,0
Sharetea,Bubble Tea,2.7,Average,7,$,15,1,"UNSW Campus, Kensington","UNSW Campus, Kensington, Sydney",Sydney,,14,-33.9156525252,151.2280867249,0,0
Chatime,Bubble Tea,2.7,Average,9,$,15,1,"Westfield Bondi Junction, Bondi Junction","Westfield Bondi Junction, Bondi Junction, Sydney",Sydney,,14,-33.8928539118,151.2501757219,0,0
Gong Cha,Bubble Tea,2.7,Average,5,$,10,1,Burwood,"Burwood, Sydney",Sydney,2134,14,-33.8749162773,151.1041676626,0,0
ShareTea,Bubble Tea,2.7,Average,6,$,15,1,Cabramatta,"Cabramatta, Sydney",Sydney,,14,-33.8946233669,150.9368326888,0,0
OneZo Handcrafted Tea,Bubble Tea,2.7,Average,4,$,0,1,Cabramatta,"Cabramatta, Sydney",Sydney,,14,-33.8950508360,150.9347814694,0,0
Pressed Juices,Juices,2.7,Average,5,$,20,1,Bondi Beach,"Bondi Beach, Sydney",Sydney,,14,-33.8909424804,151.2736587971,0,0
Coco,Bubble Tea,2.6,Average,9,$,10,1,CBD,"CBD, Sydney",Sydney,,14,-33.8777986997,151.2054770440,0,0
EasyWay Tea,Bubble Tea,2.6,Average,5,$,15,1,"Westfield Hurstville, Hurstville","Westfield Hurstville, Hurstville, Sydney",Sydney,2220,14,-33.9658436208,151.1054966971,0,0
Fresh & Juicy,"Juices, Ice Cream",2.6,Average,5,$,15,1,Maroubra,"Maroubra, Sydney",Sydney,,14,-33.9461262991,151.2564618141,0,0
Gong Cha,Bubble Tea,2.6,Average,4,$,10,1,"Macquarie Centre, Macquarie Park","Macquarie Centre, Macquarie Park, Sydney",Sydney,2113,14,-33.7769059019,151.1201737449,0,0
Gong Cha,Bubble Tea,2.6,Average,4,$,10,1,Ashfield,"Ashfield, Sydney",Sydney,2131,14,-33.8885400500,151.1255988479,0,0
Gong Cha,Bubble Tea,2.5,Average,11,$,10,1,"Lemon Grove Shopping Centre, Chatswood","Lemon Grove Shopping Centre, Chatswood, Sydney",Sydney,2067,14,-33.7963026482,151.1823473498,0,0
Comebuy,Bubble Tea,2.5,Average,12,$,15,1,"Hurstville Central, Hurstville ","Hurstville Central, Hurstville , Sydney",Sydney,,14,-33.9677519817,151.1025278270,0,0
Top Juice,"Juices, Healthy Food",2.5,Average,11,$,15,1,"Macquarie Centre, Macquarie Park","Macquarie Centre, Macquarie Park, Sydney",Sydney,2113,14,-33.7766294465,151.1207993701,0,0
Chatime,Bubble Tea,2.5,Average,18,$,15,1,"Westfield Pitt Street Mall, CBD","Westfield Pitt Street Mall, CBD, Sydney",Sydney,,14,-33.8704236240,151.2076258287,0,0
Black Ball,Beverages,2.5,Average,12,$,15,1,Hurstville,"Hurstville, Sydney",Sydney,,14,-33.9677058234,151.1044784635,0,0
Holy Shake,Beverages,2.4,Poor,20,$,10,1,Chinatown,"Chinatown, Sydney",Sydney,,14,-33.8786590929,151.2057586759,0,0
Gong Cha,Bubble Tea,2.4,Poor,10,$,10,1,"Westfield Chatswood, Chatswood","Westfield Chatswood, Chatswood, Sydney",Sydney,,14,-33.7965709601,151.1840254068,0,0
Gong Cha,Bubble Tea,2.4,Poor,11,$,10,1,Chinatown,"Chinatown, Sydney",Sydney,,14,-33.8831699614,151.2073555961,0,0
Gong Cha,Bubble Tea,2.4,Poor,8,$,10,1,"Eastwood Shopping Centre, Eastwood","Eastwood Shopping Centre, Eastwood, Sydney",Sydney,,14,-33.7917414962,151.0811864957,0,0
Chatime,Bubble Tea,2.3,Poor,12,$,15,1,"MetCentre, CBD","MetCentre, CBD, Sydney",Sydney,2000,14,-33.8650178739,151.2063266337,0,0
Waterside Fruit Connection,Beverages,0,Not rated,3,$,15,1,Pyrmont,"Pyrmont, Sydney",Sydney,,14,-33.8735049543,151.1924099922,0,0
Gumshara Ramen,"Ramen, Japanese",4.2,Very Good,1021,$,35,2,"Harbour Plaza, Chinatown","Harbour Plaza, Chinatown, Sydney",Sydney,2000,14,-33.8776069123,151.2035361305,0,0
Ito's Malaysian,Malaysian,4.2,Very Good,60,$,35,2,"Foodbase, CBD","Foodbase, CBD, Sydney",Sydney,2000,14,-33.8735375236,151.2096710131,0,0
Rice Workshop,Japanese,4.0,Very Good,273,$,20,1,"Westfield Pitt Street Mall, CBD","Westfield Pitt Street Mall, CBD, Sydney",Sydney,,14,-33.8699183631,151.2090648338,0,0
Din Tai Fung,"Chinese, Taiwanese, Yum Cha",4.0,Very Good,173,$,70,3,"The Star, Pyrmont","The Star, Pyrmont, Sydney",Sydney,2009,14,-33.8689788206,151.1955270544,0,0
Ichi-ban Boshi,"Japanese, Ramen",3.9,Good,599,$,30,2,"The Galeries, CBD","The Galeries, CBD, Sydney",Sydney,2000,14,-33.8721812959,151.2074451149,0,0
Din Tai Fung,"Chinese, Taiwanese, Yum Cha",3.9,Good,381,$,70,3,"Westfield Pitt Street Mall, CBD","Westfield Pitt Street Mall, CBD, Sydney",Sydney,2000,14,-33.8703083746,151.2092529237,0,0
Chat Thai,"Thai, Salad",3.9,Good,262,$,55,2,"The Galeries, CBD","The Galeries, CBD, Sydney",Sydney,2000,14,-33.8722018956,151.2073307857,0,0
Peter's Seafood,Seafood,3.9,Good,88,$,65,3,"Sydney Fish Market, Pyrmont","Sydney Fish Market, Pyrmont, Sydney",Sydney,,14,-33.8732747422,151.1921803281,0,0
Sabbaba,"Middle Eastern, Vegetarian",3.9,Good,72,$,40,2,"Westfield Pitt Street Mall, CBD","Westfield Pitt Street Mall, CBD, Sydney",Sydney,2000,14,-33.8699228172,151.2091057375,0,0
Alice's Makan,"Malaysian, Satay, Street Food, Desserts",3.8,Good,126,$,25,1,"Pavilion On George, CBD","Pavilion On George, CBD, Sydney",Sydney,2000,14,-33.8747219782,151.2070427835,0,0
Happy Chef - Sussex Centre,"Asian, Dumplings",3.8,Good,53,$,40,2,"Sussex Centre, Chinatown","Sussex Centre, Chinatown, Sydney",Sydney,2000,14,-33.8782507482,151.2044715509,0,0
Top Juice,"Juices, Healthy Food, Salad",3.8,Good,76,$,15,1,"Westfield Pitt Street Mall, CBD","Westfield Pitt Street Mall, CBD, Sydney",Sydney,2000,14,-33.8703069827,151.2090631574,0,0
Gozleme Turkish house,Turkish,3.8,Good,38,$,20,1,"Birkenhead Point Shopping Centre, Drummoyne","Birkenhead Point Shopping Centre, Drummoyne, Sydney",Sydney,2047,14,-33.8557294738,151.1634900793,0,0
Grill'd - World Square,Burger,3.7,Good,158,$,50,2,"World Square, CBD","World Square, CBD, Sydney",Sydney,,14,-33.8776606351,151.2069639936,0,0
Sassy's Red,Malaysian,3.7,Good,113,$,40,2,"Westfield Pitt Street Mall, CBD","Westfield Pitt Street Mall, CBD, Sydney",Sydney,2000,14,-33.8699161361,151.2091090903,0,0
Grape Garden Beijing Cuisine,Chinese,3.7,Good,67,$,30,2,"Lemon Grove Shopping Centre, Chatswood","Lemon Grove Shopping Centre, Chatswood, Sydney",Sydney,,14,-33.7961148572,151.1822377145,0,0
Ribs & Burgers,"BBQ, Burger",3.7,Good,67,$,70,3,"The Star, Pyrmont","The Star, Pyrmont, Sydney",Sydney,2009,14,-33.8691759166,151.1956832930,0,0
Sayong Curry & Laksa,Malaysian,3.7,Good,36,$,30,2,Pittsway Arcade,"Pittsway Arcade, Sydney",Sydney,2000,14,-33.8736051674,151.2079064548,0,0
CBD Cakes by Alexander's Patisserie,"Desserts, Bakery",3.7,Good,28,$,25,1,"MLC Tower, CBD","MLC Tower, CBD, Sydney",Sydney,2000,14,-33.8687366257,151.2092361599,0,0
Harry's Cafe de Wheels,"Meat Pie, Fast Food",3.6,Good,87,$,30,2,"Capitol Square, Chinatown","Capitol Square, Chinatown, Sydney",Sydney,2000,14,-33.8798445898,151.2056661397,0,0
Sushi Hub,"Sushi, Japanese",3.6,Good,44,$,30,2,"The Galeries, CBD","The Galeries, CBD, Sydney",Sydney,,14,-33.8706104166,151.2069254369,0,0
Guzman Y Gomez,Mexican,3.6,Good,77,$,25,1,"Westfield Pitt Street Mall, CBD","Westfield Pitt Street Mall, CBD, Sydney",Sydney,2000,14,-33.8702373877,151.2090467289,0,0
Guzman Y Gomez,Mexican,3.6,Good,60,$,25,1,"Australia Square Food Court, CBD","Australia Square Food Court, CBD, Sydney",Sydney,2000,14,-33.8651097450,151.2083232030,0,0
David's Kitchen,"Malaysian, Thai",3.6,Good,24,$,55,2,"The Passage, CBD","The Passage, CBD, Sydney",Sydney,2000,14,-33.8762195729,151.2085035816,0,0
East West Gourmet,"Asian, Chinese",3.6,Good,38,$,40,2,"Mandarin Centre, Chatswood","Mandarin Centre, Chatswood, Sydney",Sydney,,14,-33.7979386968,151.1823999882,0,0
Momiji Japanese Takeaway,Japanese,3.6,Good,20,$,30,2,Pittsway Arcade,"Pittsway Arcade, Sydney",Sydney,2000,14,-33.8735430910,151.2078809738,0,0
Four Frogs Creperie,"French, Crepes",3.5,Good,80,$,60,3,"Gateway, Circular Quay","Gateway, Circular Quay, Sydney",Sydney,,14,-33.8618691410,151.2099033594,0,0
Madame Nhu,"Vietnamese, Pho",3.5,Good,110,$,35,2,"The Galeries, CBD","The Galeries, CBD, Sydney",Sydney,2000,14,-33.8722684269,151.2073096633,0,0
Nicholas Seafood,"Seafood, Fish and Chips",3.5,Good,58,$,60,3,"Sydney Fish Market, Pyrmont","Sydney Fish Market, Pyrmont, Sydney",Sydney,2009,14,-33.8734481669,151.1923010275,0,0
Burger Project,"Burger, American",3.5,Good,61,$,45,2,"MLC Tower, CBD","MLC Tower, CBD, Sydney",Sydney,2000,14,-33.8678881031,151.2094436958,0,0
Victoria Noodle Restaurant,Chinese,3.5,Good,44,$,40,2,Chatswood,"Chatswood, Sydney",Sydney,,14,-33.7955603979,151.1856115982,0,0
Poke Bros.,Poké,3.5,Good,49,$,45,2,Cabramatta Plaza,"Cabramatta Plaza, Sydney",Sydney,,14,-33.8936523697,150.9383320436,0,0
Belles Hot Chicken,American,3.5,Good,42,$,45,2,"Tramsheds, Harold Park","Tramsheds, Harold Park, Sydney",Sydney,2037,14,-33.8765455329,151.1785899103,0,1
Crisp CBD,"Burger, Sandwich, Healthy Food, Salad",3.5,Good,65,$,40,2,"The Passage, CBD","The Passage, CBD, Sydney",Sydney,2000,14,-33.8759679343,151.2085857242,0,0
Mad Mex,Mexican,3.5,Good,59,$,30,2,"Macquarie Centre, Macquarie Park","Macquarie Centre, Macquarie Park, Sydney",Sydney,,14,-33.7762704991,151.1193670705,0,0
Samosorn,"Thai, Salad",3.5,Good,44,$,60,3,"Westfield Sydney Central Plaza, CBD","Westfield Sydney Central Plaza, CBD, Sydney",Sydney,2000,14,-33.8700606159,151.2080603465,0,0
Pho 76,"Chinese, Vietnamese, Pho",3.5,Good,39,$,35,2,"Stockland Wetherill Park Shopping Centre, Wetherill Park","Stockland Wetherill Park Shopping Centre, Wetherill Park, Sydney",Sydney,,14,-33.8591159229,150.8990443870,0,0
Din Tai Fung,"Chinese, Taiwanese, Yum Cha",3.5,Good,16,$,70,3,"Broadway Shopping Centre, Glebe","Broadway Shopping Centre, Glebe, Sydney",Sydney,,14,-33.8837650464,151.1939495802,0,0
Bang Luck - Spice Alley,Thai,3.5,Good,30,$,25,1,"Kensington Street, Chippendale","Kensington Street, Chippendale, Sydney",Sydney,2008,14,-33.8850133755,151.2016619369,0,0
CBD Noodle,Asian,3.5,Good,41,$,40,2,"Wintergarden, CBD","Wintergarden, CBD, Sydney",Sydney,2000,14,-33.8645170355,151.2100210413,0,0
Saigon Pho,"Vietnamese, Pho",3.5,Good,39,$,35,2,"Sussex Centre, Chinatown","Sussex Centre, Chinatown, Sydney",Sydney,2000,14,-33.8782423976,151.2045101076,0,0
Guzman Y Gomez,Mexican,3.5,Good,32,$,25,1,"MLC Tower, CBD","MLC Tower, CBD, Sydney",Sydney,2000,14,-33.8682461094,151.2092465535,0,0
North Sandwiches,Sandwich,3.5,Good,29,$,30,2,CBD,"CBD, Sydney",Sydney,2000,14,-33.8646556781,151.2079500407,0,0
Uni Bros,"Pizza, Middle Eastern, Turkish, Burger",3.5,Good,19,$,35,2,"Wentworth Building, Newton","Wentworth Building, Newton, Sydney",Sydney,2008,14,-33.8895339274,151.1910222843,0,0
Stir Crazy Noodle Bar,Asian,3.5,Good,26,$,40,2,Penrith,"Penrith, Sydney",Sydney,2750,14,-33.7512789896,150.6945624948,0,0
Guzman Y Gomez,Mexican,3.5,Good,17,$,25,1,"Greenwood Plaza, North Sydney","Greenwood Plaza, North Sydney, Sydney",Sydney,2060,14,-33.8405334870,151.2077857554,0,0
Thr1ve,Healthy Food,3.4,Average,98,$,50,2,"Westfield Pitt Street Mall, CBD","Westfield Pitt Street Mall, CBD, Sydney",Sydney,,14,-33.8704071995,151.2092173845,0,0
Ichi-Ban Boshi Express,Japanese,3.4,Average,64,$,30,2,CBD,"CBD, Sydney",Sydney,2000,14,-33.8722127522,151.2074471265,0,0
Zeus,Greek,3.4,Average,39,$,55,2,"Broadway Shopping Centre, Glebe","Broadway Shopping Centre, Glebe, Sydney",Sydney,,14,-33.8838574540,151.1947327852,0,0
DoDee Chatswood,Thai,3.4,Average,29,$,30,2,"Westfield Chatswood, Chatswood","Westfield Chatswood, Chatswood, Sydney",Sydney,,14,-33.7970847346,151.1837974191,0,0
Yang Guo Fu Malatang,Chinese,3.4,Average,23,$,35,2,"Dixon House Food Court, CBD","Dixon House Food Court, CBD, Sydney",Sydney,2000,14,-33.8788859503,151.2042760849,0,0
Flying Fish and Chips,Fish and Chips,3.4,Average,49,$,60,3,"The Star, Pyrmont","The Star, Pyrmont, Sydney",Sydney,,14,-33.8690303217,151.1954392120,0,0
Taste Of Cho,Taiwanese,3.4,Average,31,$,30,2,"Market City, Chinatown","Market City, Chinatown, Sydney",Sydney,2000,14,-33.8796611576,151.2034989148,0,0
Costi's Fish & Chips,"Seafood, Fish and Chips, Healthy Food",3.4,Average,39,$,30,2,"Greenwood Plaza, North Sydney","Greenwood Plaza, North Sydney, Sydney",Sydney,2060,14,-33.8404463236,151.2078970671,0,0
Schnitz,"European, Burger",3.4,Average,23,$,60,3,"World Square, CBD","World Square, CBD, Sydney",Sydney,2000,14,-33.8763353710,151.2069928274,0,0
Hokkaido Cheese Tart,Desserts,3.4,Average,14,$,10,1,"Macquarie Centre, Macquarie Park","Macquarie Centre, Macquarie Park, Sydney",Sydney,,14,-33.7769192788,151.1200211942,0,0
Luxe,"Cafe Food, Coffee and Tea",3.4,Average,23,$,40,2,"Westfield Miranda, Miranda","Westfield Miranda, Miranda, Sydney",Sydney,,14,-34.0340730743,151.1001145095,0,0
Soul Origin,"Healthy Food, Salad, Coffee and Tea",3.4,Average,17,$,35,2,"Westfield Hurstville, Hurstville","Westfield Hurstville, Hurstville, Sydney",Sydney,2220,14,-33.9668477193,151.1038561910,0,0
Blackwattle Deli,"Cafe Food, Coffee and Tea",3.4,Average,15,$,20,1,"Sydney Fish Market, Pyrmont","Sydney Fish Market, Pyrmont, Sydney",Sydney,,14,-33.8734534559,151.1923905462,0,0
Soul Origin,"Healthy Food, Salad, Coffee and Tea",3.4,Average,19,$,35,2,"Greenwood Plaza, North Sydney","Greenwood Plaza, North Sydney, Sydney",Sydney,2060,14,-33.8399394930,151.2075513974,0,0
Iku Wholefood,"Healthy Food, Cafe Food, Coffee and Tea",3.4,Average,25,$,30,2,"MetCentre, CBD","MetCentre, CBD, Sydney",Sydney,2000,14,-33.8650432081,151.2064121291,0,0
Iku Wholefood,"Healthy Food, Cafe Food, Coffee and Tea",3.4,Average,17,$,30,2,"MLC Tower, CBD","MLC Tower, CBD, Sydney",Sydney,2000,14,-33.8678989602,151.2094390020,0,0
Charlie & Co. Burgers,Burger,3.3,Average,408,$,45,2,"Westfield Pitt Street Mall, CBD","Westfield Pitt Street Mall, CBD, Sydney",Sydney,2000,14,-33.8703186747,151.2092804164,0,0
Arisun World Square,"Asian, Korean",3.3,Average,91,$,60,3,"World Square, CBD","World Square, CBD, Sydney",Sydney,2000,14,-33.8767431681,151.2071121857,0,0
Chum Tang,Thai,3.3,Average,64,$,60,3,"Chatswood Interchange, Chatswood","Chatswood Interchange, Chatswood, Sydney",Sydney,2067,14,-33.7973165451,151.1809452251,0,0
Christie's Seafood Excellence,Seafood,3.3,Average,56,$,50,2,"Sydney Fish Market, Pyrmont","Sydney Fish Market, Pyrmont, Sydney",Sydney,2009,14,-33.8731149574,151.1921233311,0,0
Lok Lok Dumpling Bar,"Chinese, Taiwanese, Dumplings",3.3,Average,52,$,30,2,"Rhodes Waterside, Rhodes","Rhodes Waterside, Rhodes, Sydney",Sydney,2138,14,-33.8344663665,151.0853754357,0,0
District 8,Asian,3.3,Average,16,$,50,2,"Cabra-Vale Diggers, Canley Vale","Cabra-Vale Diggers, Canley Vale, Sydney",Sydney,2166,14,-33.8899040888,150.9397948533,0,0
Chachu's,Indian,3.3,Average,49,$,20,1,"Westfield Chatswood, Chatswood","Westfield Chatswood, Chatswood, Sydney",Sydney,,14,-33.7967601431,151.1842342839,0,0
Zeus,Greek,3.3,Average,32,$,55,2,"Westfield Pitt Street Mall, CBD","Westfield Pitt Street Mall, CBD, Sydney",Sydney,,14,-33.8699567798,151.2090960145,0,0
Ramen O-San,Ramen,3.3,Average,28,$,30,2,Chinatown,"Chinatown, Sydney",Sydney,,14,-33.8782348820,151.2044162303,0,0
My Donut Box,Desserts,3.3,Average,17,$,35,2,"Broadway Shopping Centre, Glebe","Broadway Shopping Centre, Glebe, Sydney",Sydney,,14,-33.8837324811,151.1944561824,0,0
Soul Origin,"Healthy Food, Salad, Coffee and Tea",3.3,Average,18,$,35,2,"Westfield Parramatta, Parramatta","Westfield Parramatta, Parramatta, Sydney",Sydney,,14,-33.8176058878,151.0015952960,0,0
Crafty Cuts Roastery,American,3.3,Average,21,$,40,2,CBD,"CBD, Sydney",Sydney,2000,14,-33.8680083667,151.2092539296,0,0
Croutons Soup Bar,Healthy Food,3.3,Average,24,$,35,2,"MetCentre, CBD","MetCentre, CBD, Sydney",Sydney,2000,14,-33.8645933168,151.2066900730,0,0
Grill'd - Broadway,Burger,3.3,Average,16,$,50,2,"Broadway Shopping Centre, Glebe","Broadway Shopping Centre, Glebe, Sydney",Sydney,,14,-33.8835468305,151.1943609640,0,0
Hero Sushi,"Sushi, Japanese",3.3,Average,13,$,35,2,"Gateway, Circular Quay","Gateway, Circular Quay, Sydney",Sydney,2000,14,-33.8620411968,151.2099486217,0,0
Wok 'n' Roll Noodle Bar,Chinese,3.3,Average,13,$,30,2,"Carlingford Court Shopping Centre, Carlingford","Carlingford Court Shopping Centre, Carlingford, Sydney",Sydney,2118,14,-33.7768788695,151.0525488854,0,0
Bangkok Wok,"Thai, Asian, Fast Food, Salad, Satay, Seafood, Street Food",3.3,Average,14,$,20,1,"Hunter Connection, CBD","Hunter Connection, CBD, Sydney",Sydney,2000,14,-33.8660635282,151.2078880146,0,0
Bar Fino,"Modern Australian, Cafe Food, Coffee and Tea",3.3,Average,17,$,30,2,CBD,"CBD, Sydney",Sydney,2000,14,-33.8685737702,151.2095238268,0,0
Soul Origin,"Healthy Food, Salad, Coffee and Tea",3.3,Average,14,$,35,2,"Marrickville Metro Shopping Centre, Marrickville","Marrickville Metro Shopping Centre, Marrickville, Sydney",Sydney,2204,14,-33.9064024717,151.1715548113,0,0
Spice Boys @ Hunter Connection,"Indian, Nepalese",3.3,Average,7,$,30,2,"Hunter Connection, CBD","Hunter Connection, CBD, Sydney",Sydney,2000,14,-33.8662183152,151.2079590932,0,0
Aqua S,"Desserts, Ice Cream",3.2,Average,45,$,15,1,"Macquarie Centre, Macquarie Park","Macquarie Centre, Macquarie Park, Sydney",Sydney,2113,14,-33.7775608078,151.1205143854,0,0
Old Jim Kee - Spice Alley,Malaysian,3.2,Average,24,$,35,2,"Kensington Street, Chippendale","Kensington Street, Chippendale, Sydney",Sydney,2008,14,-33.8848764359,151.2016857415,0,0
Yatai Ozeki,Japanese,3.2,Average,25,$,20,1,Macquarie Park,"Macquarie Park, Sydney",Sydney,,14,-33.7769736222,151.1198803783,0,0
1Ton Noodle,"Asian, Chinese",3.2,Average,20,$,25,1,"Chatswood Interchange, Chatswood","Chatswood Interchange, Chatswood, Sydney",Sydney,2067,14,-33.7971853159,151.1807906628,0,0
Lok Lok Dumpling Bar,"Chinese, Taiwanese, Dumplings",3.2,Average,17,$,30,2,"Westfield Parramatta, Parramatta","Westfield Parramatta, Parramatta, Sydney",Sydney,2150,14,-33.8171309554,151.0014437512,0,0
Pasta Pantry,Italian,3.2,Average,11,$,60,3,"Westfield Bondi Junction, Bondi Junction","Westfield Bondi Junction, Bondi Junction, Sydney",Sydney,,14,-33.8912408313,151.2516140565,0,0
Sushi Bar at the Fish Market,"Japanese, Sushi",3.2,Average,21,$,30,2,"Sydney Fish Market, Pyrmont","Sydney Fish Market, Pyrmont, Sydney",Sydney,2009,14,-33.8733151059,151.1922353134,0,0
Workshop Espresso,"Coffee and Tea, Cafe Food",3.2,Average,16,$,25,1,"Gateway, Circular Quay","Gateway, Circular Quay, Sydney",Sydney,,14,-33.8622566836,151.2099891901,0,0
At Thai Cuisine (ร้านกินปลา),Thai,3.2,Average,14,$,35,2,"Harbour Plaza, Chinatown","Harbour Plaza, Chinatown, Sydney",Sydney,2000,14,-33.8776088608,151.2035361305,0,0
PappaRoti,"Malaysian, Coffee and Tea",3.2,Average,13,$,30,2,"Macquarie Centre, Macquarie Park","Macquarie Centre, Macquarie Park, Sydney",Sydney,2113,14,-33.7769917367,151.1199695617,0,0
Thr1ve,Healthy Food,3.2,Average,17,$,50,2,CBD,"CBD, Sydney",Sydney,2000,14,-33.8680559710,151.2093950808,0,0
The Gozleme Co.,Turkish,3.2,Average,12,$,25,1,"MLC Tower, CBD","MLC Tower, CBD, Sydney",Sydney,,14,-33.8679980663,151.2092576176,0,0
Brasserie Bread,"Sandwich, Cafe Food, Coffee and Tea",3.2,Average,19,$,30,2,T2 Sydney Domestic Airport,"T2 Sydney Domestic Airport, Sydney",Sydney,2020,14,-33.9343650000,151.1787510000,0,0
Soul Origin,"Healthy Food, Salad, Coffee and Tea",3.2,Average,12,$,35,2,"Harbourside Shopping Centre, Darling Harbour","Harbourside Shopping Centre, Darling Harbour, Sydney",Sydney,,14,-33.8718998593,151.1989653111,0,0
Bun Me,Vietnamese,3.2,Average,15,$,40,2,"Broadway Shopping Centre, Glebe","Broadway Shopping Centre, Glebe, Sydney",Sydney,,14,-33.8836937923,151.1938121170,0,0
Guzman Y Gomez,Mexican,3.2,Average,13,$,25,1,"Top Ryde Shopping Centre, Ryde","Top Ryde Shopping Centre, Ryde, Sydney",Sydney,,14,-33.8113599684,151.1062343046,0,0
German Schnitzel Haus,German,3.2,Average,17,$,25,1,CBD,"CBD, Sydney",Sydney,2000,14,-33.8638121261,151.2069636583,0,0
Nando's,Portuguese,3.2,Average,22,$,35,2,"Pacific Square, Maroubra","Pacific Square, Maroubra, Sydney",Sydney,2035,14,-33.9406135310,151.2386931852,0,0
Marrickville Pork Roll,"Sandwich, Vietnamese",4.7,Excellent,392,$,20,1,Marrickville,"Marrickville, Sydney",Sydney,2204,14,-33.9148275627,151.1523776874,0,0
El Jannah,Lebanese,4.6,Excellent,979,$,35,2,Granville,"Granville, Sydney",Sydney,2142,14,-33.8330426780,151.0110946745,0,0
Mr Crackles,"Sandwich, Fast Food, Salad",4.3,Very Good,569,$,35,2,Darlinghurst,"Darlinghurst, Sydney",Sydney,2010,14,-33.8802643392,151.2160945684,0,0
King's Hot Bread,"Bakery, Fast Food",4.3,Very Good,136,$,15,1,Hurstville,"Hurstville, Sydney",Sydney,2220,14,-33.9677505914,151.1041978374,0,0
Butter Sydney,Fast Food,4.2,Very Good,165,$,35,2,Surry Hills,"Surry Hills, Sydney",Sydney,,14,-33.8791219926,151.2105226144,0,0
Harry's Cafe de Wheels,"Meat Pie, Fast Food",4.2,Very Good,299,$,30,2,Woolloomooloo,"Woolloomooloo, Sydney",Sydney,2011,14,-33.8693023028,151.2209319323,0,0
The Yeeros Shop,Greek,4.2,Very Good,141,$,20,1,Marrickville,"Marrickville, Sydney",Sydney,2204,14,-33.9156319360,151.1506084353,0,0
Paul's Famous Hamburgers,Burger,4.1,Very Good,176,$,30,2,Sylvania,"Sylvania, Sydney",Sydney,2224,14,-34.0067526275,151.1122873798,0,0
Clem's Chicken Shop,"Fast Food, Charcoal Chicken",4.1,Very Good,107,$,35,2,Newtown,"Newtown, Sydney",Sydney,2042,14,-33.8952228249,151.1820747703,0,0
Hot Star Large Fried Chicken,"Fast Food, Taiwanese",4.0,Very Good,369,$,25,1,CBD,"CBD, Sydney",Sydney,2000,14,-33.8766805373,151.2066029012,0,0
Frango's,"Portuguese, Charcoal Chicken",4.0,Very Good,240,$,40,2,Petersham,"Petersham, Sydney",Sydney,2049,14,-33.8963079053,151.1533439532,0,0
Thirsty Bird,"American, Fast Food",4.0,Very Good,81,$,30,2,Potts Point,"Potts Point, Sydney",Sydney,,14,-33.8751242158,151.2228832394,0,0
Red Lea,"Fast Food, Charcoal Chicken",4.0,Very Good,60,$,20,1,Cabramatta,"Cabramatta, Sydney",Sydney,2166,14,-33.8951243070,150.9369423240,0,0
Burger Patch,Burger,4.0,Very Good,25,$,20,1,Chatswood,"Chatswood, Sydney",Sydney,2067,14,-33.7975252297,151.1794840917,0,0
Brothers Kebabs,Kebab,4.0,Very Good,43,$,35,2,Rockdale,"Rockdale, Sydney",Sydney,2216,14,-33.9450376808,151.1415298283,0,0
BurgerFuel,Burger,3.9,Good,210,$,35,2,Newtown,"Newtown, Sydney",Sydney,2042,14,-33.8943979429,151.1831282079,0,0
Juicy Lucy,"Charcoal Chicken, Burger, Asian",3.9,Good,77,$,35,2,Surry Hills,"Surry Hills, Sydney",Sydney,2010,14,-33.8810874094,151.2088033184,0,0
Guzman Y Gomez,Mexican,3.9,Good,195,$,25,1,Newtown,"Newtown, Sydney",Sydney,2042,14,-33.8942763251,151.1826799437,0,0
Burgers by Josh,Burger,3.9,Good,70,$,40,2,Annandale,"Annandale, Sydney",Sydney,,14,-33.8874017107,151.1714391410,0,0
Mario Brothers Pizza & Pasta,"Italian, Pizza",3.9,Good,91,$,30,2,Crows Nest,"Crows Nest, Sydney",Sydney,2065,14,-33.8272468623,151.2005692720,0,0
Al Barakeh Charcoal Chicken,Lebanese,3.9,Good,99,$,35,2,Liverpool,"Liverpool, Sydney",Sydney,2170,14,-33.9250178631,150.9239208698,0,0
Fish Market Cafe,"Seafood, Fish and Chips",3.8,Good,178,$,50,2,"Sydney Fish Market, Pyrmont","Sydney Fish Market, Pyrmont, Sydney",Sydney,2009,14,-33.8728997763,151.1925099045,0,0
Marukame Udon,"Japanese, Fast Food",3.8,Good,190,$,30,2,Chatswood,"Chatswood, Sydney",Sydney,2067,14,-33.7959003181,151.1849363521,0,0
El Jannah,Lebanese,3.8,Good,131,$,35,2,Punchbowl,"Punchbowl, Sydney",Sydney,2196,14,-33.9246603733,151.0558389500,0,0
Burgers Anonymous,"Burger, American",3.8,Good,63,$,45,2,Darlinghurst,"Darlinghurst, Sydney",Sydney,,14,-33.8791194874,151.2150501832,0,0
BenBry Burgers,Burger,3.8,Good,101,$,30,2,Manly,"Manly, Sydney",Sydney,2095,14,-33.7971610761,151.2867556885,0,0
Guzman Y Gomez,Mexican,3.8,Good,74,$,25,1,"Rhodes Waterside, Rhodes","Rhodes Waterside, Rhodes, Sydney",Sydney,2138,14,-33.8344485427,151.0851692408,0,0
Mad Mex,Mexican,3.8,Good,122,$,30,2,Darlinghurst,"Darlinghurst, Sydney",Sydney,2010,14,-33.8797204461,151.2149901688,0,0
Grill'd - Crown Street,Burger,3.8,Good,96,$,50,2,Darlinghurst,"Darlinghurst, Sydney",Sydney,2010,14,-33.8796528071,151.2150448188,0,0
Radley's Rotisserie Chicken & Burgers,"Fast Food, Burger",3.8,Good,15,$,35,2,"Chatswood Chase, Chatswood","Chatswood Chase, Chatswood, Sydney",Sydney,2067,14,-33.7950588737,151.1864169315,0,0
Hole in the Wall Sandwich Factory,Sandwich,3.8,Good,50,$,25,1,CBD,"CBD, Sydney",Sydney,2000,14,-33.8685985465,151.2120152637,0,0
Pablo's Charcoal Chicken & Ribs,"BBQ, Burger, Charcoal Chicken",3.8,Good,45,$,25,1,Surry Hills,"Surry Hills, Sydney",Sydney,2010,14,-33.8913062346,151.2128065154,0,0
Upper Crust Pies,Meat Pie,3.8,Good,35,$,30,2,Collaroy,"Collaroy, Sydney",Sydney,,14,-33.7384505320,151.3025173545,0,0
Rosso Cavallino,"Italian, Pizza",3.8,Good,33,$,60,3,Mosman,"Mosman, Sydney",Sydney,2088,14,-33.8311466177,151.2440552563,0,0
Royal Stacks,Burger,3.7,Good,101,$,45,2,"Westfield Chatswood, Chatswood","Westfield Chatswood, Chatswood, Sydney",Sydney,2067,14,-33.7965288884,151.1834970117,0,0
Grill'd - Chatswood,Burger,3.7,Good,116,$,50,2,"The Concourse, Chatswood","The Concourse, Chatswood, Sydney",Sydney,2067,14,-33.7961928713,151.1835469678,0,0
Dean's Diner,"Burger, Greek",3.7,Good,91,$,30,2,Enmore,"Enmore, Sydney",Sydney,2042,14,-33.8995151990,151.1777936295,0,0
El Jannah,Lebanese,3.7,Good,76,$,35,2,Blacktown,"Blacktown, Sydney",Sydney,2148,14,-33.7709691609,150.9084529057,0,0
Viet Hoa Oyster Bar & Kitchen,"Asian, Seafood, Fish and Chips, Fast Food, Vietnamese",3.7,Good,44,$,85,3,Cabramatta,"Cabramatta, Sydney",Sydney,2166,14,-33.8943901505,150.9354798496,0,0
Guzman y Gomez,Mexican,3.7,Good,79,$,25,1,Bondi Junction,"Bondi Junction, Sydney",Sydney,2022,14,-33.8927027911,151.2496999651,0,0
Guzman y Gomez,Mexican,3.7,Good,76,$,25,1,Potts Point,"Potts Point, Sydney",Sydney,2011,14,-33.8747283806,151.2227387354,0,0
Kiwi Fish Shop,"Burger, Seafood, Fish and Chips",3.7,Good,50,$,40,2,Mascot,"Mascot, Sydney",Sydney,2020,14,-33.9218379592,151.1964326352,0,0
Crust,"Pizza, Fast Food",3.7,Good,65,$,45,2,Annandale,"Annandale, Sydney",Sydney,2038,14,-33.8815619863,151.1713191122,0,0
Angelino Pizzeria,"Italian, Pizza",3.7,Good,44,$,30,2,Waterloo,"Waterloo, Sydney",Sydney,2017,14,-33.8981351731,151.2131149694,0,0
Luigi's Pizza Bar,Pizza,3.7,Good,32,$,40,2,North Ryde,"North Ryde, Sydney",Sydney,2113,14,-33.8009444444,151.1312250000,0,0
Sunny's Takeaway,"Fast Food, Chinese",3.7,Good,26,$,35,2,Matraville,"Matraville, Sydney",Sydney,2036,14,-33.9655836267,151.2414753065,0,0
Namoi Thai Kitchen,Thai,3.7,Good,19,$,25,1,Ingleburn,"Ingleburn, Sydney",Sydney,2565,14,-33.9990401533,150.8669272810,0,0
Newtown North Indian Diner,Indian,3.6,Good,106,$,40,2,Newtown,"Newtown, Sydney",Sydney,2042,14,-33.8948493469,151.1825230345,0,1
Harry's Cafe de Wheels,"Meat Pie, Fast Food",3.6,Good,87,$,30,2,"Capitol Square, Chinatown","Capitol Square, Chinatown, Sydney",Sydney,2000,14,-33.8798445898,151.2056661397,0,0
Kaysone Sweets,"Asian, Desserts",3.6,Good,37,$,25,1,Cabramatta,"Cabramatta, Sydney",Sydney,2166,14,-33.8947806068,150.9369748458,0,0
Loaded by BL,"Burger, Fast Food",3.6,Good,26,$,30,2,Newtown,"Newtown, Sydney",Sydney,,14,-33.8933175693,151.1835513264,0,0
King Kebab House,"Turkish, Kebab, Pizza",3.6,Good,29,$,40,2,Campbelltown,"Campbelltown, Sydney",Sydney,2560,14,-34.0669554843,150.8139023557,0,0
Mad Mex,Mexican,3.6,Good,39,$,30,2,Chinatown,"Chinatown, Sydney",Sydney,,14,-33.8832406592,151.2036333606,0,0
Al Taglio,"Italian, Pizza",3.6,Good,30,$,50,2,Surry Hills,"Surry Hills, Sydney",Sydney,2010,14,-33.8832144955,151.2121590972,0,1
Mascot Charcoal Chickens,"Burger, Mediterranean, Charcoal Chicken",3.6,Good,42,$,40,2,Mascot,"Mascot, Sydney",Sydney,2020,14,-33.9308028694,151.1944779754,0,0
Sammy's Lebanese Restaurant,"Fast Food, Middle Eastern, Vegetarian",3.6,Good,35,$,50,2,Brighton-Le-Sands,"Brighton-Le-Sands, Sydney",Sydney,2217,14,-33.9660913793,151.1488767341,0,0
Crust,"Pizza, Fast Food",3.6,Good,20,$,45,2,Parramatta,"Parramatta, Sydney",Sydney,2150,14,-33.8064098745,151.0058858246,0,0
Chilli Club,"Thai, Vegetarian",3.6,Good,19,$,45,2,Narrabeen,"Narrabeen, Sydney",Sydney,2101,14,-33.7124230686,151.2973339856,0,0
Royal Thailicious,Thai,3.6,Good,19,$,0,1,Camden,"Camden, Sydney",Sydney,2567,14,-34.0499480000,150.7555560000,0,0
The Hills Ocean Foods,"Seafood, Fish and Chips",3.6,Good,17,$,30,2,Northmead,"Northmead, Sydney",Sydney,2152,14,-33.7877368440,150.9949752688,0,0
Krazy Chix,"Burger, Healthy Food",3.6,Good,18,$,30,2,Malabar,"Malabar, Sydney",Sydney,2036,14,-33.9626535624,151.2469865754,0,0
Mina Bakery Carlton,"Lebanese, Pizza",3.6,Good,7,$,30,2,Hurstville,"Hurstville, Sydney",Sydney,2218,14,-33.9657657617,151.1180946976,0,0
Mad fo' Chicks,"Asian, Korean",3.5,Good,62,$,35,2,Eastwood,"Eastwood, Sydney",Sydney,2122,14,-33.7905873775,151.0827582702,0,0
Sushi Fusion,Sushi,3.5,Good,59,$,30,2,Randwick,"Randwick, Sydney",Sydney,2031,14,-33.9132082202,151.2397124246,0,0
Viet Hoa Hot Bread,Fast Food,3.5,Good,47,$,20,1,Cabramatta,"Cabramatta, Sydney",Sydney,2166,14,-33.8948142811,150.9347697347,0,0
Mad Mex,Mexican,3.5,Good,41,$,30,2,"Westpoint Shopping Centre, Blacktown","Westpoint Shopping Centre, Blacktown, Sydney",Sydney,2148,14,-33.7702264123,150.9065599367,0,0
Zambrero Darlinghurst,Mexican,3.5,Good,51,$,35,2,Darlinghurst,"Darlinghurst, Sydney",Sydney,2010,14,-33.8792461372,151.2148282304,0,0
Crispy Cluckers,Fast Food,3.5,Good,30,$,30,2,"Newington Marketplace, Newington","Newington Marketplace, Newington, Sydney",Sydney,2127,14,-33.8336913058,151.0570016876,0,0
Harry's Cafe de Wheels,"Meat Pie, Fast Food",3.5,Good,42,$,30,2,Liverpool,"Liverpool, Sydney",Sydney,2170,14,-33.9078293894,150.9198693931,0,0
The Hot Dog Man,American,3.5,Good,22,$,50,2,Manly,"Manly, Sydney",Sydney,2095,14,-33.7986162881,151.2855463475,0,0
Butter,Fast Food,3.5,Good,18,$,35,2,Parramatta,"Parramatta, Sydney",Sydney,,14,-33.8153507016,151.0013978183,0,0
Chargrill Charlie's,"Charcoal Chicken, Burger, Grill",3.5,Good,16,$,30,2,Rose Bay,"Rose Bay, Sydney",Sydney,,14,-33.8702822069,151.2687178329,0,0
Harry's Cafe de Wheels,"Meat Pie, Fast Food",3.5,Good,39,$,30,2,Tempe,"Tempe, Sydney",Sydney,2044,14,-33.9260472222,151.1594861111,0,0
Asahi,"Japanese, Fast Food",3.5,Good,37,$,40,2,Beverly Hills,"Beverly Hills, Sydney",Sydney,,14,-33.9511725886,151.0820515081,0,0
La Reina - The Queen of Venezuelan Arepas,Venezuelan,3.5,Good,23,$,25,1,Newtown,"Newtown, Sydney",Sydney,,14,-33.8928764546,151.1855582893,0,0
Soul Origin,"Healthy Food, Salad, Coffee and Tea",3.5,Good,34,$,35,2,"Wintergarden, CBD","Wintergarden, CBD, Sydney",Sydney,2000,14,-33.8648505569,151.2096418440,0,0
Nando's,Portuguese,3.5,Good,25,$,35,2,CBD,"CBD, Sydney",Sydney,2000,14,-33.8693412764,151.2047541887,0,0
Zodiac Pizza,Pizza,3.5,Good,33,$,45,2,Meadowbank,"Meadowbank, Sydney",Sydney,,14,-33.8154785602,151.0895107314,0,0
Golden Pide,"Pizza, Turkish",3.5,Good,36,$,30,2,Surry Hills,"Surry Hills, Sydney",Sydney,2010,14,-33.8917429045,151.2145455927,0,0
Blue's Point Gourmet Pizza,"Pizza, Vegetarian",3.5,Good,32,$,55,2,McMahons Point,"McMahons Point, Sydney",Sydney,,14,-33.8448798492,151.2043619156,0,0
PappaRoti,"Malaysian, Coffee and Tea",3.5,Good,24,$,30,2,Kogarah,"Kogarah, Sydney",Sydney,2217,14,-33.9653194606,151.1317615584,0,0
Crust,"Pizza, Fast Food",3.5,Good,27,$,45,2,Cronulla,"Cronulla, Sydney",Sydney,,14,-34.0537522169,151.1522683874,0,0
Bottom of the Harbour,"Fast Food, Fish and Chips",3.4,Average,92,$,40,2,Mosman,"Mosman, Sydney",Sydney,2088,14,-33.8265564071,151.2513451651,0,0
Top's Kitchen,"Burger, Sandwich",3.4,Average,39,$,30,2,Surry Hills,"Surry Hills, Sydney",Sydney,2010,14,-33.8852232377,151.2140285969,0,0
Macau Noodle Kitchen,"Cantonese, Chinese",3.4,Average,32,$,40,2,Burwood,"Burwood, Sydney",Sydney,2134,14,-33.8759957705,151.1040167883,0,0
Metro One,Turkish,3.4,Average,44,$,40,2,Ashfield,"Ashfield, Sydney",Sydney,2131,14,-33.8879299688,151.1235617101,0,0
Istanbul on King,Turkish,3.4,Average,53,$,30,2,Newtown,"Newtown, Sydney",Sydney,2042,14,-33.8941747448,151.1829374358,0,0
ICG - Incredible Chicken,Korean,3.4,Average,26,$,40,2,Chinatown,"Chinatown, Sydney",Sydney,,14,-33.8776539545,151.2048718706,0,0
Rolls Vietnam,"Sandwich, Vietnamese",3.4,Average,31,$,30,2,"MLC Building, North Sydney","MLC Building, North Sydney, Sydney",Sydney,2060,14,-33.8380288260,151.2074836716,0,0
Jake Chalmers,"Burger, American",3.4,Average,24,$,20,1,Cronulla,"Cronulla, Sydney",Sydney,,14,-34.0538208286,151.1531555280,0,0
Indian Home Diner,"Indian, Kebab",3.4,Average,35,$,35,2,Paddington,"Paddington, Sydney",Sydney,2021,14,-33.8833962500,151.2209195271,0,0
Mascot Kebab,"Kebab, Burger",3.4,Average,22,$,25,1,Mascot,"Mascot, Sydney",Sydney,2020,14,-33.9306206596,151.1941752210,0,0
McDonald's,Fast Food,3.4,Average,22,$,20,1,Castle Hill,"Castle Hill, Sydney",Sydney,2154,14,-33.7334744754,151.0030279309,0,0
Big John's Pizza,"Burger, Fast Food",3.4,Average,29,$,35,2,Bondi,"Bondi, Sydney",Sydney,2026,14,-33.8945568530,151.2656061351,0,0
Dougie's Grill,"Burger, Fast Food, Grill, Charcoal Chicken",3.4,Average,35,$,30,2,Hurstville,"Hurstville, Sydney",Sydney,2220,14,-33.9669939813,151.1025962234,0,0
Chargrill Charlie's,"Charcoal Chicken, Burger, Grill",3.4,Average,16,$,30,2,Woollahra,"Woollahra, Sydney",Sydney,2025,14,-33.8881865820,151.2379666418,0,0
Crust,"Pizza, Fast Food",3.4,Average,32,$,45,2,Castle Hill,"Castle Hill, Sydney",Sydney,2154,14,-33.7323056304,151.0057004169,0,0
Cho Express,Taiwanese,3.4,Average,18,$,30,2,"Westfield Hurstville, Hurstville","Westfield Hurstville, Hurstville, Sydney",Sydney,,14,-33.9658405621,151.1055141315,0,0
Crust,"Pizza, Fast Food",3.4,Average,22,$,45,2,Maroubra,"Maroubra, Sydney",Sydney,2035,14,-33.9423402730,151.2398002669,0,0
Fiesta,Filipino,3.4,Average,24,$,30,2,Blacktown,"Blacktown, Sydney",Sydney,2148,14,-33.7688590691,150.9073106200,0,0
Bennelong Restaurant,Modern Australian,4.9,Excellent,362,$,270,4,Circular Quay,"Circular Quay, Sydney",Sydney,,14,-33.8573212302,151.2148600817,0,1
Restaurant Hubert,"French, European",4.9,Excellent,290,$,150,4,CBD,"CBD, Sydney",Sydney,2000,14,-33.8653714379,151.2100612745,0,0
The Baxter Inn,Bar Food,4.7,Excellent,645,$,60,3,CBD,"CBD, Sydney",Sydney,2000,14,-33.8687636291,151.2060550600,0,0
Kepos Street Kitchen,Middle Eastern,4.5,Excellent,681,$,55,2,Redfern,"Redfern, Sydney",Sydney,2016,14,-33.8971466834,151.2127589062,0,0
SaltVine,"Bar Food, Lebanese, Tapas",4.5,Excellent,70,$,80,3,Surry Hills,"Surry Hills, Sydney",Sydney,,14,-33.8900284961,151.2130995467,0,1
Contessa Balmain,Modern Australian,4.5,Excellent,161,$,60,3,Balmain,"Balmain, Sydney",Sydney,2041,14,-33.8563893450,151.1776119098,0,0
Hugos Manly,"Modern Australian, Tapas",4.4,Very Good,430,$,130,4,"Manly Wharf, Manly","Manly Wharf, Manly, Sydney",Sydney,,14,-33.7998310355,151.2838096172,0,1
Bar H Dining,Japanese,4.4,Very Good,370,$,100,4,Surry Hills,"Surry Hills, Sydney",Sydney,2010,14,-33.8800923201,151.2098943070,0,1
Bar Luca,"Burger, Modern Australian",4.3,Very Good,453,$,60,3,CBD,"CBD, Sydney",Sydney,2000,14,-33.8638967601,151.2115200609,0,0
Yulli's,"Australian, Asian, Vegan",4.3,Very Good,563,$,75,3,Surry Hills,"Surry Hills, Sydney",Sydney,2010,14,-33.8864456610,151.2137687579,0,0
Belly Bao,"Asian, Taiwanese",4.3,Very Good,295,$,40,2,Newtown,"Newtown, Sydney",Sydney,2000,14,-33.8947402532,151.1826269701,0,0
The Winery,Modern Australian,4.3,Very Good,1106,$,100,4,Surry Hills,"Surry Hills, Sydney",Sydney,2010,14,-33.8814180826,151.2143303454,0,1
Gigi Pizzeria,"Italian, Pizza, Vegan",4.3,Very Good,416,$,80,3,Enmore,"Enmore, Sydney",Sydney,2042,14,-33.8992486016,151.1777886003,0,0
Mjølner,"BBQ, Modern Australian",4.3,Very Good,66,$,80,3,Redfern,"Redfern, Sydney",Sydney,,14,-33.8901754467,151.2075118348,0,0
4 Pines - Keller Door,Bar Food,4.3,Very Good,232,$,80,3,Manly,"Manly, Sydney",Sydney,2095,14,-33.7996348940,151.2851845846,0,1
Grandma's Bar,"Bar Food, Sandwich",4.3,Very Good,252,$,90,3,CBD,"CBD, Sydney",Sydney,2000,14,-33.8720922161,151.2056319416,0,0
The Potting Shed,Modern Australian,4.2,Very Good,428,$,65,3,"The Grounds of Alexandria, Alexandria","The Grounds of Alexandria, Alexandria, Sydney",Sydney,,14,-33.9114577932,151.1942962557,0,0
Spice I Am,Thai,4.2,Very Good,706,$,60,3,Surry Hills,"Surry Hills, Sydney",Sydney,2000,14,-33.8794863538,151.2093280256,0,0
Tapavino,"Spanish, Tapas",4.2,Very Good,285,$,85,3,Circular Quay,"Circular Quay, Sydney",Sydney,2000,14,-33.8626609288,151.2092338130,0,1
Gazebo Wine Bar & Dining,Modern Australian,4.2,Very Good,257,$,70,3,Potts Point,"Potts Point, Sydney",Sydney,2011,14,-33.8727697766,151.2258769199,0,1
The Lobo Plantation,"Bar Food, Latin American",4.2,Very Good,183,$,80,3,CBD,"CBD, Sydney",Sydney,2000,14,-33.8700032694,151.2054294348,0,0
Thievery,"Lebanese, Bar Food",4.2,Very Good,111,$,90,3,Glebe,"Glebe, Sydney",Sydney,2037,14,-33.8826366637,151.1905156821,0,0
Mad Pizza e Bar,"Italian, Pizza",4.2,Very Good,164,$,80,3,Darlinghurst,"Darlinghurst, Sydney",Sydney,2010,14,-33.8815419456,151.2147011608,0,0
Bar Ume,"Burger, Japanese, Bar Food",4.2,Very Good,60,$,60,3,Surry Hills,"Surry Hills, Sydney",Sydney,2010,14,-33.8870821937,151.2153680250,0,0
Tequila Mockingbird,"Latin American, Mexican, Argentine",4.2,Very Good,41,$,110,4,Paddington,"Paddington, Sydney",Sydney,2021,14,-33.8825670786,151.2281661853,0,1
Méjico,"Mexican, Bar Food",4.1,Very Good,711,$,100,4,CBD,"CBD, Sydney",Sydney,2000,14,-33.8660682609,151.2086065114,0,1
Bodhi Restaurant & Bar,"Asian, Yum Cha, Chinese, Vegan",4.1,Very Good,392,$,70,3,CBD,"CBD, Sydney",Sydney,2000,14,-33.8721977200,151.2133664265,0,0
Frankie's Pizza,Pizza,4.1,Very Good,337,$,80,3,CBD,"CBD, Sydney",Sydney,2000,14,-33.8660370808,151.2095429376,0,0
Yebisu Bar & Grill,Grill,4.1,Very Good,90,$,50,2,Chinatown,"Chinatown, Sydney",Sydney,,14,-33.8785975769,151.2040668726,0,1
Stitch,"Bar Food, Poké",4.1,Very Good,361,$,75,3,CBD,"CBD, Sydney",Sydney,2000,14,-33.8676010845,151.2058039382,0,0
The Henson,Bar Food,4.1,Very Good,203,$,65,3,Marrickville,"Marrickville, Sydney",Sydney,2204,14,-33.9052315355,151.1611196771,0,0
Mercado,"BBQ, Modern Australian",4.1,Very Good,88,$,60,3,CBD,"CBD, Sydney",Sydney,2000,14,-33.8668229837,151.2081428245,0,0
The Owl House,Modern Australian,4.1,Very Good,192,$,110,4,Darlinghurst,"Darlinghurst, Sydney",Sydney,2010,14,-33.8748979052,151.2160902098,0,1
Shady Pines Saloon,Bar Food,4.1,Very Good,246,$,70,3,Darlinghurst,"Darlinghurst, Sydney",Sydney,2010,14,-33.8790162190,151.2155044824,0,0
Eau de Vie -The Kirketon Hotel,"Bar Food, Pizza",4.1,Very Good,161,$,90,3,"The Kirketon Hotel, Darlinghurst","The Kirketon Hotel, Darlinghurst, Sydney",Sydney,2010,14,-33.8769491537,151.2210201100,0,0
Pocket Bar,Bar Food,4.1,Very Good,201,$,90,3,Darlinghurst,"Darlinghurst, Sydney",Sydney,2010,14,-33.8785641745,151.2152406201,0,0
Mojo's Tapas Bar,"Spanish, Tapas, European",4.1,Very Good,183,$,80,3,Bondi Beach,"Bondi Beach, Sydney",Sydney,2026,14,-33.8941204758,151.2729775161,0,0
Blu Bar on 36 - Shangri-La Hotel Sydney,Modern Australian,4.1,Very Good,135,$,90,3,"Shangri-la Hotel, The Rocks","Shangri-la Hotel, The Rocks, Sydney",Sydney,2000,14,-33.8611346983,151.2062944472,0,1
Button Bar,Bar Food,4.1,Very Good,132,$,70,3,Surry Hills,"Surry Hills, Sydney",Sydney,2010,14,-33.8845402094,151.2105149031,0,0
Gallon,"Pizza, Modern Australian",4.1,Very Good,125,$,65,3,Pyrmont,"Pyrmont, Sydney",Sydney,2009,14,-33.8696330217,151.1935847998,0,0
Bulletin Place,Bar Food,4.1,Very Good,94,$,60,3,Circular Quay,"Circular Quay, Sydney",Sydney,2000,14,-33.8627269108,151.2097213045,0,0
Munich Brauhaus,"German, Salad",4.0,Very Good,983,$,100,4,The Rocks,"The Rocks, Sydney",Sydney,2000,14,-33.8590162497,151.2082202733,0,1
Mary's,"American, Burger",4.0,Very Good,1049,$,70,3,Newtown,"Newtown, Sydney",Sydney,2042,14,-33.8961587389,151.1797429249,0,0
Opera Bar,"Australian, Seafood, Bar Food, Pizza",4.0,Very Good,593,$,110,4,Circular Quay,"Circular Quay, Sydney",Sydney,2000,14,-33.8584154237,151.2138435245,0,0
El loco,Mexican,4.0,Very Good,1059,$,75,3,Surry Hills,"Surry Hills, Sydney",Sydney,,14,-33.8845488378,151.2111924961,0,0
Alpha Restaurant,"Greek, Cafe Food, Coffee and Tea",4.0,Very Good,373,$,120,4,CBD,"CBD, Sydney",Sydney,2000,14,-33.8757407908,151.2081850693,0,0
Pony Lounge & Dining,"Modern Australian, Tapas",4.0,Very Good,323,$,100,4,"The Rocks Centre, The Rocks ","The Rocks Centre, The Rocks , Sydney",Sydney,2000,14,-33.8591006100,151.2083741650,0,1
The Boathouse Palm Beach,"Seafood, Modern Australian",4.0,Very Good,322,$,70,3,Palm Beach,"Palm Beach, Sydney",Sydney,,14,-33.5874250000,151.3241888889,0,0
The Governor's Kitchen,Modern Australian,4.0,Very Good,149,$,100,4,CBD,"CBD, Sydney",Sydney,2000,14,-33.8633769837,151.2114047259,0,1
Since I Left You,Bar Food,4.0,Very Good,112,$,50,2,CBD,"CBD, Sydney",Sydney,2000,14,-33.8693774663,151.2048950046,0,0
Uncle Ming's,Dumplings,4.0,Very Good,200,$,70,3,CBD,"CBD, Sydney",Sydney,2000,14,-33.8672071632,151.2059819698,0,0
Raw Bar,"Japanese, Sushi",4.0,Very Good,144,$,70,3,Bondi Beach,"Bondi Beach, Sydney",Sydney,2026,14,-33.8887938781,151.2782235816,0,0
Henrys Cronulla,Modern Australian,4.0,Very Good,43,$,80,3,Cronulla,"Cronulla, Sydney",Sydney,,14,-34.0532299879,151.1539276689,0,1
The Taphouse,"Modern Australian, Bar Food",4.0,Very Good,185,$,60,3,Darlinghurst,"Darlinghurst, Sydney",Sydney,2010,14,-33.8847216828,151.2181628868,0,0
Mad Pizza e Bar,"Italian, Pizza",4.0,Very Good,182,$,80,3,Darlinghurst,"Darlinghurst, Sydney",Sydney,2010,14,-33.8770874978,151.2218539417,0,1
Assembly Bar,"Tapas, Burger, Italian, Bar Food",4.0,Very Good,99,$,70,3,CBD,"CBD, Sydney",Sydney,2000,14,-33.8748842653,151.2059105560,0,0
One Penny Red,Modern Australian,4.0,Very Good,123,$,140,4,Summer Hill,"Summer Hill, Sydney",Sydney,2130,14,-33.8918553417,151.1370830610,0,1
Wine Library,"European, Bar Food, Tapas",4.0,Very Good,139,$,75,3,Woollahra,"Woollahra, Sydney",Sydney,,14,-33.8888360000,151.2325860000,0,1
Degani,Modern Australian,4.0,Very Good,42,$,80,3,Zetland,"Zetland, Sydney",Sydney,2017,14,-33.9061445221,151.2127072737,0,1
The Push - The Russell Hotel,"Pub Food, Modern Australian",4.0,Very Good,130,$,100,4,"The Russell Hotel, The Rocks","The Russell Hotel, The Rocks, Sydney",Sydney,2000,14,-33.8605497567,151.2086158991,0,1
Timbah,Tapas,4.0,Very Good,71,$,60,3,Glebe,"Glebe, Sydney",Sydney,2037,14,-33.8758050925,151.1841598526,0,0
Bar Zini,"Coffee and Tea, Italian, Cafe Food",4.0,Very Good,87,$,50,2,Pyrmont,"Pyrmont, Sydney",Sydney,2009,14,-33.8677024181,151.1929695681,0,0
The Cuban Place,"Cuban, Latin American, Steak",3.9,Good,836,$,110,4,CBD,"CBD, Sydney",Sydney,2000,14,-33.8721529017,151.2071748823,0,1
Subsolo,"Spanish, Tapas",3.9,Good,362,$,85,3,CBD,"CBD, Sydney",Sydney,2000,14,-33.8688632909,151.2100287527,0,1
El Topo Mexican,"Mexican, Bar Food",3.9,Good,197,$,80,3,"The Eastern Hotel, Bondi Junction","The Eastern Hotel, Bondi Junction, Sydney",Sydney,2022,14,-33.8918002364,151.2511480227,0,1
Gowings Bar & Grill,"European, Steak, Seafood, Poké",3.9,Good,308,$,80,3,"QT Sydney, CBD","QT Sydney, CBD, Sydney",Sydney,2000,14,-33.8708665251,151.2069814280,0,0
Jean's Chilli Chicken,"Korean, Bar Food",3.9,Good,152,$,80,3,Eastwood,"Eastwood, Sydney",Sydney,2122,14,-33.7909367912,151.0831716657,0,0
Palmer & Co.,Bar Food,3.9,Good,224,$,80,3,"Establishment, CBD","Establishment, CBD, Sydney",Sydney,2000,14,-33.8643525015,151.2078789622,0,0
Grasshopper,Bar Food,3.9,Good,187,$,30,2,CBD,"CBD, Sydney",Sydney,2000,14,-33.8696984415,151.2065371871,0,1
The Clock,"Modern Australian, Pizza",3.9,Good,176,$,90,3,Surry Hills,"Surry Hills, Sydney",Sydney,2010,14,-33.8863404531,151.2137063965,0,0
Tokyo Bird,"Japanese, Bar Food",3.9,Good,107,$,70,3,Surry Hills,"Surry Hills, Sydney",Sydney,2010,14,-33.8838170953,151.2100327760,0,0
Zeta Bar - Hilton Sydney,Bar Food,3.9,Good,139,$,150,4,"Hilton Sydney, CBD","Hilton Sydney, CBD, Sydney",Sydney,2000,14,-33.8722199899,151.2075007707,0,0
Trinity Bar & Bistro,"Bar Food, Burger, Irish",3.9,Good,167,$,70,3,Surry Hills,"Surry Hills, Sydney",Sydney,2010,14,-33.8886897864,151.2134043127,0,0
Different Drummer,"Tapas, Burger, American",3.9,Good,145,$,60,3,Glebe,"Glebe, Sydney",Sydney,2037,14,-33.8807213849,151.1878103390,0,0
Casoni,Italian,3.9,Good,69,$,110,4,Darlinghurst,"Darlinghurst, Sydney",Sydney,2010,14,-33.8801232168,151.2169488519,0,1
Hayberry Bar & Diner,"American, Burger",3.9,Good,72,$,80,3,Crows Nest,"Crows Nest, Sydney",Sydney,2065,14,-33.8240825320,151.2008224055,0,0
Belgrave Cartel,"Tapas, Coffee and Tea, Cafe Food",3.9,Good,99,$,50,2,Manly,"Manly, Sydney",Sydney,2095,14,-33.7975101844,151.2849562615,0,1
Momo Brasserie,Modern Australian,3.9,Good,101,$,60,3,CBD,"CBD, Sydney",Sydney,2000,14,-33.8685592941,151.2105719000,0,0
Blacksheep,Tapas,3.9,Good,90,$,85,3,Newtown,"Newtown, Sydney",Sydney,2042,14,-33.8960936177,151.1812084168,0,0
Jah Bar,"Latin American, Spanish, Tapas, Bar Food",3.9,Good,85,$,120,4,Manly,"Manly, Sydney",Sydney,2095,14,-33.7969111549,151.2864103541,0,0
Archie Rose Distilling Co.,Drinks Only,3.9,Good,32,$,80,3,The Cannery Rosebery,"The Cannery Rosebery, Sydney",Sydney,2018,14,-33.9174907856,151.2023767456,0,0
Big Poppa’s,Italian,3.9,Good,41,$,70,3,Darlinghurst,"Darlinghurst, Sydney",Sydney,2010,14,-33.8796823122,151.2156634033,0,0
Rocksalt,Modern Australian,3.9,Good,70,$,95,3,Menai,"Menai, Sydney",Sydney,2234,14,-34.0123280866,151.0171504319,0,1
The Foxtrot,American,3.9,Good,58,$,50,2,Crows Nest,"Crows Nest, Sydney",Sydney,2065,14,-33.8279584792,151.2026137859,0,0
Zephyr - Hyatt Regency,Bar Food,3.9,Good,25,$,80,3,Darling Harbour,"Darling Harbour, Sydney",Sydney,,14,-33.8699077846,151.2033963203,0,0
Mama's Buoi,"Vietnamese, Salad",3.8,Good,199,$,125,4,Surry Hills,"Surry Hills, Sydney",Sydney,2010,14,-33.8867312246,151.2089193240,0,0
The Oaks Hotel,"Pub Food, Pizza",3.8,Good,203,$,120,4,Neutral Bay,"Neutral Bay, Sydney",Sydney,2089,14,-33.8302122189,151.2191901729,0,1
Firefly,Tapas,3.8,Good,193,$,80,3,Neutral Bay,"Neutral Bay, Sydney",Sydney,2089,14,-33.8300813187,151.2215307355,0,1
Porch and Parlour,"Healthy Food, Coffee and Tea, Cafe Food",3.8,Good,203,$,70,3,Bondi Beach,"Bondi Beach, Sydney",Sydney,2026,14,-33.8897974936,151.2810962275,0,1
The Tilbury,Modern Australian,3.8,Good,128,$,100,4,Woolloomooloo,"Woolloomooloo, Sydney",Sydney,2011,14,-33.8696402596,151.2204340473,0,1
Banksii,"French, Bar Food",3.8,Good,71,$,100,4,Barangaroo,"Barangaroo, Sydney",Sydney,2000,14,-33.8647642535,151.2013078854,0,1
Work in Progress,"Asian, Dumplings",3.8,Good,88,$,80,3,CBD,"CBD, Sydney",Sydney,2000,14,-33.8686503262,151.2055860087,0,0
Lobby Lounge - Shangri-La Hotel Sydney,"Modern Australian, Bar Food",3.8,Good,78,$,65,3,"Shangri-la Hotel, The Rocks","Shangri-la Hotel, The Rocks, Sydney",Sydney,2000,14,-33.8611455563,151.2063658610,0,1
Gigino,"Italian, Pizza",3.8,Good,113,$,70,3,Fairfield,"Fairfield, Sydney",Sydney,02165,14,-33.8698958142,150.9274144471,0,0
The Beresford Hotel,"Italian, Pizza, Bar Food",3.8,Good,176,$,90,3,Surry Hills,"Surry Hills, Sydney",Sydney,2010,14,-33.8831847133,151.2159577757,0,0
The Wolf Wine Bar,"Coffee and Tea, Bar Food, Cafe Food",3.8,Good,39,$,75,3,CBD,"CBD, Sydney",Sydney,2000,14,-33.8659836291,151.2098788843,0,0
Li'l Darlin,"Bar Food, Pizza, Tapas",3.8,Good,92,$,80,3,Surry Hills,"Surry Hills, Sydney",Sydney,2010,14,-33.8866944855,151.2083932757,0,0
Mizz B'z Food & Wine,"Asian, Bar Food, Contemporary, Fusion",3.8,Good,49,$,120,4,CBD,"CBD, Sydney",Sydney,,14,-33.8698462623,151.2098309398,0,1
Delicado Foods & Wines,"Spanish, Tapas",3.8,Good,116,$,80,3,McMahons Point,"McMahons Point, Sydney",Sydney,2060,14,-33.8448559013,151.2041590735,0,0
The General - Eatery & Supplies,"Coffee and Tea, Bar Food, Cafe Food",3.8,Good,67,$,50,2,Dulwich Hill,"Dulwich Hill, Sydney",Sydney,2203,14,-33.9049276682,151.1438177526,0,1
Black Star Pastry,"Bakery, Desserts, Coffee and Tea",4.7,Excellent,1778,$,30,2,Newtown,"Newtown, Sydney",Sydney,2042,14,-33.8971926017,151.1784387007,0,0
Bourke Street Bakery,"Cafe Food, Bakery, Desserts, Coffee and Tea",4.7,Excellent,1953,$,30,2,Surry Hills,"Surry Hills, Sydney",Sydney,2010,14,-33.8895111054,151.2149925157,0,0
The Pie Tin,"Bakery, Coffee and Tea",4.4,Very Good,712,$,40,2,Newtown,"Newtown, Sydney",Sydney,2042,14,-33.8953589129,151.1824418977,0,0
Flour and Stone,"Bakery, Coffee and Tea, Desserts, Cafe Food",4.4,Very Good,233,$,35,2,Woolloomooloo,"Woolloomooloo, Sydney",Sydney,2011,14,-33.8736037755,151.2154384330,0,0
Brasserie Bread,"Bakery, Cafe Food, Coffee and Tea",4.3,Very Good,225,$,40,2,Botany Bay,"Botany Bay, Sydney",Sydney,,14,-33.9593121036,151.2096391618,0,0
Bourke Street Bakery,"Cafe Food, Bakery, Desserts, Coffee and Tea",4.3,Very Good,256,$,30,2,Marrickville,"Marrickville, Sydney",Sydney,2204,14,-33.9080286217,151.1628875881,0,0
King's Hot Bread,"Bakery, Fast Food",4.3,Very Good,136,$,15,1,Hurstville,"Hurstville, Sydney",Sydney,2220,14,-33.9677505914,151.1041978374,0,0
Victoire Boulangerie,"Bakery, French",4.2,Very Good,53,$,25,1,Rozelle,"Rozelle, Sydney",Sydney,2039,14,-33.8632216348,151.1704537645,0,0
Bourke Street Bakery,"Cafe Food, Bakery, Desserts, Coffee and Tea",4.1,Very Good,225,$,30,2,Alexandria,"Alexandria, Sydney",Sydney,,14,-33.9210275237,151.1938322336,0,0
Emperor's Puffs,"Desserts, Bakery",4.1,Very Good,102,$,10,1,Chinatown,"Chinatown, Sydney",Sydney,2000,14,-33.8792475290,151.2041268870,0,0
Bourke Street Bakery,"Cafe Food, Bakery, Desserts, Coffee and Tea",4.1,Very Good,41,$,30,2,Barangaroo,"Barangaroo, Sydney",Sydney,,14,-33.8647275049,151.2015647069,0,0
Central Baking Depot,"Bakery, Coffee and Tea, Sandwich, Cafe Food",4.0,Very Good,188,$,30,2,CBD,"CBD, Sydney",Sydney,2000,14,-33.8664719313,151.2042365223,0,0
MakMak Macarons,"Bakery, Desserts",4.0,Very Good,87,$,25,1,Surry Hills,"Surry Hills, Sydney",Sydney,2042,14,-33.8900902822,151.2080895156,0,0
Abla's Pastries,"Coffee and Tea, Desserts, Lebanese, Bakery",4.0,Very Good,74,$,90,3,Granville,"Granville, Sydney",Sydney,,14,-33.8321570382,151.0100533068,0,0
Ganache Patisserie Francaise,"Bakery, French, Desserts, Cafe Food, Coffee and Tea",4.0,Very Good,48,$,25,1,Willoughby,"Willoughby, Sydney",Sydney,2068,14,-33.8024878173,151.2120725960,0,0
Emperor's Garden Cake & Bakery,"Bakery, Asian",3.9,Good,188,$,15,1,Chinatown,"Chinatown, Sydney",Sydney,2000,14,-33.8793151683,151.2041573972,0,0
Jillian's Cakery,"Bakery, Desserts, Cafe Food, Coffee and Tea",3.9,Good,53,$,20,1,Surry Hills,"Surry Hills, Sydney",Sydney,2010,14,-33.8812352105,151.2090440467,0,0
Penny Four's,Bakery,3.9,Good,45,$,35,2,Leichhardt,"Leichhardt, Sydney",Sydney,2040,14,-33.8819126984,151.1571355909,0,0
La Paula,"Bakery, Desserts",3.9,Good,66,$,15,1,Fairfield,"Fairfield, Sydney",Sydney,2165,14,-33.8723833952,150.9536715969,0,0
District Brasserie,"European, Bakery",3.9,Good,21,$,100,4,"Chifley Plaza, CBD","Chifley Plaza, CBD, Sydney",Sydney,,14,-33.8659805668,151.2116950750,0,1
Iggy's Down Under,Bakery,3.9,Good,61,$,30,2,Bronte,"Bronte, Sydney",Sydney,,14,-33.9062677926,151.2632665783,0,0
Labancz,"Bakery, French, Cafe Food, Coffee and Tea",3.9,Good,45,$,30,2,Rozelle,"Rozelle, Sydney",Sydney,2039,14,-33.8647483848,151.1684893817,0,0
Wild Cockatoo Bakery,Bakery,3.9,Good,44,$,25,1,Waterloo,"Waterloo, Sydney",Sydney,,14,-33.8958804426,151.1989277601,0,0
Croissant d'Or,"Desserts, Bakery",3.9,Good,59,$,25,1,Potts Point,"Potts Point, Sydney",Sydney,2011,14,-33.8724747017,151.2250682339,0,0
Textbook Boulangerie-Patisserie,"Bakery, Desserts",3.8,Good,110,$,35,2,Alexandria,"Alexandria, Sydney",Sydney,,14,-33.9033582266,151.2016968057,0,0
Pottery Green Bakers,"Cafe Food, Bakery, Coffee and Tea",3.8,Good,125,$,55,2,Gordon,"Gordon, Sydney",Sydney,2072,14,-33.7564742268,151.1537989229,0,0
Sonoma Café,"Cafe Food, Bakery, Coffee and Tea",3.8,Good,123,$,80,3,Alexandria,"Alexandria, Sydney",Sydney,,14,-33.9205570614,151.1957312375,0,0
The Sweet Spot Patisserie,"Desserts, Bakery, Cafe Food, Coffee and Tea",3.8,Good,127,$,20,1,Randwick,"Randwick, Sydney",Sydney,2031,14,-33.9196125122,151.2423198670,0,0
Bake Bar,"Bakery, Cafe Food, Coffee and Tea",3.8,Good,39,$,30,2,Double Bay,"Double Bay, Sydney",Sydney,2028,14,-33.8779459497,151.2440042943,0,0
Infinity Bakery,"Bakery, Desserts, Cafe Food, Coffee and Tea",3.8,Good,91,$,30,2,Darlinghurst,"Darlinghurst, Sydney",Sydney,2010,14,-33.8764728810,151.2219981104,0,0
Dulcet Cakes & Sweets,"Bakery, Coffee and Tea, Desserts, Ice Cream, Fusion, BBQ, Japanese, Cafe Food",3.7,Good,98,$,15,1,Burwood,"Burwood, Sydney",Sydney,,14,-33.8787982693,151.1025067046,0,0
Oregano Bakery,"Bakery, Desserts, Lebanese, Cafe Food, Coffee and Tea",3.7,Good,151,$,30,2,Hurstville,"Hurstville, Sydney",Sydney,,14,-33.9775425366,151.1051630974,0,0
Top Impression Bakery & Patisserie Cafe,"Bakery, Desserts, Cafe Food, Coffee and Tea",3.7,Good,80,$,25,1,Wolli Creek,"Wolli Creek, Sydney",Sydney,2205,14,-33.9292792490,151.1539219692,0,0
Saga,"Bakery, Cafe Food, Coffee and Tea",3.7,Good,47,$,55,2,Enmore,"Enmore, Sydney",Sydney,2042,14,-33.8992380268,151.1723946780,0,0
IKEA Restaurant and Café,"Bakery, European",3.7,Good,84,$,15,1,Rhodes,"Rhodes, Sydney",Sydney,2138,14,-33.8354650510,151.0847340524,0,0
Sonoma Café,"Bakery, Cafe Food, Coffee and Tea",3.7,Good,101,$,30,2,Glebe,"Glebe, Sydney",Sydney,2037,14,-33.8800736708,151.1872738972,0,0
Bake Bar & Gusto Espresso Bar,"Bakery, Coffee and Tea, Cafe Food",3.7,Good,45,$,30,2,Randwick,"Randwick, Sydney",Sydney,2031,14,-33.9080174914,151.2484500557,0,0
Bourke Street Bakery,"Cafe Food, Bakery, Desserts, Coffee and Tea",3.7,Good,68,$,30,2,Neutral Bay,"Neutral Bay, Sydney",Sydney,2089,14,-33.8302222453,151.2208068743,0,0
Luxe Espresso,"Sandwich, Bakery, Cafe Food, Coffee and Tea",3.7,Good,71,$,40,2,"Westfield Bondi Junction, Bondi Junction","Westfield Bondi Junction, Bondi Junction, Sydney",Sydney,2022,14,-33.8917237011,151.2507031113,0,0
Sourdough Panini Bakery Cafe,"Bakery, Sandwich, Coffee and Tea",3.7,Good,56,$,25,1,CBD,"CBD, Sydney",Sydney,2000,14,-33.8702340471,151.2062441558,0,0
The Cake Man,"Bakery, Cafe Food, Coffee and Tea",3.7,Good,46,$,40,2,Lane Cove,"Lane Cove, Sydney",Sydney,,14,-33.8143102764,151.1689648032,0,0
Pottery Green Bakers,"Cafe Food, Bakery, Coffee and Tea",3.6,Good,50,$,55,2,Lane Cove,"Lane Cove, Sydney",Sydney,2066,14,-33.8141654237,151.1700889841,0,0
Saint Germain Patisserie,"Bakery, Cafe Food, Coffee and Tea",3.6,Good,85,$,30,2,Redfern,"Redfern, Sydney",Sydney,,14,-33.8950628028,151.1983199045,0,0
Sonoma Café,"Bakery, Cafe Food, Coffee and Tea",3.6,Good,73,$,45,2,Waterloo,"Waterloo, Sydney",Sydney,2017,14,-33.8977608730,151.2110432982,0,0
Luneburger German Bakery,"Bakery, German, Coffee and Tea",3.6,Good,80,$,20,1,"Central Station, Chinatown","Central Station, Chinatown, Sydney",Sydney,2008,14,-33.8840158270,151.2041788548,0,0
Breadfern,"Bakery, Cafe Food, Coffee and Tea",3.6,Good,46,$,30,2,Redfern,"Redfern, Sydney",Sydney,2016,14,-33.8928745065,151.2055883557,0,0
Voglia Di Pane Fine Italian Bakery,Bakery,3.6,Good,22,$,25,1,Woodpark,"Woodpark, Sydney",Sydney,2164,14,-33.8411739822,150.9615616500,0,0
Bourke Street Bakery,"Cafe Food, Bakery, Desserts, Coffee and Tea",3.6,Good,37,$,30,2,"MLC Building, North Sydney","MLC Building, North Sydney, Sydney",Sydney,2060,14,-33.8388523034,151.2074129283,0,0
Pasticceria Caruso,"Bakery, Italian",3.6,Good,16,$,20,1,Wetherill Park,"Wetherill Park, Sydney",Sydney,2164,14,-33.8595769797,150.8980626985,0,0
St. Honore Sourdough Bakery,"Bakery, French",3.6,Good,47,$,35,2,North Sydney,"North Sydney, Sydney",Sydney,2060,14,-33.8405989291,151.2063343450,0,0
Organic Bread Bar,"Bakery, Coffee and Tea",3.6,Good,46,$,35,2,Paddington,"Paddington, Sydney",Sydney,2021,14,-33.8844508642,151.2183536589,0,0
Sonoma Café,"Bakery, Cafe Food, Coffee and Tea",3.6,Good,49,$,30,2,Paddington,"Paddington, Sydney",Sydney,2021,14,-33.8822350182,151.2285178900,0,0
Lim's Hot Bread,"Bakery, Vietnamese",3.6,Good,26,$,20,1,Eastwood,"Eastwood, Sydney",Sydney,2122,14,-33.7903519265,151.0806128383,0,0
La Royale Patisserie,"Bakery, Desserts, Cafe Food, Coffee and Tea",3.6,Good,30,$,25,1,Wetherill Park,"Wetherill Park, Sydney",Sydney,02164,14,-33.8515066000,150.8977884000,0,0
Central Baking Depot,"Bakery, Coffee and Tea, Sandwich, Cafe Food",3.6,Good,36,$,30,2,Bondi Junction,"Bondi Junction, Sydney",Sydney,2022,14,-33.8922792066,151.2514843047,0,0
Sugarloaf Patisserie,Desserts,3.6,Good,27,$,15,1,Monterey,"Monterey, Sydney",Sydney,2217,14,-33.9651039562,151.1417487636,0,0
La Banette Patisserie,"Bakery, French",3.6,Good,22,$,30,2,Avalon,"Avalon, Sydney",Sydney,2107,14,-33.6358870000,151.3284760000,0,0
Balkan Oven Burek Bakery Cafe,"Bakery, Eastern European, Cafe Food, Coffee and Tea",3.6,Good,23,$,20,1,Rockdale,"Rockdale, Sydney",Sydney,2216,14,-33.9525918037,151.1382850260,0,0
La Vigne Bakery,"Bakery, Desserts, Cafe Food, Coffee and Tea",3.5,Good,53,$,20,1,Eastwood,"Eastwood, Sydney",Sydney,2122,14,-33.7909615901,151.0841077566,0,0
The Grumpy Baker,"Bakery, Coffee and Tea, Cafe Food",3.5,Good,56,$,50,2,Vaucluse,"Vaucluse, Sydney",Sydney,2030,14,-33.8572780747,151.2827565149,0,0
Croquembouche Patisserie,"Bakery, Desserts",3.5,Good,48,$,40,2,Botany Bay,"Botany Bay, Sydney",Sydney,,14,-33.9541962140,151.2042636797,0,0
Mountain High Pies,Bakery,3.5,Good,29,$,30,2,Katoomba,"Katoomba, Sydney",Sydney,02782,14,-33.7107730000,150.3663200000,0,0
The Portuguese Bakery,"Bakery, Portuguese, Desserts, Cafe Food, Coffee and Tea",3.5,Good,28,$,30,2,Gymea,"Gymea, Sydney",Sydney,2227,14,-34.0336365787,151.0854696482,0,0
Vinata's Hot Bread,"Bakery, Vietnamese",3.5,Good,25,$,15,1,Cabramatta,"Cabramatta, Sydney",Sydney,2166,14,-33.8936189732,150.9383229911,0,0
Nguyen Hot Bread,"Bakery, Asian",3.5,Good,15,$,15,1,Canley Vale,"Canley Vale, Sydney",Sydney,2166,14,-33.8869352377,150.9420710430,0,0
Lion D'Or,"Bakery, Desserts",3.5,Good,9,$,30,2,Canley Vale,"Canley Vale, Sydney",Sydney,,14,-33.8854080496,150.9674541280,0,0
Tin Pin Bakery,"Bakery, Sandwich",3.5,Good,19,$,25,1,Bondi,"Bondi, Sydney",Sydney,2026,14,-33.8946286546,151.2682051957,0,0
Foodcraft Espresso & Bakery,"Bakery, Coffee and Tea, Cafe Food",3.4,Average,108,$,60,3,Erskineville,"Erskineville, Sydney",Sydney,2043,14,-33.9030135158,151.1851162844,0,0
LAB: The Bakery Cafe Experiment,"Bakery, Korean, Coffee and Tea",3.4,Average,64,$,20,1,Strathfield,"Strathfield, Sydney",Sydney,,14,-33.8725843806,151.0944889113,0,0
85 Degrees Bakery & Cafe,"Bakery, Desserts",3.4,Average,98,$,20,1,"SkyView Shopping Plaza, CBD","SkyView Shopping Plaza, CBD, Sydney",Sydney,2000,14,-33.8763676608,151.2061958760,0,0
Glenorie Bakery Cafe Deli,"Bakery, Cafe Food, Coffee and Tea",3.4,Average,34,$,50,2,Dural,"Dural, Sydney",Sydney,2157,14,-33.6020440962,151.0080949590,0,0
Pioik Bakery,"Bakery, Cafe Food, Coffee and Tea",3.4,Average,39,$,35,2,Pyrmont,"Pyrmont, Sydney",Sydney,2009,14,-33.8703306451,151.1944608763,0,0
Cousin Jacks Pasty Co.,"Bakery, Cafe Food, Coffee and Tea",3.4,Average,39,$,25,1,Bondi Junction,"Bondi Junction, Sydney",Sydney,2022,14,-33.8920106385,151.2488255650,0,0
